Pose,FrameNo,timestamp(ns),timeboot(ms),xgyro,xyyro,zgyro,xacc,yacc,zacc,x,y,z,roll,pitch,yaw,hdop,lat,lon,alt,vx,vy,vz,gpsxacc,gpsyacc,gpszacc
attitude,0,1511458539658920960.000000,0.000000,-0.000003,0.000000,-0.000003,-0.012880,0.001512,-0.013813,0.000000,0.000000,-1.667237,-0.070832,-0.039167,0.014606,0,0,0,0,-0.006296,-0.004345,-0.002660,0.000000,0.000000,0.000000
highres_imu,0,1511458539669037824.000000,0.000000,-0.000003,0.000000,-0.000003,0.008940,-0.018794,0.002697,0.000000,0.000000,-1.667237,-0.070832,-0.039167,0.014606,0,0,0,0,-0.006296,-0.004345,-0.002660,0.000000,0.000000,0.000000
highres_imu,0,1511458539684851968.000000,0.000000,-0.000003,0.000000,-0.000003,0.007231,-0.023389,-0.000616,0.000000,0.000000,-1.667237,-0.070832,-0.039167,0.014606,0,0,0,0,-0.006296,-0.004345,-0.002660,0.000000,0.000000,0.000000
attitude,0,1511458539690143744.000000,0.000000,-0.000003,0.000000,-0.000003,0.007231,-0.023389,-0.000616,0.000000,0.000000,-1.667237,-0.070788,-0.039357,0.014669,0,0,0,0,-0.006296,-0.004345,-0.002660,0.000000,0.000000,0.000000
local_position_ned,0,1511458539709423104.000000,0.000000,-0.000003,0.000000,-0.000003,0.007231,-0.023389,-0.000616,0.000000,0.000000,-1.637222,-0.070788,-0.039357,0.014669,0,0,0,0,0.009911,-0.001794,0.012750,0.000000,0.000000,0.000000
highres_imu,1,1511458539744679424.000000,0.000000,-0.000003,0.000000,-0.000003,-0.001495,-0.015514,-0.025625,0.000000,0.000000,-1.637222,-0.070788,-0.039357,0.014669,0,0,0,0,0.009911,-0.001794,0.012750,0.000000,0.000000,0.000000
attitude,1,1511458539749993728.000000,0.000000,-0.000003,0.000000,-0.000003,-0.001495,-0.015514,-0.025625,0.000000,0.000000,-1.637222,-0.070389,-0.041958,0.013525,0,0,0,0,0.009911,-0.001794,0.012750,0.000000,0.000000,0.000000
highres_imu,1,1511458539785074944.000000,0.000000,-0.000003,0.000000,-0.000003,-0.004355,0.010672,-0.000609,0.000000,0.000000,-1.637222,-0.070389,-0.041958,0.013525,0,0,0,0,0.009911,-0.001794,0.012750,0.000000,0.000000,0.000000
highres_imu,1,1511458539811696384.000000,0.000000,-0.000003,0.000000,-0.000003,0.002123,0.018753,0.012367,0.000000,0.000000,-1.637222,-0.070389,-0.041958,0.013525,0,0,0,0,0.009911,-0.001794,0.012750,0.000000,0.000000,0.000000
attitude,1,1511458539832622080.000000,0.000000,-0.000003,0.000000,-0.000003,0.002123,0.018753,0.012367,0.000000,0.000000,-1.637222,-0.070780,-0.041635,0.013668,0,0,0,0,0.009911,-0.001794,0.012750,0.000000,0.000000,0.000000
highres_imu,1,1511458539842558976.000000,0.000000,-0.000003,0.000000,-0.000003,0.005734,0.021643,0.015632,0.000000,0.000000,-1.637222,-0.070780,-0.041635,0.013668,0,0,0,0,0.009911,-0.001794,0.012750,0.000000,0.000000,0.000000
highres_imu,2,1511458539865064960.000000,0.000000,-0.000003,0.000000,-0.000003,0.002867,0.026842,0.001938,0.000000,0.000000,-1.637222,-0.070780,-0.041635,0.013668,0,0,0,0,0.009911,-0.001794,0.012750,0.000000,0.000000,0.000000
attitude,2,1511458539876128768.000000,0.000000,-0.000003,0.000000,-0.000003,0.002867,0.026842,0.001938,0.000000,0.000000,-1.637222,-0.070730,-0.040706,0.014171,0,0,0,0,0.009911,-0.001794,0.012750,0.000000,0.000000,0.000000
attitude,2,1511458539895284992.000000,0.000000,-0.000003,0.000000,-0.000003,0.002867,0.026842,0.001938,0.000000,0.000000,-1.637222,-0.070683,-0.040254,0.014037,0,0,0,0,0.009911,-0.001794,0.012750,0.000000,0.000000,0.000000
attitude,2,1511458539933963264.000000,0.000000,-0.000003,0.000000,-0.000003,0.002867,0.026842,0.001938,0.000000,0.000000,-1.637222,-0.070581,-0.040419,0.013679,0,0,0,0,0.009911,-0.001794,0.012750,0.000000,0.000000,0.000000
highres_imu,2,1511458539955067904.000000,0.000000,-0.000003,0.000000,-0.000003,0.005449,-0.009465,-0.008458,0.000000,0.000000,-1.637222,-0.070581,-0.040419,0.013679,0,0,0,0,0.009911,-0.001794,0.012750,0.000000,0.000000,0.000000
highres_imu,2,1511458539964887296.000000,0.000000,-0.000003,0.000000,-0.000003,0.001270,-0.013066,-0.001255,0.000000,0.000000,-1.637222,-0.070581,-0.040419,0.013679,0,0,0,0,0.009911,-0.001794,0.012750,0.000000,0.000000,0.000000
highres_imu,2,1511458539974915072.000000,0.000000,-0.000003,0.000000,-0.000003,-0.002873,-0.011370,-0.004873,0.000000,0.000000,-1.637222,-0.070581,-0.040419,0.013679,0,0,0,0,0.009911,-0.001794,0.012750,0.000000,0.000000,0.000000
attitude,3,1511458539986352640.000000,0.000000,-0.000003,0.000000,-0.000003,-0.002873,-0.011370,-0.004873,0.000000,0.000000,-1.637222,-0.070631,-0.041248,0.013754,0,0,0,0,0.009911,-0.001794,0.012750,0.000000,0.000000,0.000000
attitude,3,1511458540003107840.000000,0.000000,-0.000003,0.000000,-0.000003,-0.002873,-0.011370,-0.004873,0.000000,0.000000,-1.637222,-0.070749,-0.041389,0.013865,0,0,0,0,0.009911,-0.001794,0.012750,0.000000,0.000000,0.000000
highres_imu,3,1511458540026364672.000000,0.000000,-0.000003,0.000000,-0.000003,-0.006497,0.005549,-0.002890,0.000000,0.000000,-1.637222,-0.070749,-0.041389,0.013865,0,0,0,0,0.009911,-0.001794,0.012750,0.000000,0.000000,0.000000
attitude,4,1511458540147915520.000000,0.000000,-0.000003,0.000000,-0.000003,-0.006497,0.005549,-0.002890,0.000000,0.000000,-1.637222,-0.070684,-0.041028,0.014011,0,0,0,0,0.009911,-0.001794,0.012750,0.000000,0.000000,0.000000
highres_imu,4,1511458540157830912.000000,0.000000,-0.000003,0.000000,-0.000003,0.005510,0.015895,0.000764,0.000000,0.000000,-1.637222,-0.070684,-0.041028,0.014011,0,0,0,0,0.009911,-0.001794,0.012750,0.000000,0.000000,0.000000
highres_imu,4,1511458540167705856.000000,0.000000,-0.000003,0.000000,-0.000003,0.002655,0.019078,0.002052,0.000000,0.000000,-1.637222,-0.070684,-0.041028,0.014011,0,0,0,0,0.009911,-0.001794,0.012750,0.000000,0.000000,0.000000
highres_imu,4,1511458540177992448.000000,0.000000,-0.000003,0.000000,-0.000003,0.002742,0.015241,0.010557,0.000000,0.000000,-1.637222,-0.070684,-0.041028,0.014011,0,0,0,0,0.009911,-0.001794,0.012750,0.000000,0.000000,0.000000
highres_imu,4,1511458540194136576.000000,0.000000,-0.000003,0.000000,-0.000003,0.002229,0.013539,0.009387,0.000000,0.000000,-1.637222,-0.070684,-0.041028,0.014011,0,0,0,0,0.009911,-0.001794,0.012750,0.000000,0.000000,0.000000
attitude,4,1511458540199268352.000000,0.000000,-0.000003,0.000000,-0.000003,0.002229,0.013539,0.009387,0.000000,0.000000,-1.637222,-0.070677,-0.040528,0.014438,0,0,0,0,0.009911,-0.001794,0.012750,0.000000,0.000000,0.000000
highres_imu,4,1511458540214660352.000000,0.000000,-0.000003,0.000000,-0.000003,-0.000220,0.019074,0.009709,0.000000,0.000000,-1.637222,-0.070677,-0.040528,0.014438,0,0,0,0,0.009911,-0.001794,0.012750,0.000000,0.000000,0.000000
attitude,4,1511458540219874304.000000,0.000000,-0.000003,0.000000,-0.000003,-0.000220,0.019074,0.009709,0.000000,0.000000,-1.637222,-0.070762,-0.040035,0.014876,0,0,0,0,0.009911,-0.001794,0.012750,0.000000,0.000000,0.000000
highres_imu,4,1511458540229829632.000000,0.000000,-0.000003,0.000000,-0.000003,-0.000432,0.018860,0.005654,0.000000,0.000000,-1.637222,-0.070762,-0.040035,0.014876,0,0,0,0,0.009911,-0.001794,0.012750,0.000000,0.000000,0.000000
attitude,4,1511458540234979328.000000,0.000000,-0.000003,0.000000,-0.000003,-0.000432,0.018860,0.005654,0.000000,0.000000,-1.637222,-0.070786,-0.039899,0.014952,0,0,0,0,0.009911,-0.001794,0.012750,0.000000,0.000000,0.000000
attitude,5,1511458540256434176.000000,0.000000,-0.000003,0.000000,-0.000003,-0.000432,0.018860,0.005654,0.000000,0.000000,-1.637222,-0.070828,-0.039569,0.015066,0,0,0,0,0.009911,-0.001794,0.012750,0.000000,0.000000,0.000000
highres_imu,5,1511458540272273664.000000,0.000000,-0.000003,0.000000,-0.000003,-0.000535,0.005771,-0.007428,0.000000,0.000000,-1.637222,-0.070828,-0.039569,0.015066,0,0,0,0,0.009911,-0.001794,0.012750,0.000000,0.000000,0.000000
highres_imu,5,1511458540299905024.000000,0.000000,-0.000003,0.000000,-0.000003,0.004038,-0.006362,-0.006789,0.000000,0.000000,-1.637222,-0.070828,-0.039569,0.015066,0,0,0,0,0.009911,-0.001794,0.012750,0.000000,0.000000,0.000000
local_position_ned,5,1511458540309064960.000000,0.000000,-0.000003,0.000000,-0.000003,0.004038,-0.006362,-0.006789,0.000000,0.000000,-1.650628,-0.070828,-0.039569,0.015066,0,0,0,0,0.006955,-0.003973,0.009820,0.000000,0.000000,0.000000
attitude,5,1511458540329033472.000000,0.000000,-0.000003,0.000000,-0.000003,0.004038,-0.006362,-0.006789,0.000000,0.000000,-1.650628,-0.070520,-0.040271,0.014882,0,0,0,0,0.006955,-0.003973,0.009820,0.000000,0.000000,0.000000
highres_imu,5,1511458540349308416.000000,0.000000,-0.000003,0.000000,-0.000003,0.009898,-0.004983,-0.014227,0.000000,0.000000,-1.650628,-0.070520,-0.040271,0.014882,0,0,0,0,0.006955,-0.003973,0.009820,0.000000,0.000000,0.000000
attitude,5,1511458540354464000.000000,0.000000,-0.000003,0.000000,-0.000003,0.009898,-0.004983,-0.014227,0.000000,0.000000,-1.650628,-0.070449,-0.040339,0.014830,0,0,0,0,0.006955,-0.003973,0.009820,0.000000,0.000000,0.000000
attitude,6,1511458540381930496.000000,0.000000,-0.000003,0.000000,-0.000003,0.009898,-0.004983,-0.014227,0.000000,0.000000,-1.650628,-0.070390,-0.040432,0.014590,0,0,0,0,0.006955,-0.003973,0.009820,0.000000,0.000000,0.000000
highres_imu,6,1511458540392564224.000000,0.000000,-0.000003,0.000000,-0.000003,-0.000122,0.005879,-0.012336,0.000000,0.000000,-1.650628,-0.070390,-0.040432,0.014590,0,0,0,0,0.006955,-0.003973,0.009820,0.000000,0.000000,0.000000
highres_imu,6,1511458540414812928.000000,0.000000,-0.000003,0.000000,-0.000003,-0.001177,0.009815,-0.008704,0.000000,0.000000,-1.650628,-0.070390,-0.040432,0.014590,0,0,0,0,0.006955,-0.003973,0.009820,0.000000,0.000000,0.000000
highres_imu,7,1511458540527602688.000000,0.000000,-0.000003,0.000000,-0.000003,0.001691,0.009713,-0.004145,0.000000,0.000000,-1.650628,-0.070390,-0.040432,0.014590,0,0,0,0,0.006955,-0.003973,0.009820,0.000000,0.000000,0.000000
attitude,7,1511458540539180288.000000,0.000000,-0.000003,0.000000,-0.000003,0.001691,0.009713,-0.004145,0.000000,0.000000,-1.650628,-0.070472,-0.040233,0.014440,0,0,0,0,0.006955,-0.003973,0.009820,0.000000,0.000000,0.000000
highres_imu,7,1511458540561699072.000000,0.000000,-0.000003,0.000000,-0.000003,-0.001713,0.011093,-0.002430,0.000000,0.000000,-1.650628,-0.070472,-0.040233,0.014440,0,0,0,0,0.006955,-0.003973,0.009820,0.000000,0.000000,0.000000
highres_imu,7,1511458540571004160.000000,0.000000,-0.000003,0.000000,-0.000003,0.001276,0.009708,-0.001672,0.000000,0.000000,-1.650628,-0.070472,-0.040233,0.014440,0,0,0,0,0.006955,-0.003973,0.009820,0.000000,0.000000,0.000000
highres_imu,7,1511458540586268160.000000,0.000000,-0.000003,0.000000,-0.000003,0.000965,0.005131,-0.007838,0.000000,0.000000,-1.650628,-0.070472,-0.040233,0.014440,0,0,0,0,0.006955,-0.003973,0.009820,0.000000,0.000000,0.000000
attitude,7,1511458540591506176.000000,0.000000,-0.000003,0.000000,-0.000003,0.000965,0.005131,-0.007838,0.000000,0.000000,-1.650628,-0.070625,-0.039833,0.014467,0,0,0,0,0.006955,-0.003973,0.009820,0.000000,0.000000,0.000000
highres_imu,8,1511458540643706624.000000,0.000000,-0.000003,0.000000,-0.000003,0.005741,-0.005830,-0.005725,0.000000,0.000000,-1.650628,-0.070625,-0.039833,0.014467,0,0,0,0,0.006955,-0.003973,0.009820,0.000000,0.000000,0.000000
attitude,8,1511458540648804608.000000,0.000000,-0.000003,0.000000,-0.000003,0.005741,-0.005830,-0.005725,0.000000,0.000000,-1.650628,-0.070565,-0.040054,0.014373,0,0,0,0,0.006955,-0.003973,0.009820,0.000000,0.000000,0.000000
highres_imu,8,1511458540710700032.000000,0.000000,-0.000003,0.000000,-0.000003,-0.002666,0.012156,-0.010726,0.000000,0.000000,-1.650628,-0.070565,-0.040054,0.014373,0,0,0,0,0.006955,-0.003973,0.009820,0.000000,0.000000,0.000000
attitude,8,1511458540715496704.000000,0.000000,-0.000003,0.000000,-0.000003,-0.002666,0.012156,-0.010726,0.000000,0.000000,-1.650628,-0.070455,-0.040257,0.014185,0,0,0,0,0.006955,-0.003973,0.009820,0.000000,0.000000,0.000000
highres_imu,8,1511458540730705664.000000,0.000000,-0.000003,0.000000,-0.000003,-0.002886,0.012897,-0.008080,0.000000,0.000000,-1.650628,-0.070455,-0.040257,0.014185,0,0,0,0,0.006955,-0.003973,0.009820,0.000000,0.000000,0.000000
highres_imu,8,1511458540742609920.000000,0.000000,-0.000003,0.000000,-0.000003,0.001284,0.013533,-0.000401,0.000000,0.000000,-1.650628,-0.070455,-0.040257,0.014185,0,0,0,0,0.006955,-0.003973,0.009820,0.000000,0.000000,0.000000
highres_imu,8,1511458540752528640.000000,0.000000,-0.000003,0.000000,-0.000003,-0.001061,0.013649,-0.002521,0.000000,0.000000,-1.650628,-0.070455,-0.040257,0.014185,0,0,0,0,0.006955,-0.003973,0.009820,0.000000,0.000000,0.000000
attitude,8,1511458540757775616.000000,0.000000,-0.000003,0.000000,-0.000003,-0.001061,0.013649,-0.002521,0.000000,0.000000,-1.650628,-0.070624,-0.039834,0.014196,0,0,0,0,0.006955,-0.003973,0.009820,0.000000,0.000000,0.000000
attitude,9,1511458540783125760.000000,0.000000,-0.000003,0.000000,-0.000003,-0.001061,0.013649,-0.002521,0.000000,0.000000,-1.650628,-0.070636,-0.039568,0.014368,0,0,0,0,0.006955,-0.003973,0.009820,0.000000,0.000000,0.000000
highres_imu,9,1511458540799741440.000000,0.000000,-0.000003,0.000000,-0.000003,0.002869,0.009921,0.000770,0.000000,0.000000,-1.650628,-0.070636,-0.039568,0.014368,0,0,0,0,0.006955,-0.003973,0.009820,0.000000,0.000000,0.000000
attitude,9,1511458540829109760.000000,0.000000,-0.000003,0.000000,-0.000003,0.002869,0.009921,0.000770,0.000000,0.000000,-1.650628,-0.070638,-0.039370,0.014471,0,0,0,0,0.006955,-0.003973,0.009820,0.000000,0.000000,0.000000
highres_imu,9,1511458540839482624.000000,0.000000,-0.000003,0.000000,-0.000003,-0.000947,0.006407,-0.008693,0.000000,0.000000,-1.650628,-0.070638,-0.039370,0.014471,0,0,0,0,0.006955,-0.003973,0.009820,0.000000,0.000000,0.000000
highres_imu,9,1511458540885015808.000000,0.000000,-0.000003,0.000000,-0.000003,0.004138,0.005770,-0.008388,0.000000,0.000000,-1.650628,-0.070638,-0.039370,0.014471,0,0,0,0,0.006955,-0.003973,0.009820,0.000000,0.000000,0.000000
attitude,9,1511458540890613504.000000,0.000000,-0.000003,0.000000,-0.000003,0.004138,0.005770,-0.008388,0.000000,0.000000,-1.650628,-0.070660,-0.039272,0.014337,0,0,0,0,0.006955,-0.003973,0.009820,0.000000,0.000000,0.000000
highres_imu,9,1511458540900805120.000000,0.000000,-0.000003,0.000000,-0.000003,0.004898,-0.000296,-0.007317,0.000000,0.000000,-1.650628,-0.070660,-0.039272,0.014337,0,0,0,0,0.006955,-0.003973,0.009820,0.000000,0.000000,0.000000
highres_imu,10,1511458540912168192.000000,0.000000,-0.000003,0.000000,-0.000003,0.002121,-0.000296,-0.007537,0.000000,0.000000,-1.650628,-0.070660,-0.039272,0.014337,0,0,0,0,0.006955,-0.003973,0.009820,0.000000,0.000000,0.000000
attitude,10,1511458540923532032.000000,0.000000,-0.000003,0.000000,-0.000003,0.002121,-0.000296,-0.007537,0.000000,0.000000,-1.650628,-0.070583,-0.039328,0.014259,0,0,0,0,0.006955,-0.003973,0.009820,0.000000,0.000000,0.000000
highres_imu,11,1511458541049528064.000000,0.000000,-0.000003,0.000000,-0.000003,0.004132,-0.003488,-0.001685,0.000000,0.000000,-1.650628,-0.070583,-0.039328,0.014259,0,0,0,0,0.006955,-0.003973,0.009820,0.000000,0.000000,0.000000
attitude,11,1511458541061310976.000000,0.000000,-0.000003,0.000000,-0.000003,0.004132,-0.003488,-0.001685,0.000000,0.000000,-1.650628,-0.070554,-0.039515,0.014341,0,0,0,0,0.006955,-0.003973,0.009820,0.000000,0.000000,0.000000
highres_imu,11,1511458541071571200.000000,0.000000,-0.000003,0.000000,-0.000003,0.002655,-0.002636,-0.004874,0.000000,0.000000,-1.650628,-0.070554,-0.039515,0.014341,0,0,0,0,0.006955,-0.003973,0.009820,0.000000,0.000000,0.000000
highres_imu,11,1511458541094817280.000000,0.000000,-0.000003,0.000000,-0.000003,0.002442,0.005554,-0.001458,0.000000,0.000000,-1.650628,-0.070554,-0.039515,0.014341,0,0,0,0,0.006955,-0.003973,0.009820,0.000000,0.000000,0.000000
highres_imu,12,1511458541181729280.000000,0.000000,-0.000003,0.000000,-0.000003,0.004680,0.016732,0.009606,0.000000,0.000000,-1.650628,-0.070554,-0.039515,0.014341,0,0,0,0,0.006955,-0.003973,0.009820,0.000000,0.000000,0.000000
attitude,12,1511458541187360000.000000,0.000000,-0.000003,0.000000,-0.000003,0.004680,0.016732,0.009606,0.000000,0.000000,-1.650628,-0.070587,-0.038814,0.014847,0,0,0,0,0.006955,-0.003973,0.009820,0.000000,0.000000,0.000000
highres_imu,12,1511458541217585920.000000,0.000000,-0.000003,0.000000,-0.000003,0.003503,0.024181,0.010875,0.000000,0.000000,-1.650628,-0.070587,-0.038814,0.014847,0,0,0,0,0.006955,-0.003973,0.009820,0.000000,0.000000,0.000000
highres_imu,12,1511458541231884800.000000,0.000000,-0.000003,0.000000,-0.000003,0.004357,0.024181,0.007897,0.000000,0.000000,-1.650628,-0.070587,-0.038814,0.014847,0,0,0,0,0.006955,-0.003973,0.009820,0.000000,0.000000,0.000000
highres_imu,12,1511458541241184768.000000,0.000000,-0.000003,0.000000,-0.000003,0.003080,0.025352,-0.000297,0.000000,0.000000,-1.650628,-0.070587,-0.038814,0.014847,0,0,0,0,0.006955,-0.003973,0.009820,0.000000,0.000000,0.000000
attitude,12,1511458541251789312.000000,0.000000,-0.000003,0.000000,-0.000003,0.003080,0.025352,-0.000297,0.000000,0.000000,-1.650628,-0.070511,-0.037338,0.015592,0,0,0,0,0.006955,-0.003973,0.009820,0.000000,0.000000,0.000000
highres_imu,12,1511458541267590912.000000,0.000000,-0.000003,0.000000,-0.000003,0.005741,0.025352,0.002258,0.000000,0.000000,-1.650628,-0.070511,-0.037338,0.015592,0,0,0,0,0.006955,-0.003973,0.009820,0.000000,0.000000,0.000000
highres_imu,12,1511458541285064960.000000,0.000000,-0.000003,0.000000,-0.000003,0.001803,0.029498,-0.015083,0.000000,0.000000,-1.650628,-0.070511,-0.037338,0.015592,0,0,0,0,0.006955,-0.003973,0.009820,0.000000,0.000000,0.000000
highres_imu,12,1511458541295581952.000000,0.000000,-0.000003,0.000000,-0.000003,0.001378,0.031950,-0.016794,0.000000,0.000000,-1.650628,-0.070511,-0.037338,0.015592,0,0,0,0,0.006955,-0.003973,0.009820,0.000000,0.000000,0.000000
attitude,13,1511458541320473600.000000,0.000000,-0.000003,0.000000,-0.000003,0.001378,0.031950,-0.016794,0.000000,0.000000,-1.650628,-0.070471,-0.035496,0.014633,0,0,0,0,0.006955,-0.003973,0.009820,0.000000,0.000000,0.000000
highres_imu,13,1511458541336809216.000000,0.000000,-0.000003,0.000000,-0.000003,-0.001169,0.039719,-0.044675,0.000000,0.000000,-1.650628,-0.070471,-0.035496,0.014633,0,0,0,0,0.006955,-0.003973,0.009820,0.000000,0.000000,0.000000
highres_imu,13,1511458541360418560.000000,0.000000,-0.000003,0.000000,-0.000003,0.000299,0.041224,-0.067769,0.000000,0.000000,-1.650628,-0.070471,-0.035496,0.014633,0,0,0,0,0.006955,-0.003973,0.009820,0.000000,0.000000,0.000000
attitude,13,1511458541365525504.000000,0.000000,-0.000003,0.000000,-0.000003,0.000299,0.041224,-0.067769,0.000000,0.000000,-1.650628,-0.070596,-0.033945,0.012273,0,0,0,0,0.006955,-0.003973,0.009820,0.000000,0.000000,0.000000
highres_imu,13,1511458541385584896.000000,0.000000,-0.000003,0.000000,-0.000003,0.002228,0.037166,-0.069577,0.000000,0.000000,-1.650628,-0.070596,-0.033945,0.012273,0,0,0,0,0.006955,-0.003973,0.009820,0.000000,0.000000,0.000000
highres_imu,13,1511458541413532672.000000,0.000000,-0.000003,0.000000,-0.000003,0.003284,-0.000074,-0.083209,0.000000,0.000000,-1.650628,-0.070596,-0.033945,0.012273,0,0,0,0,0.006955,-0.003973,0.009820,0.000000,0.000000,0.000000
attitude,13,1511458541418762752.000000,0.000000,-0.000003,0.000000,-0.000003,0.003284,-0.000074,-0.083209,0.000000,0.000000,-1.650628,-0.070489,-0.033526,0.009610,0,0,0,0,0.006955,-0.003973,0.009820,0.000000,0.000000,0.000000
highres_imu,14,1511458541452844032.000000,0.000000,-0.000003,0.000000,-0.000003,-0.002022,-0.031376,-0.079048,0.000000,0.000000,-1.650628,-0.070489,-0.033526,0.009610,0,0,0,0,0.006955,-0.003973,0.009820,0.000000,0.000000,0.000000
attitude,14,1511458541458421248.000000,0.000000,-0.000003,0.000000,-0.000003,-0.002022,-0.031376,-0.079048,0.000000,0.000000,-1.650628,-0.070515,-0.034429,0.007223,0,0,0,0,0.006955,-0.003973,0.009820,0.000000,0.000000,0.000000
attitude,14,1511458541492633344.000000,0.000000,-0.000003,0.000000,-0.000003,-0.002022,-0.031376,-0.079048,0.000000,0.000000,-1.650628,-0.070691,-0.035523,0.004390,0,0,0,0,0.006955,-0.003973,0.009820,0.000000,0.000000,0.000000
highres_imu,14,1511458541502397440.000000,0.000000,-0.000003,0.000000,-0.000003,-0.011714,-0.010726,-0.080433,0.000000,0.000000,-1.650628,-0.070691,-0.035523,0.004390,0,0,0,0,0.006955,-0.003973,0.009820,0.000000,0.000000,0.000000
highres_imu,14,1511458541512481792.000000,0.000000,-0.000003,0.000000,-0.000003,-0.000095,0.000885,-0.099382,0.000000,0.000000,-1.650628,-0.070691,-0.035523,0.004390,0,0,0,0,0.006955,-0.003973,0.009820,0.000000,0.000000,0.000000
highres_imu,14,1511458541522646784.000000,0.000000,-0.000003,0.000000,-0.000003,-0.004573,0.009163,-0.107681,0.000000,0.000000,-1.650628,-0.070691,-0.035523,0.004390,0,0,0,0,0.006955,-0.003973,0.009820,0.000000,0.000000,0.000000
attitude,14,1511458541528045824.000000,0.000000,-0.000003,0.000000,-0.000003,-0.004573,0.009163,-0.107681,0.000000,0.000000,-1.650628,-0.070828,-0.036036,0.001138,0,0,0,0,0.006955,-0.003973,0.009820,0.000000,0.000000,0.000000
highres_imu,15,1511458541589594112.000000,0.000000,-0.000003,0.000000,-0.000003,0.025962,0.011305,-0.141625,0.000000,0.000000,-1.650628,-0.070828,-0.036036,0.001138,0,0,0,0,0.006955,-0.003973,0.009820,0.000000,0.000000,0.000000
attitude,15,1511458541600644864.000000,0.000000,-0.000003,0.000000,-0.000003,0.025962,0.011305,-0.141625,0.000000,0.000000,-1.650628,-0.069657,-0.034699,-0.007787,0,0,0,0,0.006955,-0.003973,0.009820,0.000000,0.000000,0.000000
highres_imu,15,1511458541610738176.000000,0.000000,-0.000003,0.000000,-0.000003,0.014895,0.004172,-0.150032,0.000000,0.000000,-1.650628,-0.069657,-0.034699,-0.007787,0,0,0,0,0.006955,-0.003973,0.009820,0.000000,0.000000,0.000000
attitude,15,1511458541628837376.000000,0.000000,-0.000003,0.000000,-0.000003,0.014895,0.004172,-0.150032,0.000000,0.000000,-1.650628,-0.069147,-0.035336,-0.012882,0,0,0,0,0.006955,-0.003973,0.009820,0.000000,0.000000,0.000000
highres_imu,15,1511458541649131264.000000,0.000000,-0.000003,0.000000,-0.000003,0.000341,-0.013062,-0.153112,0.000000,0.000000,-1.650628,-0.069147,-0.035336,-0.012882,0,0,0,0,0.006955,-0.003973,0.009820,0.000000,0.000000,0.000000
highres_imu,15,1511458541678774272.000000,0.000000,-0.000003,0.000000,-0.000003,0.017539,-0.028396,-0.147067,0.000000,0.000000,-1.650628,-0.069147,-0.035336,-0.012882,0,0,0,0,0.006955,-0.003973,0.009820,0.000000,0.000000,0.000000
attitude,15,1511458541683899136.000000,0.000000,-0.000003,0.000000,-0.000003,0.017539,-0.028396,-0.147067,0.000000,0.000000,-1.650628,-0.068929,-0.036993,-0.019143,0,0,0,0,0.006955,-0.003973,0.009820,0.000000,0.000000,0.000000
highres_imu,16,1511458541695081472.000000,0.000000,-0.000003,0.000000,-0.000003,0.009321,-0.028290,-0.145890,0.000000,0.000000,-1.650628,-0.068929,-0.036993,-0.019143,0,0,0,0,0.006955,-0.003973,0.009820,0.000000,0.000000,0.000000
highres_imu,16,1511458541714198016.000000,0.000000,-0.000003,0.000000,-0.000003,-0.010665,-0.064576,-0.135675,0.000000,0.000000,-1.650628,-0.068929,-0.036993,-0.019143,0,0,0,0,0.006955,-0.003973,0.009820,0.000000,0.000000,0.000000
highres_imu,16,1511458541724840960.000000,0.000000,-0.000003,0.000000,-0.000003,0.008300,-0.071278,-0.128314,0.000000,0.000000,-1.650628,-0.068929,-0.036993,-0.019143,0,0,0,0,0.006955,-0.003973,0.009820,0.000000,0.000000,0.000000
attitude,16,1511458541736518656.000000,0.000000,-0.000003,0.000000,-0.000003,0.008300,-0.071278,-0.128314,0.000000,0.000000,-1.650628,-0.068804,-0.039478,-0.024374,0,0,0,0,0.006955,-0.003973,0.009820,0.000000,0.000000,0.000000
attitude,16,1511458541752889856.000000,0.000000,-0.000003,0.000000,-0.000003,0.008300,-0.071278,-0.128314,0.000000,0.000000,-1.650628,-0.068598,-0.041886,-0.027278,0,0,0,0,0.006955,-0.003973,0.009820,0.000000,0.000000,0.000000
attitude,16,1511458541796008448.000000,0.000000,-0.000003,0.000000,-0.000003,0.008300,-0.071278,-0.128314,0.000000,0.000000,-1.650628,-0.068597,-0.042892,-0.029388,0,0,0,0,0.006955,-0.003973,0.009820,0.000000,0.000000,0.000000
highres_imu,16,1511458541811245312.000000,0.000000,-0.000003,0.000000,-0.000003,-0.007302,0.035999,-0.029556,0.000000,0.000000,-1.650628,-0.068597,-0.042892,-0.029388,0,0,0,0,0.006955,-0.003973,0.009820,0.000000,0.000000,0.000000
attitude,17,1511458541830315520.000000,0.000000,-0.000003,0.000000,-0.000003,-0.007302,0.035999,-0.029556,0.000000,0.000000,-1.650628,-0.068882,-0.041736,-0.029543,0,0,0,0,0.006955,-0.003973,0.009820,0.000000,0.000000,0.000000
highres_imu,17,1511458541840959232.000000,0.000000,-0.000003,0.000000,-0.000003,-0.008948,0.042527,0.009919,0.000000,0.000000,-1.650628,-0.068882,-0.041736,-0.029543,0,0,0,0,0.006955,-0.003973,0.009820,0.000000,0.000000,0.000000
highres_imu,17,1511458541871859200.000000,0.000000,-0.000003,0.000000,-0.000003,0.009496,-0.006440,0.044591,0.000000,0.000000,-1.650628,-0.068882,-0.041736,-0.029543,0,0,0,0,0.006955,-0.003973,0.009820,0.000000,0.000000,0.000000
attitude,17,1511458541877164800.000000,0.000000,-0.000003,0.000000,-0.000003,0.009496,-0.006440,0.044591,0.000000,0.000000,-1.650628,-0.069134,-0.040870,-0.028380,0,0,0,0,0.006955,-0.003973,0.009820,0.000000,0.000000,0.000000
local_position_ned,17,1511458541886851840.000000,0.000000,-0.000003,0.000000,-0.000003,0.009496,-0.006440,0.044591,0.000000,0.000000,-1.624987,-0.069134,-0.040870,-0.028380,0,0,0,0,0.149975,-0.018568,0.019320,0.000000,0.000000,0.000000
attitude,17,1511458541912762112.000000,0.000000,-0.000003,0.000000,-0.000003,0.009496,-0.006440,0.044591,0.000000,0.000000,-1.624987,-0.067998,-0.041833,-0.025300,0,0,0,0,0.149975,-0.018568,0.019320,0.000000,0.000000,0.000000
highres_imu,17,1511458541929283584.000000,0.000000,-0.000003,0.000000,-0.000003,0.033088,-0.021151,0.078566,0.000000,0.000000,-1.624987,-0.067998,-0.041833,-0.025300,0,0,0,0,0.149975,-0.018568,0.019320,0.000000,0.000000,0.000000
attitude,18,1511458541957268992.000000,0.000000,-0.000003,0.000000,-0.000003,0.033088,-0.021151,0.078566,0.000000,0.000000,-1.624987,-0.067931,-0.041311,-0.020948,0,0,0,0,0.149975,-0.018568,0.019320,0.000000,0.000000,0.000000
highres_imu,18,1511458541967524608.000000,0.000000,-0.000003,0.000000,-0.000003,-0.048004,0.058133,0.107296,0.000000,0.000000,-1.624987,-0.067931,-0.041311,-0.020948,0,0,0,0,0.149975,-0.018568,0.019320,0.000000,0.000000,0.000000
highres_imu,18,1511458541983676672.000000,0.000000,-0.000003,0.000000,-0.000003,-0.059602,0.103040,0.100271,0.000000,0.000000,-1.624987,-0.067931,-0.041311,-0.020948,0,0,0,0,0.149975,-0.018568,0.019320,0.000000,0.000000,0.000000
attitude,18,1511458541989106688.000000,0.000000,-0.000003,0.000000,-0.000003,-0.059602,0.103040,0.100271,0.000000,0.000000,-1.624987,-0.070179,-0.038469,-0.017374,0,0,0,0,0.149975,-0.018568,0.019320,0.000000,0.000000,0.000000
highres_imu,19,1511458542102091008.000000,0.000000,-0.000003,0.000000,-0.000003,-0.052153,0.106445,0.092716,0.000000,0.000000,-1.624987,-0.070179,-0.038469,-0.017374,0,0,0,0,0.149975,-0.018568,0.019320,0.000000,0.000000,0.000000
attitude,19,1511458542125670144.000000,0.000000,-0.000003,0.000000,-0.000003,-0.052153,0.106445,0.092716,0.000000,0.000000,-1.624987,-0.068638,-0.037167,-0.011119,0,0,0,0,0.149975,-0.018568,0.019320,0.000000,0.000000,0.000000
highres_imu,19,1511458542146258944.000000,0.000000,-0.000003,0.000000,-0.000003,-0.025442,-0.058934,0.051104,0.000000,0.000000,-1.624987,-0.068638,-0.037167,-0.011119,0,0,0,0,0.149975,-0.018568,0.019320,0.000000,0.000000,0.000000
highres_imu,19,1511458542177076736.000000,0.000000,-0.000003,0.000000,-0.000003,0.001271,-0.017631,0.054089,0.000000,0.000000,-1.624987,-0.068638,-0.037167,-0.011119,0,0,0,0,0.149975,-0.018568,0.019320,0.000000,0.000000,0.000000
local_position_ned,19,1511458542186243584.000000,0.000000,-0.000003,0.000000,-0.000003,0.001271,-0.017631,0.054089,0.000000,0.000000,-1.636379,-0.068638,-0.037167,-0.011119,0,0,0,0,0.101538,-0.039459,0.012740,0.000000,0.000000,0.000000
attitude,19,1511458542206364928.000000,0.000000,-0.000003,0.000000,-0.000003,0.001271,-0.017631,0.054089,0.000000,0.000000,-1.636379,-0.069209,-0.037592,-0.006793,0,0,0,0,0.101538,-0.039459,0.012740,0.000000,0.000000,0.000000
highres_imu,20,1511458542249406976.000000,0.000000,-0.000003,0.000000,-0.000003,0.032661,0.086234,0.018535,0.000000,0.000000,-1.636379,-0.069209,-0.037592,-0.006793,0,0,0,0,0.101538,-0.039459,0.012740,0.000000,0.000000,0.000000
highres_imu,20,1511458542260046592.000000,0.000000,-0.000003,0.000000,-0.000003,-0.000324,0.088892,-0.012431,0.000000,0.000000,-1.636379,-0.069209,-0.037592,-0.006793,0,0,0,0,0.101538,-0.039459,0.012740,0.000000,0.000000,0.000000
attitude,20,1511458542271157504.000000,0.000000,-0.000003,0.000000,-0.000003,-0.000324,0.088892,-0.012431,0.000000,0.000000,-1.636379,-0.068587,-0.033869,-0.006676,0,0,0,0,0.101538,-0.039459,0.012740,0.000000,0.000000,0.000000
highres_imu,20,1511458542287045632.000000,0.000000,-0.000003,0.000000,-0.000003,0.002137,0.070547,-0.011691,0.000000,0.000000,-1.636379,-0.068587,-0.033869,-0.006676,0,0,0,0,0.101538,-0.039459,0.012740,0.000000,0.000000,0.000000
highres_imu,20,1511458542297427712.000000,0.000000,-0.000003,0.000000,-0.000003,0.015858,0.010334,-0.016072,0.000000,0.000000,-1.636379,-0.068587,-0.033869,-0.006676,0,0,0,0,0.101538,-0.039459,0.012740,0.000000,0.000000,0.000000
highres_imu,20,1511458542344415232.000000,0.000000,-0.000003,0.000000,-0.000003,0.017670,-0.036050,-0.019985,0.000000,0.000000,-1.636379,-0.068587,-0.033869,-0.006676,0,0,0,0,0.101538,-0.039459,0.012740,0.000000,0.000000,0.000000
attitude,21,1511458542356133120.000000,0.000000,-0.000003,0.000000,-0.000003,0.017670,-0.036050,-0.019985,0.000000,0.000000,-1.636379,-0.067780,-0.033960,-0.007183,0,0,0,0,0.101538,-0.039459,0.012740,0.000000,0.000000,0.000000
highres_imu,21,1511458542384167936.000000,0.000000,-0.000003,0.000000,-0.000003,-0.026605,-0.061484,-0.046267,0.000000,0.000000,-1.636379,-0.067780,-0.033960,-0.007183,0,0,0,0,0.101538,-0.039459,0.012740,0.000000,0.000000,0.000000
attitude,21,1511458542389478656.000000,0.000000,-0.000003,0.000000,-0.000003,-0.026605,-0.061484,-0.046267,0.000000,0.000000,-1.636379,-0.068187,-0.035699,-0.007969,0,0,0,0,0.101538,-0.039459,0.012740,0.000000,0.000000,0.000000
highres_imu,21,1511458542400343040.000000,0.000000,-0.000003,0.000000,-0.000003,-0.020735,-0.061708,-0.044020,0.000000,0.000000,-1.636379,-0.068187,-0.035699,-0.007969,0,0,0,0,0.101538,-0.039459,0.012740,0.000000,0.000000,0.000000
highres_imu,21,1511458542411193600.000000,0.000000,-0.000003,0.000000,-0.000003,-0.015440,-0.066917,-0.046594,0.000000,0.000000,-1.636379,-0.068187,-0.035699,-0.007969,0,0,0,0,0.101538,-0.039459,0.012740,0.000000,0.000000,0.000000
highres_imu,21,1511458542431053824.000000,0.000000,-0.000003,0.000000,-0.000003,-0.016288,-0.064051,-0.046271,0.000000,0.000000,-1.636379,-0.068187,-0.035699,-0.007969,0,0,0,0,0.101538,-0.039459,0.012740,0.000000,0.000000,0.000000
attitude,21,1511458542436295936.000000,0.000000,-0.000003,0.000000,-0.000003,-0.016288,-0.064051,-0.046271,0.000000,0.000000,-1.636379,-0.068987,-0.038227,-0.009197,0,0,0,0,0.101538,-0.039459,0.012740,0.000000,0.000000,0.000000
attitude,21,1511458542459347968.000000,0.000000,-0.000003,0.000000,-0.000003,-0.016288,-0.064051,-0.046271,0.000000,0.000000,-1.636379,-0.068950,-0.039777,-0.009370,0,0,0,0,0.101538,-0.039459,0.012740,0.000000,0.000000,0.000000
highres_imu,21,1511458542475325440.000000,0.000000,-0.000003,0.000000,-0.000003,0.020436,0.014209,0.023549,0.000000,0.000000,-1.636379,-0.068950,-0.039777,-0.009370,0,0,0,0,0.101538,-0.039459,0.012740,0.000000,0.000000,0.000000
highres_imu,22,1511458542499654144.000000,0.000000,-0.000003,0.000000,-0.000003,0.019576,0.036313,0.070686,0.000000,0.000000,-1.636379,-0.068950,-0.039777,-0.009370,0,0,0,0,0.101538,-0.039459,0.012740,0.000000,0.000000,0.000000
attitude,22,1511458542505394944.000000,0.000000,-0.000003,0.000000,-0.000003,0.019576,0.036313,0.070686,0.000000,0.000000,-1.636379,-0.068246,-0.038450,-0.007330,0,0,0,0,0.101538,-0.039459,0.012740,0.000000,0.000000,0.000000
highres_imu,22,1511458542546486784.000000,0.000000,-0.000003,0.000000,-0.000003,0.018183,-0.038061,0.091341,0.000000,0.000000,-1.636379,-0.068246,-0.038450,-0.007330,0,0,0,0,0.101538,-0.039459,0.012740,0.000000,0.000000,0.000000
highres_imu,22,1511458542556776704.000000,0.000000,-0.000003,0.000000,-0.000003,0.014370,-0.050199,0.094108,0.000000,0.000000,-1.636379,-0.068246,-0.038450,-0.007330,0,0,0,0,0.101538,-0.039459,0.012740,0.000000,0.000000,0.000000
highres_imu,22,1511458542578329856.000000,0.000000,-0.000003,0.000000,-0.000003,0.015532,-0.023496,0.071549,0.000000,0.000000,-1.636379,-0.068246,-0.038450,-0.007330,0,0,0,0,0.101538,-0.039459,0.012740,0.000000,0.000000,0.000000
highres_imu,22,1511458542588268288.000000,0.000000,-0.000003,0.000000,-0.000003,0.017554,-0.016695,0.073012,0.000000,0.000000,-1.636379,-0.068246,-0.038450,-0.007330,0,0,0,0,0.101538,-0.039459,0.012740,0.000000,0.000000,0.000000
attitude,22,1511458542593401600.000000,0.000000,-0.000003,0.000000,-0.000003,0.017554,-0.016695,0.073012,0.000000,0.000000,-1.636379,-0.068499,-0.039930,0.007708,0,0,0,0,0.101538,-0.039459,0.012740,0.000000,0.000000,0.000000
attitude,23,1511458542621105408.000000,0.000000,-0.000003,0.000000,-0.000003,0.017554,-0.016695,0.073012,0.000000,0.000000,-1.636379,-0.068466,-0.039436,0.010611,0,0,0,0,0.101538,-0.039459,0.012740,0.000000,0.000000,0.000000
attitude,23,1511458542664288768.000000,0.000000,-0.000003,0.000000,-0.000003,0.017554,-0.016695,0.073012,0.000000,0.000000,-1.636379,-0.068306,-0.037239,0.014379,0,0,0,0,0.101538,-0.039459,0.012740,0.000000,0.000000,0.000000
highres_imu,23,1511458542674371072.000000,0.000000,-0.000003,0.000000,-0.000003,0.011275,0.042064,0.045571,0.000000,0.000000,-1.636379,-0.068306,-0.037239,0.014379,0,0,0,0,0.101538,-0.039459,0.012740,0.000000,0.000000,0.000000
attitude,23,1511458542701596672.000000,0.000000,-0.000003,0.000000,-0.000003,0.011275,0.042064,0.045571,0.000000,0.000000,-1.636379,-0.068085,-0.036153,0.015587,0,0,0,0,0.101538,-0.039459,0.012740,0.000000,0.000000,0.000000
highres_imu,23,1511458542722924032.000000,0.000000,-0.000003,0.000000,-0.000003,0.009145,0.032910,0.024712,0.000000,0.000000,-1.636379,-0.068085,-0.036153,0.015587,0,0,0,0,0.101538,-0.039459,0.012740,0.000000,0.000000,0.000000
attitude,24,1511458542740541440.000000,0.000000,-0.000003,0.000000,-0.000003,0.009145,0.032910,0.024712,0.000000,0.000000,-1.636379,-0.068188,-0.035349,0.016265,0,0,0,0,0.101538,-0.039459,0.012740,0.000000,0.000000,0.000000
highres_imu,24,1511458542751271680.000000,0.000000,-0.000003,0.000000,-0.000003,-0.006076,0.011841,0.001402,0.000000,0.000000,-1.636379,-0.068188,-0.035349,0.016265,0,0,0,0,0.101538,-0.039459,0.012740,0.000000,0.000000,0.000000
attitude,24,1511458542756643840.000000,0.000000,-0.000003,0.000000,-0.000003,-0.006076,0.011841,0.001402,0.000000,0.000000,-1.636379,-0.068221,-0.035305,0.016297,0,0,0,0,0.101538,-0.039459,0.012740,0.000000,0.000000,0.000000
highres_imu,24,1511458542778049280.000000,0.000000,-0.000003,0.000000,-0.000003,0.000636,-0.002424,-0.012213,0.000000,0.000000,-1.636379,-0.068221,-0.035305,0.016297,0,0,0,0,0.101538,-0.039459,0.012740,0.000000,0.000000,0.000000
highres_imu,24,1511458542787929344.000000,0.000000,-0.000003,0.000000,-0.000003,-0.000963,-0.003810,-0.011146,0.000000,0.000000,-1.636379,-0.068221,-0.035305,0.016297,0,0,0,0,0.101538,-0.039459,0.012740,0.000000,0.000000,0.000000
attitude,24,1511458542793332480.000000,0.000000,-0.000003,0.000000,-0.000003,-0.000963,-0.003810,-0.011146,0.000000,0.000000,-1.636379,-0.068348,-0.035287,0.016264,0,0,0,0,0.101538,-0.039459,0.012740,0.000000,0.000000,0.000000
highres_imu,24,1511458542814821376.000000,0.000000,-0.000003,0.000000,-0.000003,-0.005962,-0.012430,-0.016261,0.000000,0.000000,-1.636379,-0.068348,-0.035287,0.016264,0,0,0,0,0.101538,-0.039459,0.012740,0.000000,0.000000,0.000000
attitude,24,1511458542819900160.000000,0.000000,-0.000003,0.000000,-0.000003,-0.005962,-0.012430,-0.016261,0.000000,0.000000,-1.636379,-0.068562,-0.035657,0.016024,0,0,0,0,0.101538,-0.039459,0.012740,0.000000,0.000000,0.000000
highres_imu,24,1511458542856964352.000000,0.000000,-0.000003,0.000000,-0.000003,0.011697,-0.005724,-0.001156,0.000000,0.000000,-1.636379,-0.068562,-0.035657,0.016024,0,0,0,0,0.101538,-0.039459,0.012740,0.000000,0.000000,0.000000
highres_imu,25,1511458542969207040.000000,0.000000,-0.000003,0.000000,-0.000003,0.009141,-0.006363,-0.002746,0.000000,0.000000,-1.636379,-0.068562,-0.035657,0.016024,0,0,0,0,0.101538,-0.039459,0.012740,0.000000,0.000000,0.000000
highres_imu,26,1511458543002242816.000000,0.000000,-0.000003,0.000000,-0.000003,0.007337,-0.027753,0.011303,0.000000,0.000000,-1.636379,-0.068562,-0.035657,0.016024,0,0,0,0,0.101538,-0.039459,0.012740,0.000000,0.000000,0.000000
attitude,26,1511458543007776768.000000,0.000000,-0.000003,0.000000,-0.000003,0.007337,-0.027753,0.011303,0.000000,0.000000,-1.636379,-0.068162,-0.036630,0.016533,0,0,0,0,0.101538,-0.039459,0.012740,0.000000,0.000000,0.000000
highres_imu,26,1511458543042454272.000000,0.000000,-0.000003,0.000000,-0.000003,0.001916,-0.008258,0.008337,0.000000,0.000000,-1.636379,-0.068162,-0.036630,0.016533,0,0,0,0,0.101538,-0.039459,0.012740,0.000000,0.000000,0.000000
highres_imu,26,1511458543058014208.000000,0.000000,-0.000003,0.000000,-0.000003,-0.004786,0.031619,-0.003698,0.000000,0.000000,-1.636379,-0.068162,-0.036630,0.016533,0,0,0,0,0.101538,-0.039459,0.012740,0.000000,0.000000,0.000000
highres_imu,26,1511458543078552576.000000,0.000000,-0.000003,0.000000,-0.000003,-0.004795,0.035674,-0.002214,0.000000,0.000000,-1.636379,-0.068162,-0.036630,0.016533,0,0,0,0,0.101538,-0.039459,0.012740,0.000000,0.000000,0.000000
highres_imu,26,1511458543094564864.000000,0.000000,-0.000003,0.000000,-0.000003,0.009251,-0.022540,-0.007004,0.000000,0.000000,-1.636379,-0.068162,-0.036630,0.016533,0,0,0,0,0.101538,-0.039459,0.012740,0.000000,0.000000,0.000000
attitude,26,1511458543105826816.000000,0.000000,-0.000003,0.000000,-0.000003,0.009251,-0.022540,-0.007004,0.000000,0.000000,-1.636379,-0.068132,-0.035646,0.018202,0,0,0,0,0.101538,-0.039459,0.012740,0.000000,0.000000,0.000000
attitude,27,1511458543191879424.000000,0.000000,-0.000003,0.000000,-0.000003,0.009251,-0.022540,-0.007004,0.000000,0.000000,-1.636379,-0.068363,-0.036353,0.018033,0,0,0,0,0.101538,-0.039459,0.012740,0.000000,0.000000,0.000000
highres_imu,27,1511458543217684736.000000,0.000000,-0.000003,0.000000,-0.000003,-0.002028,0.017691,0.002050,0.000000,0.000000,-1.636379,-0.068363,-0.036353,0.018033,0,0,0,0,0.101538,-0.039459,0.012740,0.000000,0.000000,0.000000
highres_imu,27,1511458543227782144.000000,0.000000,-0.000003,0.000000,-0.000003,0.003827,0.018858,0.006299,0.000000,0.000000,-1.636379,-0.068363,-0.036353,0.018033,0,0,0,0,0.101538,-0.039459,0.012740,0.000000,0.000000,0.000000
attitude,27,1511458543238739712.000000,0.000000,-0.000003,0.000000,-0.000003,0.003827,0.018858,0.006299,0.000000,0.000000,-1.636379,-0.068377,-0.035817,0.018389,0,0,0,0,0.101538,-0.039459,0.012740,0.000000,0.000000,0.000000
highres_imu,27,1511458543248586240.000000,0.000000,-0.000003,0.000000,-0.000003,0.005203,0.017903,0.010866,0.000000,0.000000,-1.636379,-0.068377,-0.035817,0.018389,0,0,0,0,0.101538,-0.039459,0.012740,0.000000,0.000000,0.000000
highres_imu,28,1511458543366918144.000000,0.000000,-0.000003,0.000000,-0.000003,0.003286,0.017693,0.004170,0.000000,0.000000,-1.636379,-0.068377,-0.035817,0.018389,0,0,0,0,0.101538,-0.039459,0.012740,0.000000,0.000000,0.000000
attitude,28,1511458543372137728.000000,0.000000,-0.000003,0.000000,-0.000003,0.003286,0.017693,0.004170,0.000000,0.000000,-1.636379,-0.068315,-0.035286,0.018800,0,0,0,0,0.101538,-0.039459,0.012740,0.000000,0.000000,0.000000
highres_imu,28,1511458543382305792.000000,0.000000,-0.000003,0.000000,-0.000003,0.004671,0.017693,0.005872,0.000000,0.000000,-1.636379,-0.068315,-0.035286,0.018800,0,0,0,0,0.101538,-0.039459,0.012740,0.000000,0.000000,0.000000
highres_imu,29,1511458543412423680.000000,0.000000,-0.000003,0.000000,-0.000003,0.004996,0.003642,-0.004986,0.000000,0.000000,-1.636379,-0.068315,-0.035286,0.018800,0,0,0,0,0.101538,-0.039459,0.012740,0.000000,0.000000,0.000000
highres_imu,29,1511458543428581632.000000,0.000000,-0.000003,0.000000,-0.000003,0.005418,0.001626,-0.001678,0.000000,0.000000,-1.636379,-0.068315,-0.035286,0.018800,0,0,0,0,0.101538,-0.039459,0.012740,0.000000,0.000000,0.000000
highres_imu,29,1511458543447084544.000000,0.000000,-0.000003,0.000000,-0.000003,-0.001602,-0.009874,-0.006363,0.000000,0.000000,-1.636379,-0.068315,-0.035286,0.018800,0,0,0,0,0.101538,-0.039459,0.012740,0.000000,0.000000,0.000000
attitude,29,1511458543452248576.000000,0.000000,-0.000003,0.000000,-0.000003,-0.001602,-0.009874,-0.006363,0.000000,0.000000,-1.636379,-0.068151,-0.035210,0.019083,0,0,0,0,0.101538,-0.039459,0.012740,0.000000,0.000000,0.000000
attitude,29,1511458543490998016.000000,0.000000,-0.000003,0.000000,-0.000003,-0.001602,-0.009874,-0.006363,0.000000,0.000000,-1.636379,-0.068225,-0.035637,0.019231,0,0,0,0,0.101538,-0.039459,0.012740,0.000000,0.000000,0.000000
highres_imu,29,1511458543501978368.000000,0.000000,-0.000003,0.000000,-0.000003,-0.002347,-0.006788,-0.002426,0.000000,0.000000,-1.636379,-0.068225,-0.035637,0.019231,0,0,0,0,0.101538,-0.039459,0.012740,0.000000,0.000000,0.000000
highres_imu,29,1511458543512754944.000000,0.000000,-0.000003,0.000000,-0.000003,-0.000317,-0.004655,0.001200,0.000000,0.000000,-1.636379,-0.068225,-0.035637,0.019231,0,0,0,0,0.101538,-0.039459,0.012740,0.000000,0.000000,0.000000
highres_imu,29,1511458543534554624.000000,0.000000,-0.000003,0.000000,-0.000003,0.003184,0.005661,0.018431,0.000000,0.000000,-1.636379,-0.068225,-0.035637,0.019231,0,0,0,0,0.101538,-0.039459,0.012740,0.000000,0.000000,0.000000
attitude,30,1511458543546658560.000000,0.000000,-0.000003,0.000000,-0.000003,0.003184,0.005661,0.018431,0.000000,0.000000,-1.636379,-0.068065,-0.034115,0.021330,0,0,0,0,0.101538,-0.039459,0.012740,0.000000,0.000000,0.000000
attitude,30,1511458543569435648.000000,0.000000,-0.000003,0.000000,-0.000003,0.003184,0.005661,0.018431,0.000000,0.000000,-1.636379,-0.068215,-0.034522,0.022034,0,0,0,0,0.101538,-0.039459,0.012740,0.000000,0.000000,0.000000
highres_imu,30,1511458543611185920.000000,0.000000,-0.000003,0.000000,-0.000003,0.000948,-0.037434,0.011287,0.000000,0.000000,-1.636379,-0.068215,-0.034522,0.022034,0,0,0,0,0.101538,-0.039459,0.012740,0.000000,0.000000,0.000000
attitude,30,1511458543616592640.000000,0.000000,-0.000003,0.000000,-0.000003,0.000948,-0.037434,0.011287,0.000000,0.000000,-1.636379,-0.068455,-0.036150,0.022907,0,0,0,0,0.101538,-0.039459,0.012740,0.000000,0.000000,0.000000
highres_imu,30,1511458543650773248.000000,0.000000,-0.000003,0.000000,-0.000003,0.004573,-0.007745,0.007685,0.000000,0.000000,-1.636379,-0.068455,-0.036150,0.022907,0,0,0,0,0.101538,-0.039459,0.012740,0.000000,0.000000,0.000000
highres_imu,31,1511458543699968512.000000,0.000000,-0.000003,0.000000,-0.000003,0.001056,0.001724,0.007679,0.000000,0.000000,-1.636379,-0.068455,-0.036150,0.022907,0,0,0,0,0.101538,-0.039459,0.012740,0.000000,0.000000,0.000000
attitude,31,1511458543705415168.000000,0.000000,-0.000003,0.000000,-0.000003,0.001056,0.001724,0.007679,0.000000,0.000000,-1.636379,-0.068455,-0.037097,0.023773,0,0,0,0,0.101538,-0.039459,0.012740,0.000000,0.000000,0.000000
highres_imu,31,1511458543737904896.000000,0.000000,-0.000003,0.000000,-0.000003,0.007866,0.009065,0.021827,0.000000,0.000000,-1.636379,-0.068455,-0.037097,0.023773,0,0,0,0,0.101538,-0.039459,0.012740,0.000000,0.000000,0.000000
attitude,31,1511458543742968320.000000,0.000000,-0.000003,0.000000,-0.000003,0.007866,0.009065,0.021827,0.000000,0.000000,-1.636379,-0.068213,-0.036753,0.024963,0,0,0,0,0.101538,-0.039459,0.012740,0.000000,0.000000,0.000000
highres_imu,31,1511458543768388352.000000,0.000000,-0.000003,0.000000,-0.000003,0.002984,0.005025,0.011527,0.000000,0.000000,-1.636379,-0.068213,-0.036753,0.024963,0,0,0,0,0.101538,-0.039459,0.012740,0.000000,0.000000,0.000000
attitude,31,1511458543773656064.000000,0.000000,-0.000003,0.000000,-0.000003,0.002984,0.005025,0.011527,0.000000,0.000000,-1.636379,-0.068114,-0.036658,0.025700,0,0,0,0,0.101538,-0.039459,0.012740,0.000000,0.000000,0.000000
highres_imu,31,1511458543784282880.000000,0.000000,-0.000003,0.000000,-0.000003,0.000943,0.005982,0.008421,0.000000,0.000000,-1.636379,-0.068114,-0.036658,0.025700,0,0,0,0,0.101538,-0.039459,0.012740,0.000000,0.000000,0.000000
highres_imu,32,1511458543912617472.000000,0.000000,-0.000003,0.000000,-0.000003,0.001386,0.015668,-0.000078,0.000000,0.000000,-1.636379,-0.068114,-0.036658,0.025700,0,0,0,0,0.101538,-0.039459,0.012740,0.000000,0.000000,0.000000
attitude,32,1511458543923295488.000000,0.000000,-0.000003,0.000000,-0.000003,0.001386,0.015668,-0.000078,0.000000,0.000000,-1.636379,-0.068169,-0.036362,0.025967,0,0,0,0,0.101538,-0.039459,0.012740,0.000000,0.000000,0.000000
highres_imu,33,1511458543953671168.000000,0.000000,-0.000003,0.000000,-0.000003,-0.002985,0.031631,-0.009130,0.000000,0.000000,-1.636379,-0.068169,-0.036362,0.025967,0,0,0,0,0.101538,-0.039459,0.012740,0.000000,0.000000,0.000000
highres_imu,33,1511458543963675136.000000,0.000000,-0.000003,0.000000,-0.000003,-0.003305,0.033014,-0.011578,0.000000,0.000000,-1.636379,-0.068169,-0.036362,0.025967,0,0,0,0,0.101538,-0.039459,0.012740,0.000000,0.000000,0.000000
attitude,33,1511458544022321152.000000,0.000000,-0.000003,0.000000,-0.000003,-0.003305,0.033014,-0.011578,0.000000,0.000000,-1.636379,-0.068322,-0.034788,0.025838,0,0,0,0,0.101538,-0.039459,0.012740,0.000000,0.000000,0.000000
highres_imu,33,1511458544038455808.000000,0.000000,-0.000003,0.000000,-0.000003,0.002962,-0.011671,0.003516,0.000000,0.000000,-1.636379,-0.068322,-0.034788,0.025838,0,0,0,0,0.101538,-0.039459,0.012740,0.000000,0.000000,0.000000
highres_imu,34,1511458544068608768.000000,0.000000,-0.000003,0.000000,-0.000003,0.006699,-0.027008,-0.001574,0.000000,0.000000,-1.636379,-0.068322,-0.034788,0.025838,0,0,0,0,0.101538,-0.039459,0.012740,0.000000,0.000000,0.000000
attitude,34,1511458544073814784.000000,0.000000,-0.000003,0.000000,-0.000003,0.006699,-0.027008,-0.001574,0.000000,0.000000,-1.636379,-0.068194,-0.035802,0.026255,0,0,0,0,0.101538,-0.039459,0.012740,0.000000,0.000000,0.000000
highres_imu,34,1511458544112508160.000000,0.000000,-0.000003,0.000000,-0.000003,-0.000328,-0.018499,-0.011903,0.000000,0.000000,-1.636379,-0.068194,-0.035802,0.026255,0,0,0,0,0.101538,-0.039459,0.012740,0.000000,0.000000,0.000000
local_position_ned,34,1511458544122318848.000000,0.000000,-0.000003,0.000000,-0.000003,-0.000328,-0.018499,-0.011903,0.000000,0.000000,-1.626184,-0.068194,-0.035802,0.026255,0,0,0,0,-0.093161,-0.012610,0.012850,0.000000,0.000000,0.000000
highres_imu,34,1511458544146242560.000000,0.000000,-0.000003,0.000000,-0.000003,0.001161,0.011733,-0.009559,0.000000,0.000000,-1.626184,-0.068194,-0.035802,0.026255,0,0,0,0,-0.093161,-0.012610,0.012850,0.000000,0.000000,0.000000
attitude,34,1511458544151537152.000000,0.000000,-0.000003,0.000000,-0.000003,0.001161,0.011733,-0.009559,0.000000,0.000000,-1.626184,-0.068201,-0.037120,0.026035,0,0,0,0,-0.093161,-0.012610,0.012850,0.000000,0.000000,0.000000
attitude,34,1511458544167427072.000000,0.000000,-0.000003,0.000000,-0.000003,0.001161,0.011733,-0.009559,0.000000,0.000000,-1.626184,-0.068285,-0.036592,0.026015,0,0,0,0,-0.093161,-0.012610,0.012850,0.000000,0.000000,0.000000
highres_imu,34,1511458544182974976.000000,0.000000,-0.000003,0.000000,-0.000003,0.002443,0.020236,0.003748,0.000000,0.000000,-1.626184,-0.068285,-0.036592,0.026015,0,0,0,0,-0.093161,-0.012610,0.012850,0.000000,0.000000,0.000000
highres_imu,34,1511458544192995840.000000,0.000000,-0.000003,0.000000,-0.000003,0.001588,0.016409,0.001826,0.000000,0.000000,-1.626184,-0.068285,-0.036592,0.026015,0,0,0,0,-0.093161,-0.012610,0.012850,0.000000,0.000000,0.000000
highres_imu,35,1511458544322041344.000000,0.000000,-0.000003,0.000000,-0.000003,0.004242,-0.007515,0.006928,0.000000,0.000000,-1.626184,-0.068285,-0.036592,0.026015,0,0,0,0,-0.093161,-0.012610,0.012850,0.000000,0.000000,0.000000
attitude,36,1511458544335071232.000000,0.000000,-0.000003,0.000000,-0.000003,0.004242,-0.007515,0.006928,0.000000,0.000000,-1.626184,-0.068273,-0.036457,0.026387,0,0,0,0,-0.093161,-0.012610,0.012850,0.000000,0.000000,0.000000
attitude,36,1511458544369492224.000000,0.000000,-0.000003,0.000000,-0.000003,0.004242,-0.007515,0.006928,0.000000,0.000000,-1.626184,-0.068258,-0.037233,0.026574,0,0,0,0,-0.093161,-0.012610,0.012850,0.000000,0.000000,0.000000
highres_imu,36,1511458544379638528.000000,0.000000,-0.000003,0.000000,-0.000003,0.004692,-0.014131,-0.008249,0.000000,0.000000,-1.626184,-0.068258,-0.037233,0.026574,0,0,0,0,-0.093161,-0.012610,0.012850,0.000000,0.000000,0.000000
attitude,36,1511458544394181888.000000,0.000000,-0.000003,0.000000,-0.000003,0.004692,-0.014131,-0.008249,0.000000,0.000000,-1.626184,-0.068182,-0.037382,0.026304,0,0,0,0,-0.093161,-0.012610,0.012850,0.000000,0.000000,0.000000
highres_imu,36,1511458544410172416.000000,0.000000,-0.000003,0.000000,-0.000003,0.004154,0.013332,-0.018907,0.000000,0.000000,-1.626184,-0.068182,-0.037382,0.026304,0,0,0,0,-0.093161,-0.012610,0.012850,0.000000,0.000000,0.000000
attitude,36,1511458544431929344.000000,0.000000,-0.000003,0.000000,-0.000003,0.004154,0.013332,-0.018907,0.000000,0.000000,-1.626184,-0.068010,-0.036774,0.025618,0,0,0,0,-0.093161,-0.012610,0.012850,0.000000,0.000000,0.000000
highres_imu,36,1511458544442090752.000000,0.000000,-0.000003,0.000000,-0.000003,0.006912,0.020354,-0.018714,0.000000,0.000000,-1.626184,-0.068010,-0.036774,0.025618,0,0,0,0,-0.093161,-0.012610,0.012850,0.000000,0.000000,0.000000
highres_imu,36,1511458544452322560.000000,0.000000,-0.000003,0.000000,-0.000003,0.005633,0.017903,-0.020200,0.000000,0.000000,-1.626184,-0.068010,-0.036774,0.025618,0,0,0,0,-0.093161,-0.012610,0.012850,0.000000,0.000000,0.000000
attitude,37,1511458544475707648.000000,0.000000,-0.000003,0.000000,-0.000003,0.005633,0.017903,-0.020200,0.000000,0.000000,-1.626184,-0.068149,-0.037558,0.023054,0,0,0,0,-0.093161,-0.012610,0.012850,0.000000,0.000000,0.000000
highres_imu,37,1511458544486232064.000000,0.000000,-0.000003,0.000000,-0.000003,-0.017246,0.032056,-0.038823,0.000000,0.000000,-1.626184,-0.068149,-0.037558,0.023054,0,0,0,0,-0.093161,-0.012610,0.012850,0.000000,0.000000,0.000000
attitude,37,1511458544528505600.000000,0.000000,-0.000003,0.000000,-0.000003,-0.017246,0.032056,-0.038823,0.000000,0.000000,-1.626184,-0.068258,-0.037180,0.021974,0,0,0,0,-0.093161,-0.012610,0.012850,0.000000,0.000000,0.000000
highres_imu,37,1511458544538919424.000000,0.000000,-0.000003,0.000000,-0.000003,0.015217,0.004919,-0.039564,0.000000,0.000000,-1.626184,-0.068258,-0.037180,0.021974,0,0,0,0,-0.093161,-0.012610,0.012850,0.000000,0.000000,0.000000
highres_imu,37,1511458544595354368.000000,0.000000,-0.000003,0.000000,-0.000003,-0.021186,-0.002320,-0.047657,0.000000,0.000000,-1.626184,-0.068258,-0.037180,0.021974,0,0,0,0,-0.093161,-0.012610,0.012850,0.000000,0.000000,0.000000
attitude,37,1511458544600410368.000000,0.000000,-0.000003,0.000000,-0.000003,-0.021186,-0.002320,-0.047657,0.000000,0.000000,-1.626184,-0.067492,-0.037660,0.019401,0,0,0,0,-0.093161,-0.012610,0.012850,0.000000,0.000000,0.000000
highres_imu,38,1511458544627575552.000000,0.000000,-0.000003,0.000000,-0.000003,-0.006282,-0.006785,-0.066912,0.000000,0.000000,-1.626184,-0.067492,-0.037660,0.019401,0,0,0,0,-0.093161,-0.012610,0.012850,0.000000,0.000000,0.000000
attitude,38,1511458544632910848.000000,0.000000,-0.000003,0.000000,-0.000003,-0.006282,-0.006785,-0.066912,0.000000,0.000000,-1.626184,-0.067937,-0.038022,0.017716,0,0,0,0,-0.093161,-0.012610,0.012850,0.000000,0.000000,0.000000
highres_imu,38,1511458544648656896.000000,0.000000,-0.000003,0.000000,-0.000003,-0.004286,-0.006362,-0.069379,0.000000,0.000000,-1.626184,-0.067937,-0.038022,0.017716,0,0,0,0,-0.093161,-0.012610,0.012850,0.000000,0.000000,0.000000
highres_imu,38,1511458544667397632.000000,0.000000,-0.000003,0.000000,-0.000003,-0.000643,0.045250,-0.063512,0.000000,0.000000,-1.626184,-0.067937,-0.038022,0.017716,0,0,0,0,-0.093161,-0.012610,0.012850,0.000000,0.000000,0.000000
attitude,38,1511458544694586368.000000,0.000000,-0.000003,0.000000,-0.000003,-0.000643,0.045250,-0.063512,0.000000,0.000000,-1.626184,-0.067923,-0.036304,0.013152,0,0,0,0,-0.093161,-0.012610,0.012850,0.000000,0.000000,0.000000
highres_imu,38,1511458544704119552.000000,0.000000,-0.000003,0.000000,-0.000003,-0.012458,0.060153,-0.064152,0.000000,0.000000,-1.626184,-0.067923,-0.036304,0.013152,0,0,0,0,-0.093161,-0.012610,0.012850,0.000000,0.000000,0.000000
highres_imu,38,1511458544714639616.000000,0.000000,-0.000003,0.000000,-0.000003,-0.005974,0.053988,-0.066802,0.000000,0.000000,-1.626184,-0.067923,-0.036304,0.013152,0,0,0,0,-0.093161,-0.012610,0.012850,0.000000,0.000000,0.000000
attitude,38,1511458544719995392.000000,0.000000,-0.000003,0.000000,-0.000003,-0.005974,0.053988,-0.066802,0.000000,0.000000,-1.626184,-0.068032,-0.035722,0.012393,0,0,0,0,-0.093161,-0.012610,0.012850,0.000000,0.000000,0.000000
attitude,38,1511458544740391168.000000,0.000000,-0.000003,0.000000,-0.000003,-0.005974,0.053988,-0.066802,0.000000,0.000000,-1.626184,-0.068300,-0.035288,0.010711,0,0,0,0,-0.093161,-0.012610,0.012850,0.000000,0.000000,0.000000
highres_imu,39,1511458544750848000.000000,0.000000,-0.000003,0.000000,-0.000003,-0.006923,-0.008424,-0.059473,0.000000,0.000000,-1.626184,-0.068300,-0.035288,0.010711,0,0,0,0,-0.093161,-0.012610,0.012850,0.000000,0.000000,0.000000
highres_imu,39,1511458544792347392.000000,0.000000,-0.000003,0.000000,-0.000003,0.005847,-0.052650,-0.052230,0.000000,0.000000,-1.626184,-0.068300,-0.035288,0.010711,0,0,0,0,-0.093161,-0.012610,0.012850,0.000000,0.000000,0.000000
attitude,39,1511458544797594624.000000,0.000000,-0.000003,0.000000,-0.000003,0.005847,-0.052650,-0.052230,0.000000,0.000000,-1.626184,-0.068176,-0.037119,0.008429,0,0,0,0,-0.093161,-0.012610,0.012850,0.000000,0.000000,0.000000
highres_imu,39,1511458544841356032.000000,0.000000,-0.000003,0.000000,-0.000003,0.001170,-0.011799,-0.048744,0.000000,0.000000,-1.626184,-0.068176,-0.037119,0.008429,0,0,0,0,-0.093161,-0.012610,0.012850,0.000000,0.000000,0.000000
attitude,39,1511458544865004288.000000,0.000000,-0.000003,0.000000,-0.000003,0.001170,-0.011799,-0.048744,0.000000,0.000000,-1.626184,-0.068560,-0.037826,0.005858,0,0,0,0,-0.093161,-0.012610,0.012850,0.000000,0.000000,0.000000
highres_imu,39,1511458544880980480.000000,0.000000,-0.000003,0.000000,-0.000003,-0.016182,0.057598,-0.028180,0.000000,0.000000,-1.626184,-0.068560,-0.037826,0.005858,0,0,0,0,-0.093161,-0.012610,0.012850,0.000000,0.000000,0.000000
highres_imu,40,1511458544897410304.000000,0.000000,-0.000003,0.000000,-0.000003,0.002455,0.046530,-0.009230,0.000000,0.000000,-1.626184,-0.068560,-0.037826,0.005858,0,0,0,0,-0.093161,-0.012610,0.012850,0.000000,0.000000,0.000000
highres_imu,40,1511458544907447808.000000,0.000000,-0.000003,0.000000,-0.000003,0.002231,0.045357,-0.008278,0.000000,0.000000,-1.626184,-0.068560,-0.037826,0.005858,0,0,0,0,-0.093161,-0.012610,0.012850,0.000000,0.000000,0.000000
attitude,40,1511458544912612096.000000,0.000000,-0.000003,0.000000,-0.000003,0.002231,0.045357,-0.008278,0.000000,0.000000,-1.626184,-0.068836,-0.035962,0.005331,0,0,0,0,-0.093161,-0.012610,0.012850,0.000000,0.000000,0.000000
attitude,40,1511458544939138560.000000,0.000000,-0.000003,0.000000,-0.000003,0.002231,0.045357,-0.008278,0.000000,0.000000,-1.626184,-0.068993,-0.034543,0.005093,0,0,0,0,-0.093161,-0.012610,0.012850,0.000000,0.000000,0.000000
highres_imu,41,1511458545075193600.000000,0.000000,-0.000003,0.000000,-0.000003,0.000845,0.045785,-0.023710,0.000000,0.000000,-1.626184,-0.068993,-0.034543,0.005093,0,0,0,0,-0.093161,-0.012610,0.012850,0.000000,0.000000,0.000000
attitude,41,1511458545086294272.000000,0.000000,-0.000003,0.000000,-0.000003,0.000845,0.045785,-0.023710,0.000000,0.000000,-1.626184,-0.069138,-0.032996,0.004355,0,0,0,0,-0.093161,-0.012610,0.012850,0.000000,0.000000,0.000000
attitude,41,1511458545118187264.000000,0.000000,-0.000003,0.000000,-0.000003,0.000845,0.045785,-0.023710,0.000000,0.000000,-1.626184,-0.069216,-0.031824,0.003101,0,0,0,0,-0.093161,-0.012610,0.012850,0.000000,0.000000,0.000000
highres_imu,41,1511458545154881280.000000,0.000000,-0.000003,0.000000,-0.000003,0.010211,-0.004872,-0.063397,0.000000,0.000000,-1.626184,-0.069216,-0.031824,0.003101,0,0,0,0,-0.093161,-0.012610,0.012850,0.000000,0.000000,0.000000
highres_imu,42,1511458545170826752.000000,0.000000,-0.000003,0.000000,-0.000003,0.012447,-0.007437,-0.062336,0.000000,0.000000,-1.626184,-0.069216,-0.031824,0.003101,0,0,0,0,-0.093161,-0.012610,0.012850,0.000000,0.000000,0.000000
highres_imu,42,1511458545228087296.000000,0.000000,-0.000003,0.000000,-0.000003,0.008508,-0.062765,-0.067024,0.000000,0.000000,-1.626184,-0.069216,-0.031824,0.003101,0,0,0,0,-0.093161,-0.012610,0.012850,0.000000,0.000000,0.000000
attitude,42,1511458545245582592.000000,0.000000,-0.000003,0.000000,-0.000003,0.008508,-0.062765,-0.067024,0.000000,0.000000,-1.626184,-0.068547,-0.034219,-0.002866,0,0,0,0,-0.093161,-0.012610,0.012850,0.000000,0.000000,0.000000
highres_imu,42,1511458545255787520.000000,0.000000,-0.000003,0.000000,-0.000003,-0.005859,-0.121003,-0.051896,0.000000,0.000000,-1.626184,-0.068547,-0.034219,-0.002866,0,0,0,0,-0.093161,-0.012610,0.012850,0.000000,0.000000,0.000000
attitude,42,1511458545260993280.000000,0.000000,-0.000003,0.000000,-0.000003,-0.005859,-0.121003,-0.051896,0.000000,0.000000,-1.626184,-0.068563,-0.037294,-0.004270,0,0,0,0,-0.093161,-0.012610,0.012850,0.000000,0.000000,0.000000
highres_imu,42,1511458545276995072.000000,0.000000,-0.000003,0.000000,-0.000003,-0.007363,-0.128237,-0.048715,0.000000,0.000000,-1.626184,-0.068563,-0.037294,-0.004270,0,0,0,0,-0.093161,-0.012610,0.012850,0.000000,0.000000,0.000000
highres_imu,43,1511458545324944384.000000,0.000000,-0.000003,0.000000,-0.000003,0.001576,0.091090,0.010431,0.000000,0.000000,-1.626184,-0.068563,-0.037294,-0.004270,0,0,0,0,-0.093161,-0.012610,0.012850,0.000000,0.000000,0.000000
attitude,43,1511458545330304256.000000,0.000000,-0.000003,0.000000,-0.000003,0.001576,0.091090,0.010431,0.000000,0.000000,-1.626184,-0.068532,-0.034871,-0.001584,0,0,0,0,-0.093161,-0.012610,0.012850,0.000000,0.000000,0.000000
highres_imu,43,1511458545363670016.000000,0.000000,-0.000003,0.000000,-0.000003,-0.001286,0.015685,-0.000298,0.000000,0.000000,-1.626184,-0.068532,-0.034871,-0.001584,0,0,0,0,-0.093161,-0.012610,0.012850,0.000000,0.000000,0.000000
attitude,43,1511458545389237504.000000,0.000000,-0.000003,0.000000,-0.000003,-0.001286,0.015685,-0.000298,0.000000,0.000000,-1.626184,-0.068725,-0.035123,-0.001405,0,0,0,0,-0.093161,-0.012610,0.012850,0.000000,0.000000,0.000000
highres_imu,43,1511458545399377408.000000,0.000000,-0.000003,0.000000,-0.000003,-0.000003,-0.072865,-0.021265,0.000000,0.000000,-1.626184,-0.068725,-0.035123,-0.001405,0,0,0,0,-0.093161,-0.012610,0.012850,0.000000,0.000000,0.000000
highres_imu,43,1511458545418990336.000000,0.000000,-0.000003,0.000000,-0.000003,-0.000962,-0.076066,-0.025514,0.000000,0.000000,-1.626184,-0.068725,-0.035123,-0.001405,0,0,0,0,-0.093161,-0.012610,0.012850,0.000000,0.000000,0.000000
attitude,43,1511458545424150784.000000,0.000000,-0.000003,0.000000,-0.000003,-0.000962,-0.076066,-0.025514,0.000000,0.000000,-1.626184,-0.068739,-0.038116,-0.001773,0,0,0,0,-0.093161,-0.012610,0.012850,0.000000,0.000000,0.000000
highres_imu,43,1511458545433931008.000000,0.000000,-0.000003,0.000000,-0.000003,0.001483,-0.073835,-0.021157,0.000000,0.000000,-1.626184,-0.068739,-0.038116,-0.001773,0,0,0,0,-0.093161,-0.012610,0.012850,0.000000,0.000000,0.000000
attitude,44,1511458545456560896.000000,0.000000,-0.000003,0.000000,-0.000003,0.001483,-0.073835,-0.021157,0.000000,0.000000,-1.626184,-0.068625,-0.040609,-0.002100,0,0,0,0,-0.093161,-0.012610,0.012850,0.000000,0.000000,0.000000
