Pose,FrameNo,timestamp(ns),timeboot(ms),xgyro,xyyro,zgyro,xacc,yacc,zacc,x,y,z,roll,pitch,yaw,hdop,lat,lon,alt,vx,vy,vz,gpsxacc,gpsyacc,gpszacc
highres_imu,0,1510647356590685184.000000,-0.000000,-0.000003,0.000000,0.000000,-0.002011,0.000712,0.000927,0.000000,0.000000,-0.599546,0.112923,0.105264,-0.156700,9999,0,0,0,-0.009010,0.000478,-0.002725,0.000000,0.000000,0.000000
local_position_ned,0,1510647356611055616.000000,-0.000000,-0.000003,0.000000,0.000000,-0.002011,0.000712,0.000927,0.000000,0.000000,-0.607941,0.112923,0.105264,-0.156700,9999,0,0,0,-0.007098,0.001260,-0.008730,0.000000,0.000000,0.000000
attitude,0,1510647356620589824.000000,-0.000000,-0.000003,0.000000,0.000000,-0.002011,0.000712,0.000927,0.000000,0.000000,-0.607941,0.112914,0.104994,-0.156451,9999,0,0,0,-0.007098,0.001260,-0.008730,0.000000,0.000000,0.000000
highres_imu,1,1510647356678968320.000000,-0.000000,-0.000003,0.000000,0.000000,0.000788,-0.000714,-0.000231,0.000000,0.000000,-0.607941,0.112914,0.104994,-0.156451,9999,0,0,0,-0.007098,0.001260,-0.008730,0.000000,0.000000,0.000000
highres_imu,1,1510647356697871872.000000,-0.000000,-0.000003,0.000000,0.000000,0.000083,-0.001859,-0.001830,0.000000,0.000000,-0.607941,0.112914,0.104994,-0.156451,9999,0,0,0,-0.007098,0.001260,-0.008730,0.000000,0.000000,0.000000
highres_imu,2,1510647356738411264.000000,-0.000000,-0.000003,0.000000,0.000000,0.002650,-0.004531,-0.006396,0.000000,0.000000,-0.607941,0.112914,0.104994,-0.156451,9999,0,0,0,-0.007098,0.001260,-0.008730,0.000000,0.000000,0.000000
local_position_ned,2,1510647356747908096.000000,-0.000000,-0.000003,0.000000,0.000000,0.002650,-0.004531,-0.006396,0.000000,0.000000,-0.611310,0.112914,0.104994,-0.156451,9999,0,0,0,-0.003877,0.000601,-0.009988,0.000000,0.000000,0.000000
highres_imu,2,1510647356766059520.000000,-0.000000,-0.000003,0.000000,0.000000,-0.000764,-0.004129,-0.005778,0.000000,0.000000,-0.611310,0.112914,0.104994,-0.156451,9999,0,0,0,-0.003877,0.000601,-0.009988,0.000000,0.000000,0.000000
highres_imu,2,1510647356806137088.000000,-0.000000,-0.000003,0.000000,0.000000,0.000343,0.002346,-0.007198,0.000000,0.000000,-0.611310,0.112914,0.104994,-0.156451,9999,0,0,0,-0.003877,0.000601,-0.009988,0.000000,0.000000,0.000000
highres_imu,2,1510647356825665792.000000,-0.000000,-0.000003,0.000000,0.000000,0.000527,0.003421,-0.006177,0.000000,0.000000,-0.611310,0.112914,0.104994,-0.156451,9999,0,0,0,-0.003877,0.000601,-0.009988,0.000000,0.000000,0.000000
local_position_ned,3,1510647356836219904.000000,-0.000000,-0.000003,0.000000,0.000000,0.000527,0.003421,-0.006177,0.000000,0.000000,-0.611573,0.112914,0.104994,-0.156451,9999,0,0,0,-0.008088,0.001480,-0.009837,0.000000,0.000000,0.000000
highres_imu,3,1510647356876799232.000000,-0.000000,-0.000003,0.000000,0.000000,0.002805,0.002193,-0.000088,0.000000,0.000000,-0.611573,0.112914,0.104994,-0.156451,9999,0,0,0,-0.008088,0.001480,-0.009837,0.000000,0.000000,0.000000
attitude,4,1510647356946802432.000000,-0.000000,-0.000003,0.000000,0.000000,0.002805,0.002193,-0.000088,0.000000,0.000000,-0.611573,0.112879,0.105098,-0.157251,9999,0,0,0,-0.008088,0.001480,-0.009837,0.000000,0.000000,0.000000
highres_imu,4,1510647356976704000.000000,-0.000000,-0.000003,0.000000,0.000000,-0.001763,-0.003054,0.003617,0.000000,0.000000,-0.611573,0.112879,0.105098,-0.157251,9999,0,0,0,-0.008088,0.001480,-0.009837,0.000000,0.000000,0.000000
attitude,4,1510647357016715520.000000,-0.000000,-0.000003,0.000000,0.000000,-0.001763,-0.003054,0.003617,0.000000,0.000000,-0.611573,0.112842,0.104955,-0.157124,9999,0,0,0,-0.008088,0.001480,-0.009837,0.000000,0.000000,0.000000
highres_imu,5,1510647357048690944.000000,-0.000000,-0.000003,0.000000,0.000000,-0.001480,0.001464,0.000960,0.000000,0.000000,-0.611573,0.112842,0.104955,-0.157124,9999,0,0,0,-0.008088,0.001480,-0.009837,0.000000,0.000000,0.000000
attitude,5,1510647357091279616.000000,-0.000000,-0.000003,0.000000,0.000000,-0.001480,0.001464,0.000960,0.000000,0.000000,-0.611573,0.112854,0.105125,-0.157217,9999,0,0,0,-0.008088,0.001480,-0.009837,0.000000,0.000000,0.000000
highres_imu,5,1510647357121170944.000000,-0.000000,-0.000003,0.000000,0.000000,0.002678,0.001708,-0.003353,0.000000,0.000000,-0.611573,0.112854,0.105125,-0.157217,9999,0,0,0,-0.008088,0.001480,-0.009837,0.000000,0.000000,0.000000
highres_imu,6,1510647357175323648.000000,-0.000000,-0.000003,0.000000,0.000000,-0.000553,-0.003412,-0.006064,0.000000,0.000000,-0.611573,0.112854,0.105125,-0.157217,9999,0,0,0,-0.008088,0.001480,-0.009837,0.000000,0.000000,0.000000
highres_imu,7,1510647357250972416.000000,-0.000000,-0.000003,0.000000,0.000000,-0.000777,0.001995,-0.005617,0.000000,0.000000,-0.611573,0.112854,0.105125,-0.157217,9999,0,0,0,-0.008088,0.001480,-0.009837,0.000000,0.000000,0.000000
attitude,7,1510647357261008896.000000,-0.000000,-0.000003,0.000000,0.000000,-0.000777,0.001995,-0.005617,0.000000,0.000000,-0.611573,0.112842,0.104994,-0.158119,9999,0,0,0,-0.008088,0.001480,-0.009837,0.000000,0.000000,0.000000
highres_imu,7,1510647357321348096.000000,-0.000000,-0.000003,0.000000,0.000000,0.000316,-0.000911,-0.002900,0.000000,0.000000,-0.611573,0.112842,0.104994,-0.158119,9999,0,0,0,-0.008088,0.001480,-0.009837,0.000000,0.000000,0.000000
attitude,8,1510647357330718208.000000,-0.000000,-0.000003,0.000000,0.000000,0.000316,-0.000911,-0.002900,0.000000,0.000000,-0.611573,0.112852,0.105099,-0.158469,9999,0,0,0,-0.008088,0.001480,-0.009837,0.000000,0.000000,0.000000
highres_imu,8,1510647357379850752.000000,-0.000000,-0.000003,0.000000,0.000000,0.002760,-0.004566,-0.006698,0.000000,0.000000,-0.611573,0.112852,0.105099,-0.158469,9999,0,0,0,-0.008088,0.001480,-0.009837,0.000000,0.000000,0.000000
attitude,8,1510647357390493440.000000,-0.000000,-0.000003,0.000000,0.000000,0.002760,-0.004566,-0.006698,0.000000,0.000000,-0.611573,0.112863,0.105013,-0.158858,9999,0,0,0,-0.008088,0.001480,-0.009837,0.000000,0.000000,0.000000
highres_imu,9,1510647357430360832.000000,-0.000000,-0.000003,0.000000,0.000000,0.000318,-0.004208,-0.006377,0.000000,0.000000,-0.611573,0.112863,0.105013,-0.158858,9999,0,0,0,-0.008088,0.001480,-0.009837,0.000000,0.000000,0.000000
attitude,9,1510647357460821248.000000,-0.000000,-0.000003,0.000000,0.000000,0.000318,-0.004208,-0.006377,0.000000,0.000000,-0.611573,0.112853,0.104875,-0.159486,9999,0,0,0,-0.008088,0.001480,-0.009837,0.000000,0.000000,0.000000
highres_imu,9,1510647357491740928.000000,-0.000000,-0.000003,0.000000,0.000000,0.002846,-0.002490,-0.010149,0.000000,0.000000,-0.611573,0.112853,0.104875,-0.159486,9999,0,0,0,-0.008088,0.001480,-0.009837,0.000000,0.000000,0.000000
local_position_ned,9,1510647357501929472.000000,-0.000000,-0.000003,0.000000,0.000000,0.002846,-0.002490,-0.010149,0.000000,0.000000,-0.605902,0.112853,0.104875,-0.159486,9999,0,0,0,-0.005732,0.001804,-0.010729,0.000000,0.000000,0.000000
local_position_ned,10,1510647357531727872.000000,-0.000000,-0.000003,0.000000,0.000000,0.002846,-0.002490,-0.010149,0.000000,0.000000,-0.604590,0.112853,0.104875,-0.159486,9999,0,0,0,-0.005971,0.002974,-0.010919,0.000000,0.000000,0.000000
highres_imu,10,1510647357552647936.000000,-0.000000,-0.000003,0.000000,0.000000,0.004079,-0.000707,-0.012261,0.000000,0.000000,-0.604590,0.112853,0.104875,-0.159486,9999,0,0,0,-0.005971,0.002974,-0.010919,0.000000,0.000000,0.000000
attitude,10,1510647357561820672.000000,-0.000000,-0.000003,0.000000,0.000000,0.004079,-0.000707,-0.012261,0.000000,0.000000,-0.604590,0.112867,0.105009,-0.160673,9999,0,0,0,-0.005971,0.002974,-0.010919,0.000000,0.000000,0.000000
highres_imu,10,1510647357616901632.000000,-0.000000,-0.000003,0.000000,0.000000,0.002823,-0.004531,-0.009278,0.000000,0.000000,-0.604590,0.112867,0.105009,-0.160673,9999,0,0,0,-0.005971,0.002974,-0.010919,0.000000,0.000000,0.000000
attitude,10,1510647357626406144.000000,-0.000000,-0.000003,0.000000,0.000000,0.002823,-0.004531,-0.009278,0.000000,0.000000,-0.604590,0.112863,0.104907,-0.161437,9999,0,0,0,-0.005971,0.002974,-0.010919,0.000000,0.000000,0.000000
highres_imu,11,1510647357710599424.000000,-0.000000,-0.000003,0.000000,0.000000,-0.000379,-0.000023,-0.004520,0.000000,0.000000,-0.604590,0.112863,0.104907,-0.161437,9999,0,0,0,-0.005971,0.002974,-0.010919,0.000000,0.000000,0.000000
attitude,11,1510647357720489216.000000,-0.000000,-0.000003,0.000000,0.000000,-0.000379,-0.000023,-0.004520,0.000000,0.000000,-0.604590,0.112854,0.104782,-0.161930,9999,0,0,0,-0.005971,0.002974,-0.010919,0.000000,0.000000,0.000000
highres_imu,12,1510647357751074304.000000,-0.000000,-0.000003,0.000000,0.000000,0.004324,0.001122,-0.004642,0.000000,0.000000,-0.604590,0.112854,0.104782,-0.161930,9999,0,0,0,-0.005971,0.002974,-0.010919,0.000000,0.000000,0.000000
highres_imu,12,1510647357770270976.000000,-0.000000,-0.000003,0.000000,0.000000,0.000030,0.002132,-0.003469,0.000000,0.000000,-0.604590,0.112854,0.104782,-0.161930,9999,0,0,0,-0.005971,0.002974,-0.010919,0.000000,0.000000,0.000000
attitude,12,1510647357781726464.000000,-0.000000,-0.000003,0.000000,0.000000,0.000030,0.002132,-0.003469,0.000000,0.000000,-0.604590,0.112883,0.104906,-0.162258,9999,0,0,0,-0.005971,0.002974,-0.010919,0.000000,0.000000,0.000000
highres_imu,13,1510647357834063872.000000,-0.000000,-0.000003,0.000000,0.000000,-0.001490,-0.002452,-0.007058,0.000000,0.000000,-0.604590,0.112883,0.104906,-0.162258,9999,0,0,0,-0.005971,0.002974,-0.010919,0.000000,0.000000,0.000000
local_position_ned,13,1510647357844288768.000000,-0.000000,-0.000003,0.000000,0.000000,-0.001490,-0.002452,-0.007058,0.000000,0.000000,-0.602511,0.112883,0.104906,-0.162258,9999,0,0,0,-0.005390,0.001131,-0.011375,0.000000,0.000000,0.000000
highres_imu,13,1510647357863430656.000000,-0.000000,-0.000003,0.000000,0.000000,-0.001169,-0.001923,-0.007108,0.000000,0.000000,-0.602511,0.112883,0.104906,-0.162258,9999,0,0,0,-0.005390,0.001131,-0.011375,0.000000,0.000000,0.000000
highres_imu,13,1510647357905388032.000000,-0.000000,-0.000003,0.000000,0.000000,0.002587,-0.000397,-0.003972,0.000000,0.000000,-0.602511,0.112883,0.104906,-0.162258,9999,0,0,0,-0.005390,0.001131,-0.011375,0.000000,0.000000,0.000000
highres_imu,14,1510647357992476672.000000,-0.000000,-0.000003,0.000000,0.000000,0.000010,0.000501,0.001004,0.000000,0.000000,-0.602511,0.112883,0.104906,-0.162258,9999,0,0,0,-0.005390,0.001131,-0.011375,0.000000,0.000000,0.000000
highres_imu,15,1510647358051262208.000000,-0.000000,-0.000003,0.000000,0.000000,0.001429,-0.000608,-0.000227,0.000000,0.000000,-0.602511,0.112883,0.104906,-0.162258,9999,0,0,0,-0.005390,0.001131,-0.011375,0.000000,0.000000,0.000000
attitude,15,1510647358063621376.000000,-0.000000,-0.000003,0.000000,0.000000,0.001429,-0.000608,-0.000227,0.000000,0.000000,-0.602511,0.112854,0.104833,-0.163542,9999,0,0,0,-0.005390,0.001131,-0.011375,0.000000,0.000000,0.000000
highres_imu,15,1510647358121725184.000000,-0.000000,-0.000003,0.000000,0.000000,0.000378,0.001506,-0.000496,0.000000,0.000000,-0.602511,0.112854,0.104833,-0.163542,9999,0,0,0,-0.005390,0.001131,-0.011375,0.000000,0.000000,0.000000
highres_imu,16,1510647358140341760.000000,-0.000000,-0.000003,0.000000,0.000000,0.002829,0.000340,-0.001265,0.000000,0.000000,-0.602511,0.112854,0.104833,-0.163542,9999,0,0,0,-0.005390,0.001131,-0.011375,0.000000,0.000000,0.000000
local_position_ned,17,1510647358260689920.000000,-0.000000,-0.000003,0.000000,0.000000,0.002829,0.000340,-0.001265,0.000000,0.000000,-0.599875,0.112854,0.104833,-0.163542,9999,0,0,0,-0.007959,0.001791,-0.011354,0.000000,0.000000,0.000000
highres_imu,17,1510647358279885312.000000,-0.000000,-0.000003,0.000000,0.000000,0.000892,0.002510,-0.007568,0.000000,0.000000,-0.599875,0.112854,0.104833,-0.163542,9999,0,0,0,-0.007959,0.001791,-0.011354,0.000000,0.000000,0.000000
highres_imu,17,1510647358300083712.000000,-0.000000,-0.000003,0.000000,0.000000,-0.001289,0.001148,-0.006498,0.000000,0.000000,-0.599875,0.112854,0.104833,-0.163542,9999,0,0,0,-0.007959,0.001791,-0.011354,0.000000,0.000000,0.000000
local_position_ned,18,1510647358339363072.000000,-0.000000,-0.000003,0.000000,0.000000,-0.001289,0.001148,-0.006498,0.000000,0.000000,-0.600545,0.112854,0.104833,-0.163542,9999,0,0,0,-0.005757,0.002205,-0.011728,0.000000,0.000000,0.000000
highres_imu,18,1510647358360452096.000000,-0.000000,-0.000003,0.000000,0.000000,0.002410,-0.001644,0.002917,0.000000,0.000000,-0.600545,0.112854,0.104833,-0.163542,9999,0,0,0,-0.005757,0.002205,-0.011728,0.000000,0.000000,0.000000
attitude,18,1510647358371392768.000000,-0.000000,-0.000003,0.000000,0.000000,0.002410,-0.001644,0.002917,0.000000,0.000000,-0.600545,0.112861,0.105050,-0.164522,9999,0,0,0,-0.005757,0.002205,-0.011728,0.000000,0.000000,0.000000
highres_imu,19,1510647358503685120.000000,-0.000000,-0.000003,0.000000,0.000000,0.000298,0.003960,0.002221,0.000000,0.000000,-0.600545,0.112861,0.105050,-0.164522,9999,0,0,0,-0.005757,0.002205,-0.011728,0.000000,0.000000,0.000000
attitude,19,1510647358515506944.000000,-0.000000,-0.000003,0.000000,0.000000,0.000298,0.003960,0.002221,0.000000,0.000000,-0.600545,0.112830,0.105012,-0.164304,9999,0,0,0,-0.005757,0.002205,-0.011728,0.000000,0.000000,0.000000
attitude,20,1510647358631013376.000000,-0.000000,-0.000003,0.000000,0.000000,0.000298,0.003960,0.002221,0.000000,0.000000,-0.600545,0.112795,0.104857,-0.163653,9999,0,0,0,-0.005757,0.002205,-0.011728,0.000000,0.000000,0.000000
highres_imu,21,1510647358662301696.000000,-0.000000,-0.000003,0.000000,0.000000,0.002785,-0.004499,0.000471,0.000000,0.000000,-0.600545,0.112795,0.104857,-0.163653,9999,0,0,0,-0.005757,0.002205,-0.011728,0.000000,0.000000,0.000000
attitude,21,1510647358692863232.000000,-0.000000,-0.000003,0.000000,0.000000,0.002785,-0.004499,0.000471,0.000000,0.000000,-0.600545,0.112829,0.104777,-0.163812,9999,0,0,0,-0.005757,0.002205,-0.011728,0.000000,0.000000,0.000000
highres_imu,21,1510647358733830912.000000,-0.000000,-0.000003,0.000000,0.000000,0.000299,0.001217,-0.005376,0.000000,0.000000,-0.600545,0.112829,0.104777,-0.163812,9999,0,0,0,-0.005757,0.002205,-0.011728,0.000000,0.000000,0.000000
highres_imu,23,1510647358861280512.000000,-0.000000,-0.000003,0.000000,0.000000,-0.001587,-0.008118,-0.006946,0.000000,0.000000,-0.600545,0.112829,0.104777,-0.163812,9999,0,0,0,-0.005757,0.002205,-0.011728,0.000000,0.000000,0.000000
attitude,23,1510647358871210496.000000,-0.000000,-0.000003,0.000000,0.000000,-0.001587,-0.008118,-0.006946,0.000000,0.000000,-0.600545,0.112803,0.104664,-0.164591,9999,0,0,0,-0.005757,0.002205,-0.011728,0.000000,0.000000,0.000000
local_position_ned,23,1510647358916473344.000000,-0.000000,-0.000003,0.000000,0.000000,-0.001587,-0.008118,-0.006946,0.000000,0.000000,-0.592360,0.112803,0.104664,-0.164591,9999,0,0,0,-0.003911,0.001284,-0.010434,0.000000,0.000000,0.000000
highres_imu,24,1510647358938598144.000000,-0.000000,-0.000003,0.000000,0.000000,-0.002058,-0.002874,-0.001329,0.000000,0.000000,-0.592360,0.112803,0.104664,-0.164591,9999,0,0,0,-0.003911,0.001284,-0.010434,0.000000,0.000000,0.000000
highres_imu,24,1510647358957252864.000000,-0.000000,-0.000003,0.000000,0.000000,0.001244,-0.001583,-0.001299,0.000000,0.000000,-0.592360,0.112803,0.104664,-0.164591,9999,0,0,0,-0.003911,0.001284,-0.010434,0.000000,0.000000,0.000000
local_position_ned,24,1510647359005086976.000000,-0.000000,-0.000003,0.000000,0.000000,0.001244,-0.001583,-0.001299,0.000000,0.000000,-0.592926,0.112803,0.104664,-0.164591,9999,0,0,0,-0.006577,0.002954,-0.010328,0.000000,0.000000,0.000000
highres_imu,24,1510647359022814208.000000,-0.000000,-0.000003,0.000000,0.000000,-0.000947,0.001664,0.000844,0.000000,0.000000,-0.592926,0.112803,0.104664,-0.164591,9999,0,0,0,-0.006577,0.002954,-0.010328,0.000000,0.000000,0.000000
attitude,24,1510647359032185600.000000,-0.000000,-0.000003,0.000000,0.000000,-0.000947,0.001664,0.000844,0.000000,0.000000,-0.592926,0.112680,0.104414,-0.165046,9999,0,0,0,-0.006577,0.002954,-0.010328,0.000000,0.000000,0.000000
local_position_ned,25,1510647359074935552.000000,-0.000000,-0.000003,0.000000,0.000000,-0.000947,0.001664,0.000844,0.000000,0.000000,-0.594155,0.112680,0.104414,-0.165046,9999,0,0,0,-0.001328,-0.000653,-0.010869,0.000000,0.000000,0.000000
highres_imu,25,1510647359093023232.000000,-0.000000,-0.000003,0.000000,0.000000,0.002256,-0.008395,0.004757,0.000000,0.000000,-0.594155,0.112680,0.104414,-0.165046,9999,0,0,0,-0.001328,-0.000653,-0.010869,0.000000,0.000000,0.000000
highres_imu,25,1510647359113201664.000000,-0.000000,-0.000003,0.000000,0.000000,-0.000684,-0.008223,0.003381,0.000000,0.000000,-0.594155,0.112680,0.104414,-0.165046,9999,0,0,0,-0.001328,-0.000653,-0.010869,0.000000,0.000000,0.000000
highres_imu,26,1510647359154905088.000000,-0.000000,-0.000003,0.000000,0.000000,0.002979,-0.007189,-0.010903,0.000000,0.000000,-0.594155,0.112680,0.104414,-0.165046,9999,0,0,0,-0.001328,-0.000653,-0.010869,0.000000,0.000000,0.000000
local_position_ned,26,1510647359165058560.000000,-0.000000,-0.000003,0.000000,0.000000,0.002979,-0.007189,-0.010903,0.000000,0.000000,-0.594920,0.112680,0.104414,-0.165046,9999,0,0,0,-0.002710,-0.001407,-0.010559,0.000000,0.000000,0.000000
highres_imu,26,1510647359184517376.000000,-0.000000,-0.000003,0.000000,0.000000,0.001019,-0.007895,-0.009314,0.000000,0.000000,-0.594920,0.112680,0.104414,-0.165046,9999,0,0,0,-0.002710,-0.001407,-0.010559,0.000000,0.000000,0.000000
highres_imu,26,1510647359223175680.000000,-0.000000,-0.000003,0.000000,0.000000,0.005258,-0.004213,-0.025109,0.000000,0.000000,-0.594920,0.112680,0.104414,-0.165046,9999,0,0,0,-0.002710,-0.001407,-0.010559,0.000000,0.000000,0.000000
highres_imu,27,1510647359253789952.000000,-0.000000,-0.000003,0.000000,0.000000,0.008684,-0.003864,-0.025705,0.000000,0.000000,-0.594920,0.112680,0.104414,-0.165046,9999,0,0,0,-0.002710,-0.001407,-0.010559,0.000000,0.000000,0.000000
local_position_ned,27,1510647359262757120.000000,-0.000000,-0.000003,0.000000,0.000000,0.008684,-0.003864,-0.025705,0.000000,0.000000,-0.596193,0.112680,0.104414,-0.165046,9999,0,0,0,-0.004350,0.000668,-0.011878,0.000000,0.000000,0.000000
highres_imu,27,1510647359303050752.000000,-0.000000,-0.000003,0.000000,0.000000,-0.003381,-0.006993,-0.015907,0.000000,0.000000,-0.596193,0.112680,0.104414,-0.165046,9999,0,0,0,-0.004350,0.000668,-0.011878,0.000000,0.000000,0.000000
highres_imu,27,1510647359321082112.000000,-0.000000,-0.000003,0.000000,0.000000,-0.001898,-0.006664,-0.015800,0.000000,0.000000,-0.596193,0.112680,0.104414,-0.165046,9999,0,0,0,-0.004350,0.000668,-0.011878,0.000000,0.000000,0.000000
highres_imu,28,1510647359376644096.000000,-0.000000,-0.000003,0.000000,0.000000,-0.002215,-0.009291,-0.007899,0.000000,0.000000,-0.596193,0.112680,0.104414,-0.165046,9999,0,0,0,-0.004350,0.000668,-0.011878,0.000000,0.000000,0.000000
attitude,28,1510647359385927168.000000,-0.000000,-0.000003,0.000000,0.000000,-0.002215,-0.009291,-0.007899,0.000000,0.000000,-0.596193,0.112346,0.102798,-0.168466,9999,0,0,0,-0.004350,0.000668,-0.011878,0.000000,0.000000,0.000000
attitude,28,1510647359436634624.000000,-0.000000,-0.000003,0.000000,0.000000,-0.002215,-0.009291,-0.007899,0.000000,0.000000,-0.596193,0.112364,0.102641,-0.168967,9999,0,0,0,-0.004350,0.000668,-0.011878,0.000000,0.000000,0.000000
highres_imu,29,1510647359472400128.000000,-0.000000,-0.000003,0.000000,0.000000,0.002769,0.003168,-0.002767,0.000000,0.000000,-0.596193,0.112364,0.102641,-0.168967,9999,0,0,0,-0.004350,0.000668,-0.011878,0.000000,0.000000,0.000000
attitude,29,1510647359523647488.000000,-0.000000,-0.000003,0.000000,0.000000,0.002769,0.003168,-0.002767,0.000000,0.000000,-0.596193,0.112243,0.102614,-0.169082,9999,0,0,0,-0.004350,0.000668,-0.011878,0.000000,0.000000,0.000000
highres_imu,29,1510647359554028032.000000,-0.000000,-0.000003,0.000000,0.000000,-0.002125,-0.003387,0.005357,0.000000,0.000000,-0.596193,0.112243,0.102614,-0.169082,9999,0,0,0,-0.004350,0.000668,-0.011878,0.000000,0.000000,0.000000
attitude,30,1510647359597765376.000000,-0.000000,-0.000003,0.000000,0.000000,-0.002125,-0.003387,0.005357,0.000000,0.000000,-0.596193,0.112173,0.102291,-0.169152,9999,0,0,0,-0.004350,0.000668,-0.011878,0.000000,0.000000,0.000000
highres_imu,30,1510647359692726272.000000,-0.000000,-0.000003,0.000000,0.000000,0.004543,-0.001445,-0.026196,0.000000,0.000000,-0.596193,0.112173,0.102291,-0.169152,9999,0,0,0,-0.004350,0.000668,-0.011878,0.000000,0.000000,0.000000
highres_imu,30,1510647359710320896.000000,-0.000000,-0.000003,0.000000,0.000000,0.000416,-0.001950,-0.026992,0.000000,0.000000,-0.596193,0.112173,0.102291,-0.169152,9999,0,0,0,-0.004350,0.000668,-0.011878,0.000000,0.000000,0.000000
attitude,30,1510647359721745664.000000,-0.000000,-0.000003,0.000000,0.000000,0.000416,-0.001950,-0.026992,0.000000,0.000000,-0.596193,0.112307,0.102108,-0.170651,9999,0,0,0,-0.004350,0.000668,-0.011878,0.000000,0.000000,0.000000
local_position_ned,31,1510647359765172480.000000,-0.000000,-0.000003,0.000000,0.000000,0.000416,-0.001950,-0.026992,0.000000,0.000000,-0.604194,0.112307,0.102108,-0.170651,9999,0,0,0,0.029162,-0.021563,-0.013110,0.000000,0.000000,0.000000
highres_imu,31,1510647359783319552.000000,-0.000000,-0.000003,0.000000,0.000000,0.009402,-0.012291,-0.061906,0.000000,0.000000,-0.604194,0.112307,0.102108,-0.170651,9999,0,0,0,0.029162,-0.021563,-0.013110,0.000000,0.000000,0.000000
highres_imu,31,1510647359804274944.000000,-0.000000,-0.000003,0.000000,0.000000,0.007358,-0.011207,-0.060902,0.000000,0.000000,-0.604194,0.112307,0.102108,-0.170651,9999,0,0,0,0.029162,-0.021563,-0.013110,0.000000,0.000000,0.000000
highres_imu,31,1510647359843841024.000000,-0.000000,-0.000003,0.000000,0.000000,0.008293,0.000500,-0.064360,0.000000,0.000000,-0.604194,0.112307,0.102108,-0.170651,9999,0,0,0,0.029162,-0.021563,-0.013110,0.000000,0.000000,0.000000
local_position_ned,31,1510647359853406208.000000,-0.000000,-0.000003,0.000000,0.000000,0.008293,0.000500,-0.064360,0.000000,0.000000,-0.603676,0.112307,0.102108,-0.170651,9999,0,0,0,0.044377,-0.026435,-0.012982,0.000000,0.000000,0.000000
highres_imu,32,1510647359871976704.000000,-0.000000,-0.000003,0.000000,0.000000,0.013366,-0.004115,-0.058655,0.000000,0.000000,-0.603676,0.112307,0.102108,-0.170651,9999,0,0,0,0.044377,-0.026435,-0.012982,0.000000,0.000000,0.000000
highres_imu,32,1510647359912852224.000000,-0.000000,-0.000003,0.000000,0.000000,0.009705,-0.004467,-0.048754,0.000000,0.000000,-0.603676,0.112307,0.102108,-0.170651,9999,0,0,0,0.044377,-0.026435,-0.012982,0.000000,0.000000,0.000000
attitude,32,1510647359922495488.000000,-0.000000,-0.000003,0.000000,0.000000,0.009705,-0.004467,-0.048754,0.000000,0.000000,-0.603676,0.111954,0.101540,-0.181193,9999,0,0,0,0.044377,-0.026435,-0.012982,0.000000,0.000000,0.000000
highres_imu,32,1510647359981549568.000000,-0.000000,-0.000003,0.000000,0.000000,0.012429,0.000440,-0.018105,0.000000,0.000000,-0.603676,0.111954,0.101540,-0.181193,9999,0,0,0,0.044377,-0.026435,-0.012982,0.000000,0.000000,0.000000
local_position_ned,32,1510647359992124928.000000,-0.000000,-0.000003,0.000000,0.000000,0.012429,0.000440,-0.018105,0.000000,0.000000,-0.603334,0.111954,0.101540,-0.181193,9999,0,0,0,0.081494,-0.053197,-0.011325,0.000000,0.000000,0.000000
highres_imu,33,1510647360013843200.000000,-0.000000,-0.000003,0.000000,0.000000,0.008654,0.000103,-0.016302,0.000000,0.000000,-0.603334,0.111954,0.101540,-0.181193,9999,0,0,0,0.081494,-0.053197,-0.011325,0.000000,0.000000,0.000000
highres_imu,33,1510647360064679680.000000,-0.000000,-0.000003,0.000000,0.000000,-0.002202,0.012468,0.016613,0.000000,0.000000,-0.603334,0.111954,0.101540,-0.181193,9999,0,0,0,0.081494,-0.053197,-0.011325,0.000000,0.000000,0.000000
highres_imu,33,1510647360083604480.000000,-0.000000,-0.000003,0.000000,0.000000,-0.005265,0.008723,0.024028,0.000000,0.000000,-0.603334,0.111954,0.101540,-0.181193,9999,0,0,0,0.081494,-0.053197,-0.011325,0.000000,0.000000,0.000000
local_position_ned,33,1510647360093157888.000000,-0.000000,-0.000003,0.000000,0.000000,-0.005265,0.008723,0.024028,0.000000,0.000000,-0.602599,0.111954,0.101540,-0.181193,9999,0,0,0,0.111593,-0.075645,-0.013994,0.000000,0.000000,0.000000
highres_imu,34,1510647360136282624.000000,-0.000000,-0.000003,0.000000,0.000000,-0.018047,-0.004471,0.074091,0.000000,0.000000,-0.602599,0.111954,0.101540,-0.181193,9999,0,0,0,0.111593,-0.075645,-0.013994,0.000000,0.000000,0.000000
highres_imu,34,1510647360154951680.000000,-0.000000,-0.000003,0.000000,0.000000,-0.021278,-0.006113,0.070967,0.000000,0.000000,-0.602599,0.111954,0.101540,-0.181193,9999,0,0,0,0.111593,-0.075645,-0.013994,0.000000,0.000000,0.000000
highres_imu,34,1510647360223224576.000000,-0.000000,-0.000003,0.000000,0.000000,-0.015839,0.032388,0.102368,0.000000,0.000000,-0.602599,0.111954,0.101540,-0.181193,9999,0,0,0,0.111593,-0.075645,-0.013994,0.000000,0.000000,0.000000
attitude,34,1510647360262069248.000000,-0.000000,-0.000003,0.000000,0.000000,-0.015839,0.032388,0.102368,0.000000,0.000000,-0.602599,0.110833,0.102462,-0.166184,9999,0,0,0,0.111593,-0.075645,-0.013994,0.000000,0.000000,0.000000
highres_imu,35,1510647360303800064.000000,-0.000000,-0.000003,0.000000,0.000000,-0.017215,0.019809,0.153601,0.000000,0.000000,-0.602599,0.110833,0.102462,-0.166184,9999,0,0,0,0.111593,-0.075645,-0.013994,0.000000,0.000000,0.000000
attitude,35,1510647360341090048.000000,-0.000000,-0.000003,0.000000,0.000000,-0.017215,0.019809,0.153601,0.000000,0.000000,-0.602599,0.110513,0.102343,-0.156236,9999,0,0,0,0.111593,-0.075645,-0.013994,0.000000,0.000000,0.000000
highres_imu,35,1510647360372488448.000000,-0.000000,-0.000003,0.000000,0.000000,-0.015413,0.007675,0.173031,0.000000,0.000000,-0.602599,0.110513,0.102343,-0.156236,9999,0,0,0,0.111593,-0.075645,-0.013994,0.000000,0.000000,0.000000
highres_imu,36,1510647360412010752.000000,-0.000000,-0.000003,0.000000,0.000000,-0.009694,0.010312,0.187788,0.000000,0.000000,-0.602599,0.110513,0.102343,-0.156236,9999,0,0,0,0.111593,-0.075645,-0.013994,0.000000,0.000000,0.000000
attitude,36,1510647360422068736.000000,-0.000000,-0.000003,0.000000,0.000000,-0.009694,0.010312,0.187788,0.000000,0.000000,-0.602599,0.110824,0.101514,-0.145931,9999,0,0,0,0.111593,-0.075645,-0.013994,0.000000,0.000000,0.000000
highres_imu,36,1510647360454609920.000000,-0.000000,-0.000003,0.000000,0.000000,-0.025641,0.024911,0.183031,0.000000,0.000000,-0.602599,0.110824,0.101514,-0.145931,9999,0,0,0,0.111593,-0.075645,-0.013994,0.000000,0.000000,0.000000
attitude,36,1510647360498181120.000000,-0.000000,-0.000003,0.000000,0.000000,-0.025641,0.024911,0.183031,0.000000,0.000000,-0.602599,0.111000,0.102455,-0.133705,9999,0,0,0,0.111593,-0.075645,-0.013994,0.000000,0.000000,0.000000
highres_imu,36,1510647360525953280.000000,-0.000000,-0.000003,0.000000,0.000000,-0.015153,0.017672,0.196676,0.000000,0.000000,-0.602599,0.111000,0.102455,-0.133705,9999,0,0,0,0.111593,-0.075645,-0.013994,0.000000,0.000000,0.000000
highres_imu,37,1510647360652968704.000000,-0.000000,-0.000003,0.000000,0.000000,-0.019608,0.047671,0.191936,0.000000,0.000000,-0.602599,0.111000,0.102455,-0.133705,9999,0,0,0,0.111593,-0.075645,-0.013994,0.000000,0.000000,0.000000
attitude,38,1510647360670234624.000000,-0.000000,-0.000003,0.000000,0.000000,-0.019608,0.047671,0.191936,0.000000,0.000000,-0.602599,0.111065,0.103307,-0.105381,9999,0,0,0,0.111593,-0.075645,-0.013994,0.000000,0.000000,0.000000
highres_imu,38,1510647360739510272.000000,-0.000000,-0.000003,0.000000,0.000000,-0.016010,-0.003714,0.171757,0.000000,0.000000,-0.602599,0.111065,0.103307,-0.105381,9999,0,0,0,0.111593,-0.075645,-0.013994,0.000000,0.000000,0.000000
attitude,38,1510647360753562368.000000,-0.000000,-0.000003,0.000000,0.000000,-0.016010,-0.003714,0.171757,0.000000,0.000000,-0.602599,0.111183,0.103943,-0.094086,9999,0,0,0,0.111593,-0.075645,-0.013994,0.000000,0.000000,0.000000
highres_imu,39,1510647360815124480.000000,-0.000000,-0.000003,0.000000,0.000000,-0.010737,0.020410,0.141071,0.000000,0.000000,-0.602599,0.111183,0.103943,-0.094086,9999,0,0,0,0.111593,-0.075645,-0.013994,0.000000,0.000000,0.000000
highres_imu,39,1510647360870312448.000000,-0.000000,-0.000003,0.000000,0.000000,-0.013807,0.018090,0.070296,0.000000,0.000000,-0.602599,0.111183,0.103943,-0.094086,9999,0,0,0,0.111593,-0.075645,-0.013994,0.000000,0.000000,0.000000
highres_imu,39,1510647360887646208.000000,-0.000000,-0.000003,0.000000,0.000000,-0.013109,0.013815,0.063656,0.000000,0.000000,-0.602599,0.111183,0.103943,-0.094086,9999,0,0,0,0.111593,-0.075645,-0.013994,0.000000,0.000000,0.000000
local_position_ned,39,1510647360897201664.000000,-0.000000,-0.000003,0.000000,0.000000,-0.013109,0.013815,0.063656,0.000000,0.000000,-0.615626,0.111183,0.103943,-0.094086,9999,0,0,0,-0.001693,0.010101,-0.013142,0.000000,0.000000,0.000000
highres_imu,40,1510647360936371200.000000,-0.000000,-0.000003,0.000000,0.000000,0.000322,-0.025221,0.009318,0.000000,0.000000,-0.615626,0.111183,0.103943,-0.094086,9999,0,0,0,-0.001693,0.010101,-0.013142,0.000000,0.000000,0.000000
highres_imu,40,1510647360957093632.000000,-0.000000,-0.000003,0.000000,0.000000,-0.001706,-0.025518,0.005769,0.000000,0.000000,-0.615626,0.111183,0.103943,-0.094086,9999,0,0,0,-0.001693,0.010101,-0.013142,0.000000,0.000000,0.000000
local_position_ned,41,1510647361079382528.000000,-0.000000,-0.000003,0.000000,0.000000,-0.001706,-0.025518,0.005769,0.000000,0.000000,-0.614439,0.111183,0.103943,-0.094086,9999,0,0,0,-0.052569,0.018599,-0.013374,0.000000,0.000000,0.000000
highres_imu,41,1510647361098604288.000000,-0.000000,-0.000003,0.000000,0.000000,0.006533,0.016184,-0.119331,0.000000,0.000000,-0.614439,0.111183,0.103943,-0.094086,9999,0,0,0,-0.052569,0.018599,-0.013374,0.000000,0.000000,0.000000
highres_imu,41,1510647361118387456.000000,-0.000000,-0.000003,0.000000,0.000000,0.008972,0.012907,-0.123516,0.000000,0.000000,-0.614439,0.111183,0.103943,-0.094086,9999,0,0,0,-0.052569,0.018599,-0.013374,0.000000,0.000000,0.000000
attitude,41,1510647361159827712.000000,-0.000000,-0.000003,0.000000,0.000000,0.008972,0.012907,-0.123516,0.000000,0.000000,-0.614439,0.111382,0.105746,-0.092824,9999,0,0,0,-0.052569,0.018599,-0.013374,0.000000,0.000000,0.000000
highres_imu,41,1510647361178179840.000000,-0.000000,-0.000003,0.000000,0.000000,0.012620,-0.031083,-0.149356,0.000000,0.000000,-0.614439,0.111382,0.105746,-0.092824,9999,0,0,0,-0.052569,0.018599,-0.013374,0.000000,0.000000,0.000000
attitude,42,1510647361227735040.000000,-0.000000,-0.000003,0.000000,0.000000,0.012620,-0.031083,-0.149356,0.000000,0.000000,-0.614439,0.111307,0.104461,-0.102341,9999,0,0,0,-0.052569,0.018599,-0.013374,0.000000,0.000000,0.000000
highres_imu,42,1510647361260097024.000000,-0.000000,-0.000003,0.000000,0.000000,0.018971,-0.034817,-0.156587,0.000000,0.000000,-0.614439,0.111307,0.104461,-0.102341,9999,0,0,0,-0.052569,0.018599,-0.013374,0.000000,0.000000,0.000000
attitude,42,1510647361291275520.000000,-0.000000,-0.000003,0.000000,0.000000,0.018971,-0.034817,-0.156587,0.000000,0.000000,-0.614439,0.111275,0.104476,-0.111414,9999,0,0,0,-0.052569,0.018599,-0.013374,0.000000,0.000000,0.000000
attitude,43,1510647361371211776.000000,-0.000000,-0.000003,0.000000,0.000000,0.018971,-0.034817,-0.156587,0.000000,0.000000,-0.614439,0.111263,0.105711,-0.121435,9999,0,0,0,-0.052569,0.018599,-0.013374,0.000000,0.000000,0.000000
highres_imu,43,1510647361400243200.000000,-0.000000,-0.000003,0.000000,0.000000,0.015466,-0.002493,-0.148477,0.000000,0.000000,-0.614439,0.111263,0.105711,-0.121435,9999,0,0,0,-0.052569,0.018599,-0.013374,0.000000,0.000000,0.000000
highres_imu,44,1510647361450749696.000000,-0.000000,-0.000003,0.000000,0.000000,0.015242,-0.033667,-0.123167,0.000000,0.000000,-0.614439,0.111263,0.105711,-0.121435,9999,0,0,0,-0.052569,0.018599,-0.013374,0.000000,0.000000,0.000000
local_position_ned,44,1510647361461211392.000000,-0.000000,-0.000003,0.000000,0.000000,0.015242,-0.033667,-0.123167,0.000000,0.000000,-0.621733,0.111263,0.105711,-0.121435,9999,0,0,0,-0.040415,0.026588,-0.013555,0.000000,0.000000,0.000000
highres_imu,44,1510647361484827392.000000,-0.000000,-0.000003,0.000000,0.000000,0.012013,-0.032733,-0.121645,0.000000,0.000000,-0.621733,0.111263,0.105711,-0.121435,9999,0,0,0,-0.040415,0.026588,-0.013555,0.000000,0.000000,0.000000
highres_imu,44,1510647361545581824.000000,-0.000000,-0.000003,0.000000,0.000000,0.008566,-0.014108,-0.107793,0.000000,0.000000,-0.621733,0.111263,0.105711,-0.121435,9999,0,0,0,-0.040415,0.026588,-0.013555,0.000000,0.000000,0.000000
attitude,44,1510647361554927872.000000,-0.000000,-0.000003,0.000000,0.000000,0.008566,-0.014108,-0.107793,0.000000,0.000000,-0.621733,0.111117,0.104631,-0.139324,9999,0,0,0,-0.040415,0.026588,-0.013555,0.000000,0.000000,0.000000
highres_imu,45,1510647361674126848.000000,-0.000000,-0.000003,0.000000,0.000000,0.015102,-0.014906,-0.125856,0.000000,0.000000,-0.621733,0.111117,0.104631,-0.139324,9999,0,0,0,-0.040415,0.026588,-0.013555,0.000000,0.000000,0.000000
attitude,45,1510647361683604992.000000,-0.000000,-0.000003,0.000000,0.000000,0.015102,-0.014906,-0.125856,0.000000,0.000000,-0.621733,0.111091,0.105729,-0.152648,9999,0,0,0,-0.040415,0.026588,-0.013555,0.000000,0.000000,0.000000
highres_imu,46,1510647361757539584.000000,-0.000000,-0.000003,0.000000,0.000000,0.012093,-0.026554,-0.133176,0.000000,0.000000,-0.621733,0.111091,0.105729,-0.152648,9999,0,0,0,-0.040415,0.026588,-0.013555,0.000000,0.000000,0.000000
attitude,46,1510647361767345664.000000,-0.000000,-0.000003,0.000000,0.000000,0.012093,-0.026554,-0.133176,0.000000,0.000000,-0.621733,0.111083,0.105233,-0.160647,9999,0,0,0,-0.040415,0.026588,-0.013555,0.000000,0.000000,0.000000
highres_imu,47,1510647361855494912.000000,-0.000000,-0.000003,0.000000,0.000000,0.015733,-0.007962,-0.129741,0.000000,0.000000,-0.621733,0.111083,0.105233,-0.160647,9999,0,0,0,-0.040415,0.026588,-0.013555,0.000000,0.000000,0.000000
highres_imu,47,1510647361904007424.000000,-0.000000,-0.000003,0.000000,0.000000,0.013546,-0.004672,-0.115066,0.000000,0.000000,-0.621733,0.111083,0.105233,-0.160647,9999,0,0,0,-0.040415,0.026588,-0.013555,0.000000,0.000000,0.000000
highres_imu,47,1510647361921972736.000000,-0.000000,-0.000003,0.000000,0.000000,0.014982,-0.005920,-0.112853,0.000000,0.000000,-0.621733,0.111083,0.105233,-0.160647,9999,0,0,0,-0.040415,0.026588,-0.013555,0.000000,0.000000,0.000000
highres_imu,47,1510647361969238272.000000,-0.000000,-0.000003,0.000000,0.000000,0.009189,-0.017873,-0.094809,0.000000,0.000000,-0.621733,0.111083,0.105233,-0.160647,9999,0,0,0,-0.040415,0.026588,-0.013555,0.000000,0.000000,0.000000
local_position_ned,47,1510647361980641024.000000,-0.000000,-0.000003,0.000000,0.000000,0.009189,-0.017873,-0.094809,0.000000,0.000000,-0.632119,0.111083,0.105233,-0.160647,9999,0,0,0,-0.060297,0.033563,-0.014118,0.000000,0.000000,0.000000
highres_imu,48,1510647362008547840.000000,-0.000000,-0.000003,0.000000,0.000000,0.011837,-0.019540,-0.094339,0.000000,0.000000,-0.632119,0.111083,0.105233,-0.160647,9999,0,0,0,-0.060297,0.033563,-0.014118,0.000000,0.000000,0.000000
highres_imu,48,1510647362046110720.000000,-0.000000,-0.000003,0.000000,0.000000,0.006642,-0.014247,-0.074395,0.000000,0.000000,-0.632119,0.111083,0.105233,-0.160647,9999,0,0,0,-0.060297,0.033563,-0.014118,0.000000,0.000000,0.000000
highres_imu,48,1510647362065374720.000000,-0.000000,-0.000003,0.000000,0.000000,0.006848,-0.011909,-0.073889,0.000000,0.000000,-0.632119,0.111083,0.105233,-0.160647,9999,0,0,0,-0.060297,0.033563,-0.014118,0.000000,0.000000,0.000000
local_position_ned,48,1510647362074569472.000000,-0.000000,-0.000003,0.000000,0.000000,0.006848,-0.011909,-0.073889,0.000000,0.000000,-0.632226,0.111083,0.105233,-0.160647,9999,0,0,0,-0.063757,0.034057,-0.011872,0.000000,0.000000,0.000000
highres_imu,49,1510647362145918976.000000,-0.000000,-0.000003,0.000000,0.000000,0.005811,0.001545,-0.059073,0.000000,0.000000,-0.632226,0.111083,0.105233,-0.160647,9999,0,0,0,-0.063757,0.034057,-0.011872,0.000000,0.000000,0.000000
attitude,49,1510647362155184640.000000,-0.000000,-0.000003,0.000000,0.000000,0.005811,0.001545,-0.059073,0.000000,0.000000,-0.632226,0.110940,0.105258,-0.193897,9999,0,0,0,-0.063757,0.034057,-0.011872,0.000000,0.000000,0.000000
highres_imu,49,1510647362196681984.000000,-0.000000,-0.000003,0.000000,0.000000,0.001988,-0.004389,-0.042640,0.000000,0.000000,-0.632226,0.110940,0.105258,-0.193897,9999,0,0,0,-0.063757,0.034057,-0.011872,0.000000,0.000000,0.000000
attitude,50,1510647362271502336.000000,-0.000000,-0.000003,0.000000,0.000000,0.001988,-0.004389,-0.042640,0.000000,0.000000,-0.632226,0.110898,0.105162,-0.198969,9999,0,0,0,-0.063757,0.034057,-0.011872,0.000000,0.000000,0.000000
highres_imu,50,1510647362305203456.000000,-0.000000,-0.000003,0.000000,0.000000,0.002917,-0.009388,-0.029185,0.000000,0.000000,-0.632226,0.110898,0.105162,-0.198969,9999,0,0,0,-0.063757,0.034057,-0.011872,0.000000,0.000000,0.000000
attitude,50,1510647362336331776.000000,-0.000000,-0.000003,0.000000,0.000000,0.002917,-0.009388,-0.029185,0.000000,0.000000,-0.632226,0.110878,0.104996,-0.200488,9999,0,0,0,-0.063757,0.034057,-0.011872,0.000000,0.000000,0.000000
highres_imu,50,1510647362374227968.000000,-0.000000,-0.000003,0.000000,0.000000,0.001603,0.002021,-0.019380,0.000000,0.000000,-0.632226,0.110878,0.104996,-0.200488,9999,0,0,0,-0.063757,0.034057,-0.011872,0.000000,0.000000,0.000000
highres_imu,51,1510647362449365504.000000,-0.000000,-0.000003,0.000000,0.000000,0.001411,0.001198,-0.012537,0.000000,0.000000,-0.632226,0.110878,0.104996,-0.200488,9999,0,0,0,-0.063757,0.034057,-0.011872,0.000000,0.000000,0.000000
highres_imu,51,1510647362489926144.000000,-0.000000,-0.000003,0.000000,0.000000,0.000813,-0.004458,-0.005808,0.000000,0.000000,-0.632226,0.110878,0.104996,-0.200488,9999,0,0,0,-0.063757,0.034057,-0.011872,0.000000,0.000000,0.000000
highres_imu,51,1510647362507397120.000000,-0.000000,-0.000003,0.000000,0.000000,0.002567,-0.005553,-0.003168,0.000000,0.000000,-0.632226,0.110878,0.104996,-0.200488,9999,0,0,0,-0.063757,0.034057,-0.011872,0.000000,0.000000,0.000000
attitude,52,1510647362519814912.000000,-0.000000,-0.000003,0.000000,0.000000,0.002567,-0.005553,-0.003168,0.000000,0.000000,-0.632226,0.110814,0.105114,-0.202107,9999,0,0,0,-0.063757,0.034057,-0.011872,0.000000,0.000000,0.000000
local_position_ned,52,1510647362550661632.000000,-0.000000,-0.000003,0.000000,0.000000,0.002567,-0.005553,-0.003168,0.000000,0.000000,-0.632186,0.110814,0.105114,-0.202107,9999,0,0,0,-0.062242,0.033215,-0.012488,0.000000,0.000000,0.000000
highres_imu,52,1510647362569150208.000000,-0.000000,-0.000003,0.000000,0.000000,-0.000802,0.000437,-0.000511,0.000000,0.000000,-0.632186,0.110814,0.105114,-0.202107,9999,0,0,0,-0.062242,0.033215,-0.012488,0.000000,0.000000,0.000000
highres_imu,52,1510647362586309120.000000,-0.000000,-0.000003,0.000000,0.000000,0.001905,0.001077,-0.002336,0.000000,0.000000,-0.632186,0.110814,0.105114,-0.202107,9999,0,0,0,-0.062242,0.033215,-0.012488,0.000000,0.000000,0.000000
highres_imu,52,1510647362636632832.000000,-0.000000,-0.000003,0.000000,0.000000,0.000850,0.004920,0.001269,0.000000,0.000000,-0.632186,0.110814,0.105114,-0.202107,9999,0,0,0,-0.062242,0.033215,-0.012488,0.000000,0.000000,0.000000
local_position_ned,52,1510647362646368512.000000,-0.000000,-0.000003,0.000000,0.000000,0.000850,0.004920,0.001269,0.000000,0.000000,-0.631468,0.110814,0.105114,-0.202107,9999,0,0,0,-0.064365,0.032892,-0.012578,0.000000,0.000000,0.000000
highres_imu,53,1510647362669574656.000000,-0.000000,-0.000003,0.000000,0.000000,-0.001573,0.004942,0.000456,0.000000,0.000000,-0.631468,0.110814,0.105114,-0.202107,9999,0,0,0,-0.064365,0.032892,-0.012578,0.000000,0.000000,0.000000
attitude,53,1510647362699960064.000000,-0.000000,-0.000003,0.000000,0.000000,-0.001573,0.004942,0.000456,0.000000,0.000000,-0.631468,0.110774,0.105082,-0.202076,9999,0,0,0,-0.064365,0.032892,-0.012578,0.000000,0.000000,0.000000
local_position_ned,53,1510647362727326976.000000,-0.000000,-0.000003,0.000000,0.000000,-0.001573,0.004942,0.000456,0.000000,0.000000,-0.630158,0.110774,0.105082,-0.202076,9999,0,0,0,-0.058417,0.031621,-0.011489,0.000000,0.000000,0.000000
highres_imu,53,1510647362746035456.000000,-0.000000,-0.000003,0.000000,0.000000,0.001988,-0.002738,0.002710,0.000000,0.000000,-0.630158,0.110774,0.105082,-0.202076,9999,0,0,0,-0.058417,0.031621,-0.011489,0.000000,0.000000,0.000000
attitude,53,1510647362774264064.000000,-0.000000,-0.000003,0.000000,0.000000,0.001988,-0.002738,0.002710,0.000000,0.000000,-0.630158,0.110782,0.104792,-0.201975,9999,0,0,0,-0.058417,0.031621,-0.011489,0.000000,0.000000,0.000000
highres_imu,54,1510647362804873984.000000,-0.000000,-0.000003,0.000000,0.000000,-0.000820,-0.003191,0.004297,0.000000,0.000000,-0.630158,0.110782,0.104792,-0.201975,9999,0,0,0,-0.058417,0.031621,-0.011489,0.000000,0.000000,0.000000
attitude,54,1510647362845718272.000000,-0.000000,-0.000003,0.000000,0.000000,-0.000820,-0.003191,0.004297,0.000000,0.000000,-0.630158,0.110760,0.104762,-0.201874,9999,0,0,0,-0.058417,0.031621,-0.011489,0.000000,0.000000,0.000000
highres_imu,54,1510647362875003648.000000,-0.000000,-0.000003,0.000000,0.000000,0.002124,0.002923,0.001638,0.000000,0.000000,-0.630158,0.110760,0.104762,-0.201874,9999,0,0,0,-0.058417,0.031621,-0.011489,0.000000,0.000000,0.000000
attitude,54,1510647362914815488.000000,-0.000000,-0.000003,0.000000,0.000000,0.002124,0.002923,0.001638,0.000000,0.000000,-0.630158,0.110744,0.104902,-0.201846,9999,0,0,0,-0.058417,0.031621,-0.011489,0.000000,0.000000,0.000000
highres_imu,55,1510647362951904768.000000,-0.000000,-0.000003,0.000000,0.000000,0.001288,0.001771,0.000892,0.000000,0.000000,-0.630158,0.110744,0.104902,-0.201846,9999,0,0,0,-0.058417,0.031621,-0.011489,0.000000,0.000000,0.000000
highres_imu,55,1510647362969892352.000000,-0.000000,-0.000003,0.000000,0.000000,0.001901,0.000548,0.002439,0.000000,0.000000,-0.630158,0.110744,0.104902,-0.201846,9999,0,0,0,-0.058417,0.031621,-0.011489,0.000000,0.000000,0.000000
attitude,56,1510647363093303808.000000,-0.000000,-0.000003,0.000000,0.000000,0.001901,0.000548,0.002439,0.000000,0.000000,-0.630158,0.110740,0.104579,-0.201748,9999,0,0,0,-0.058417,0.031621,-0.011489,0.000000,0.000000,0.000000
highres_imu,56,1510647363161546496.000000,-0.000000,-0.000003,0.000000,0.000000,-0.000742,0.001395,0.001310,0.000000,0.000000,-0.630158,0.110740,0.104579,-0.201748,9999,0,0,0,-0.058417,0.031621,-0.011489,0.000000,0.000000,0.000000
attitude,56,1510647363172212224.000000,-0.000000,-0.000003,0.000000,0.000000,-0.000742,0.001395,0.001310,0.000000,0.000000,-0.630158,0.110738,0.104710,-0.201744,9999,0,0,0,-0.058417,0.031621,-0.011489,0.000000,0.000000,0.000000
highres_imu,57,1510647363227583488.000000,-0.000000,-0.000003,0.000000,0.000000,0.002544,-0.002635,0.001752,0.000000,0.000000,-0.630158,0.110738,0.104710,-0.201744,9999,0,0,0,-0.058417,0.031621,-0.011489,0.000000,0.000000,0.000000
attitude,57,1510647363238012416.000000,-0.000000,-0.000003,0.000000,0.000000,0.002544,-0.002635,0.001752,0.000000,0.000000,-0.630158,0.110722,0.104638,-0.201720,9999,0,0,0,-0.058417,0.031621,-0.011489,0.000000,0.000000,0.000000
highres_imu,57,1510647363265345536.000000,-0.000000,-0.000003,0.000000,0.000000,-0.000784,-0.003312,0.003240,0.000000,0.000000,-0.630158,0.110722,0.104638,-0.201720,9999,0,0,0,-0.058417,0.031621,-0.011489,0.000000,0.000000,0.000000
highres_imu,57,1510647363310573568.000000,-0.000000,-0.000003,0.000000,0.000000,0.001987,-0.001209,0.002964,0.000000,0.000000,-0.630158,0.110722,0.104638,-0.201720,9999,0,0,0,-0.058417,0.031621,-0.011489,0.000000,0.000000,0.000000
highres_imu,57,1510647363329233152.000000,-0.000000,-0.000003,0.000000,0.000000,0.001822,-0.000426,0.001374,0.000000,0.000000,-0.630158,0.110722,0.104638,-0.201720,9999,0,0,0,-0.058417,0.031621,-0.011489,0.000000,0.000000,0.000000
local_position_ned,58,1510647363367692800.000000,-0.000000,-0.000003,0.000000,0.000000,0.001822,-0.000426,0.001374,0.000000,0.000000,-0.632982,0.110722,0.104638,-0.201720,9999,0,0,0,-0.045880,0.023957,-0.011524,0.000000,0.000000,0.000000
highres_imu,58,1510647363384814592.000000,-0.000000,-0.000003,0.000000,0.000000,-0.001174,0.003447,0.001498,0.000000,0.000000,-0.632982,0.110722,0.104638,-0.201720,9999,0,0,0,-0.045880,0.023957,-0.011524,0.000000,0.000000,0.000000
highres_imu,58,1510647363412867840.000000,-0.000000,-0.000003,0.000000,0.000000,0.002369,0.002267,0.000545,0.000000,0.000000,-0.632982,0.110722,0.104638,-0.201720,9999,0,0,0,-0.045880,0.023957,-0.011524,0.000000,0.000000,0.000000
local_position_ned,58,1510647363443261184.000000,-0.000000,-0.000003,0.000000,0.000000,0.002369,0.002267,0.000545,0.000000,0.000000,-0.631521,0.110722,0.104638,-0.201720,9999,0,0,0,-0.040926,0.022371,-0.010356,0.000000,0.000000,0.000000
highres_imu,59,1510647363463800576.000000,-0.000000,-0.000003,0.000000,0.000000,-0.000492,-0.001665,-0.000155,0.000000,0.000000,-0.631521,0.110722,0.104638,-0.201720,9999,0,0,0,-0.040926,0.022371,-0.010356,0.000000,0.000000,0.000000
attitude,59,1510647363473294080.000000,-0.000000,-0.000003,0.000000,0.000000,-0.000492,-0.001665,-0.000155,0.000000,0.000000,-0.631521,0.110692,0.104463,-0.201641,9999,0,0,0,-0.040926,0.022371,-0.010356,0.000000,0.000000,0.000000
highres_imu,59,1510647363548175360.000000,-0.000000,-0.000003,0.000000,0.000000,-0.000667,-0.001054,0.002336,0.000000,0.000000,-0.631521,0.110692,0.104463,-0.201641,9999,0,0,0,-0.040926,0.022371,-0.010356,0.000000,0.000000,0.000000
attitude,59,1510647363557339904.000000,-0.000000,-0.000003,0.000000,0.000000,-0.000667,-0.001054,0.002336,0.000000,0.000000,-0.631521,0.110691,0.104256,-0.201624,9999,0,0,0,-0.040926,0.022371,-0.010356,0.000000,0.000000,0.000000
highres_imu,60,1510647363604917504.000000,-0.000000,-0.000003,0.000000,0.000000,0.002565,0.002745,0.001026,0.000000,0.000000,-0.631521,0.110691,0.104256,-0.201624,9999,0,0,0,-0.040926,0.022371,-0.010356,0.000000,0.000000,0.000000
attitude,60,1510647363614732288.000000,-0.000000,-0.000003,0.000000,0.000000,0.002565,0.002745,0.001026,0.000000,0.000000,-0.631521,0.110688,0.104260,-0.201606,9999,0,0,0,-0.040926,0.022371,-0.010356,0.000000,0.000000,0.000000
attitude,60,1510647363657882368.000000,-0.000000,-0.000003,0.000000,0.000000,0.002565,0.002745,0.001026,0.000000,0.000000,-0.631521,0.110662,0.104300,-0.201601,9999,0,0,0,-0.040926,0.022371,-0.010356,0.000000,0.000000,0.000000
highres_imu,60,1510647363695165952.000000,-0.000000,-0.000003,0.000000,0.000000,0.001919,-0.000305,0.001461,0.000000,0.000000,-0.631521,0.110662,0.104300,-0.201601,9999,0,0,0,-0.040926,0.022371,-0.010356,0.000000,0.000000,0.000000
highres_imu,61,1510647363751897856.000000,-0.000000,-0.000003,0.000000,0.000000,-0.000478,-0.002372,0.003034,0.000000,0.000000,-0.631521,0.110662,0.104300,-0.201601,9999,0,0,0,-0.040926,0.022371,-0.010356,0.000000,0.000000,0.000000
highres_imu,61,1510647363770992128.000000,-0.000000,-0.000003,0.000000,0.000000,-0.002129,-0.001880,0.001643,0.000000,0.000000,-0.631521,0.110662,0.104300,-0.201601,9999,0,0,0,-0.040926,0.022371,-0.010356,0.000000,0.000000,0.000000
attitude,61,1510647363804770048.000000,-0.000000,-0.000003,0.000000,0.000000,-0.002129,-0.001880,0.001643,0.000000,0.000000,-0.631521,0.110618,0.104028,-0.201545,9999,0,0,0,-0.040926,0.022371,-0.010356,0.000000,0.000000,0.000000
highres_imu,62,1510647363950760192.000000,-0.000000,-0.000003,0.000000,0.000000,0.003146,0.000706,-0.000869,0.000000,0.000000,-0.631521,0.110618,0.104028,-0.201545,9999,0,0,0,-0.040926,0.022371,-0.010356,0.000000,0.000000,0.000000
highres_imu,63,1510647363997715456.000000,-0.000000,-0.000003,0.000000,0.000000,-0.001243,0.000497,0.000004,0.000000,0.000000,-0.631521,0.110618,0.104028,-0.201545,9999,0,0,0,-0.040926,0.022371,-0.010356,0.000000,0.000000,0.000000
attitude,63,1510647364007110656.000000,-0.000000,-0.000003,0.000000,0.000000,-0.001243,0.000497,0.000004,0.000000,0.000000,-0.631521,0.110570,0.104073,-0.201498,9999,0,0,0,-0.040926,0.022371,-0.010356,0.000000,0.000000,0.000000
highres_imu,63,1510647364056591616.000000,-0.000000,-0.000003,0.000000,0.000000,-0.001159,-0.002179,0.000958,0.000000,0.000000,-0.631521,0.110570,0.104073,-0.201498,9999,0,0,0,-0.040926,0.022371,-0.010356,0.000000,0.000000,0.000000
attitude,63,1510647364066466304.000000,-0.000000,-0.000003,0.000000,0.000000,-0.001159,-0.002179,0.000958,0.000000,0.000000,-0.631521,0.110538,0.103978,-0.201457,9999,0,0,0,-0.040926,0.022371,-0.010356,0.000000,0.000000,0.000000
highres_imu,63,1510647364120373760.000000,-0.000000,-0.000003,0.000000,0.000000,0.001367,-0.000119,0.002180,0.000000,0.000000,-0.631521,0.110538,0.103978,-0.201457,9999,0,0,0,-0.040926,0.022371,-0.010356,0.000000,0.000000,0.000000
attitude,64,1510647364131250432.000000,-0.000000,-0.000003,0.000000,0.000000,0.001367,-0.000119,0.002180,0.000000,0.000000,-0.631521,0.110522,0.103843,-0.201383,9999,0,0,0,-0.040926,0.022371,-0.010356,0.000000,0.000000,0.000000
local_position_ned,64,1510647364204094720.000000,-0.000000,-0.000003,0.000000,0.000000,0.001367,-0.000119,0.002180,0.000000,0.000000,-0.649908,0.110522,0.103843,-0.201383,9999,0,0,0,-0.018965,0.011703,-0.015290,0.000000,0.000000,0.000000
highres_imu,64,1510647364223677696.000000,-0.000000,-0.000003,0.000000,0.000000,0.000959,-0.001329,0.000915,0.000000,0.000000,-0.649908,0.110522,0.103843,-0.201383,9999,0,0,0,-0.018965,0.011703,-0.015290,0.000000,0.000000,0.000000
highres_imu,64,1510647364241871360.000000,-0.000000,-0.000003,0.000000,0.000000,0.003723,-0.002131,0.001506,0.000000,0.000000,-0.649908,0.110522,0.103843,-0.201383,9999,0,0,0,-0.018965,0.011703,-0.015290,0.000000,0.000000,0.000000
highres_imu,65,1510647364282995712.000000,-0.000000,-0.000003,0.000000,0.000000,-0.001367,0.001652,0.000728,0.000000,0.000000,-0.649908,0.110522,0.103843,-0.201383,9999,0,0,0,-0.018965,0.011703,-0.015290,0.000000,0.000000,0.000000
local_position_ned,65,1510647364294373888.000000,-0.000000,-0.000003,0.000000,0.000000,-0.001367,0.001652,0.000728,0.000000,0.000000,-0.652305,0.110522,0.103843,-0.201383,9999,0,0,0,-0.018363,0.011080,-0.016278,0.000000,0.000000,0.000000
highres_imu,65,1510647364312972288.000000,-0.000000,-0.000003,0.000000,0.000000,0.000675,0.001555,-0.000065,0.000000,0.000000,-0.652305,0.110522,0.103843,-0.201383,9999,0,0,0,-0.018363,0.011080,-0.016278,0.000000,0.000000,0.000000
highres_imu,65,1510647364352914944.000000,-0.000000,-0.000003,0.000000,0.000000,0.000940,0.000691,0.001755,0.000000,0.000000,-0.652305,0.110522,0.103843,-0.201383,9999,0,0,0,-0.018363,0.011080,-0.016278,0.000000,0.000000,0.000000
highres_imu,65,1510647364370224384.000000,-0.000000,-0.000003,0.000000,0.000000,-0.000176,0.000497,0.000026,0.000000,0.000000,-0.652305,0.110522,0.103843,-0.201383,9999,0,0,0,-0.018363,0.011080,-0.016278,0.000000,0.000000,0.000000
local_position_ned,65,1510647364379068672.000000,-0.000000,-0.000003,0.000000,0.000000,-0.000176,0.000497,0.000026,0.000000,0.000000,-0.655800,0.110522,0.103843,-0.201383,9999,0,0,0,-0.015646,0.010214,-0.017908,0.000000,0.000000,0.000000
highres_imu,66,1510647364432721920.000000,-0.000000,-0.000003,0.000000,0.000000,0.001142,-0.001338,0.002748,0.000000,0.000000,-0.655800,0.110522,0.103843,-0.201383,9999,0,0,0,-0.015646,0.010214,-0.017908,0.000000,0.000000,0.000000
highres_imu,66,1510647364501895168.000000,-0.000000,-0.000003,0.000000,0.000000,0.002566,-0.000475,0.000964,0.000000,0.000000,-0.655800,0.110522,0.103843,-0.201383,9999,0,0,0,-0.015646,0.010214,-0.017908,0.000000,0.000000,0.000000
highres_imu,67,1510647364520228096.000000,-0.000000,-0.000003,0.000000,0.000000,0.000059,0.000253,0.002530,0.000000,0.000000,-0.655800,0.110522,0.103843,-0.201383,9999,0,0,0,-0.015646,0.010214,-0.017908,0.000000,0.000000,0.000000
attitude,67,1510647364530740480.000000,-0.000000,-0.000003,0.000000,0.000000,0.000059,0.000253,0.002530,0.000000,0.000000,-0.655800,0.110461,0.103588,-0.200955,9999,0,0,0,-0.015646,0.010214,-0.017908,0.000000,0.000000,0.000000
attitude,67,1510647364564610560.000000,-0.000000,-0.000003,0.000000,0.000000,0.000059,0.000253,0.002530,0.000000,0.000000,-0.655800,0.110433,0.103626,-0.200906,9999,0,0,0,-0.015646,0.010214,-0.017908,0.000000,0.000000,0.000000
highres_imu,67,1510647364592089088.000000,-0.000000,-0.000003,0.000000,0.000000,-0.000093,0.001664,0.000866,0.000000,0.000000,-0.655800,0.110433,0.103626,-0.200906,9999,0,0,0,-0.015646,0.010214,-0.017908,0.000000,0.000000,0.000000
attitude,67,1510647364630305024.000000,-0.000000,-0.000003,0.000000,0.000000,-0.000093,0.001664,0.000866,0.000000,0.000000,-0.655800,0.110438,0.103594,-0.200862,9999,0,0,0,-0.015646,0.010214,-0.017908,0.000000,0.000000,0.000000
highres_imu,68,1510647364663348224.000000,-0.000000,-0.000003,0.000000,0.000000,0.001455,-0.001327,0.002855,0.000000,0.000000,-0.655800,0.110438,0.103594,-0.200862,9999,0,0,0,-0.015646,0.010214,-0.017908,0.000000,0.000000,0.000000
local_position_ned,68,1510647364702068224.000000,-0.000000,-0.000003,0.000000,0.000000,0.001455,-0.001327,0.002855,0.000000,0.000000,-0.658807,0.110438,0.103594,-0.200862,9999,0,0,0,-0.006746,0.005227,-0.018714,0.000000,0.000000,0.000000
attitude,68,1510647364721701888.000000,-0.000000,-0.000003,0.000000,0.000000,0.001455,-0.001327,0.002855,0.000000,0.000000,-0.658807,0.110410,0.103423,-0.200813,9999,0,0,0,-0.006746,0.005227,-0.018714,0.000000,0.000000,0.000000
highres_imu,68,1510647364752660224.000000,-0.000000,-0.000003,0.000000,0.000000,0.003416,0.000501,0.001092,0.000000,0.000000,-0.658807,0.110410,0.103423,-0.200813,9999,0,0,0,-0.006746,0.005227,-0.018714,0.000000,0.000000,0.000000
highres_imu,69,1510647364788551424.000000,-0.000000,-0.000003,0.000000,0.000000,-0.000245,0.001975,0.002649,0.000000,0.000000,-0.658807,0.110410,0.103423,-0.200813,9999,0,0,0,-0.006746,0.005227,-0.018714,0.000000,0.000000,0.000000
highres_imu,69,1510647364807040512.000000,-0.000000,-0.000003,0.000000,0.000000,-0.001516,0.002891,0.002192,0.000000,0.000000,-0.658807,0.110410,0.103423,-0.200813,9999,0,0,0,-0.006746,0.005227,-0.018714,0.000000,0.000000,0.000000
attitude,69,1510647364821381888.000000,-0.000000,-0.000003,0.000000,0.000000,-0.001516,0.002891,0.002192,0.000000,0.000000,-0.658807,0.110427,0.103480,-0.200719,9999,0,0,0,-0.006746,0.005227,-0.018714,0.000000,0.000000,0.000000
local_position_ned,69,1510647364851129344.000000,-0.000000,-0.000003,0.000000,0.000000,-0.001516,0.002891,0.002192,0.000000,0.000000,-0.660300,0.110427,0.103480,-0.200719,9999,0,0,0,-0.004096,0.003639,-0.018518,0.000000,0.000000,0.000000
highres_imu,69,1510647364872414464.000000,-0.000000,-0.000003,0.000000,0.000000,0.001578,-0.002375,0.002122,0.000000,0.000000,-0.660300,0.110427,0.103480,-0.200719,9999,0,0,0,-0.004096,0.003639,-0.018518,0.000000,0.000000,0.000000
highres_imu,69,1510647364890967552.000000,-0.000000,-0.000003,0.000000,0.000000,-0.001923,-0.001755,0.001854,0.000000,0.000000,-0.660300,0.110427,0.103480,-0.200719,9999,0,0,0,-0.004096,0.003639,-0.018518,0.000000,0.000000,0.000000
local_position_ned,70,1510647364921368576.000000,-0.000000,-0.000003,0.000000,0.000000,-0.001923,-0.001755,0.001854,0.000000,0.000000,-0.662438,0.110427,0.103480,-0.200719,9999,0,0,0,-0.001806,0.003291,-0.019132,0.000000,0.000000,0.000000
highres_imu,70,1510647364941808896.000000,-0.000000,-0.000003,0.000000,0.000000,0.001239,-0.001315,0.002955,0.000000,0.000000,-0.662438,0.110427,0.103480,-0.200719,9999,0,0,0,-0.001806,0.003291,-0.019132,0.000000,0.000000,0.000000
attitude,70,1510647364951264256.000000,-0.000000,-0.000003,0.000000,0.000000,0.001239,-0.001315,0.002955,0.000000,0.000000,-0.662438,0.110419,0.103351,-0.200719,9999,0,0,0,-0.001806,0.003291,-0.019132,0.000000,0.000000,0.000000
highres_imu,70,1510647365034126848.000000,-0.000000,-0.000003,0.000000,0.000000,0.010820,-0.004785,-0.017722,0.000000,0.000000,-0.662438,0.110419,0.103351,-0.200719,9999,0,0,0,-0.001806,0.003291,-0.019132,0.000000,0.000000,0.000000
attitude,70,1510647365043243008.000000,-0.000000,-0.000003,0.000000,0.000000,0.010820,-0.004785,-0.017722,0.000000,0.000000,-0.662438,0.110774,0.103171,-0.201039,9999,0,0,0,-0.001806,0.003291,-0.019132,0.000000,0.000000,0.000000
highres_imu,71,1510647365093604608.000000,-0.000000,-0.000003,0.000000,0.000000,-0.018256,0.059310,-0.071775,0.000000,0.000000,-0.662438,0.110774,0.103171,-0.201039,9999,0,0,0,-0.001806,0.003291,-0.019132,0.000000,0.000000,0.000000
local_position_ned,71,1510647365102423296.000000,-0.000000,-0.000003,0.000000,0.000000,-0.018256,0.059310,-0.071775,0.000000,0.000000,-0.664575,0.110774,0.103171,-0.201039,9999,0,0,0,-0.029356,-0.003502,-0.020339,0.000000,0.000000,0.000000
highres_imu,71,1510647365120061440.000000,-0.000000,-0.000003,0.000000,0.000000,0.001783,0.036186,-0.067001,0.000000,0.000000,-0.664575,0.110774,0.103171,-0.201039,9999,0,0,0,-0.029356,-0.003502,-0.020339,0.000000,0.000000,0.000000
highres_imu,71,1510647365161659136.000000,-0.000000,-0.000003,0.000000,0.000000,0.010989,-0.005608,-0.032408,0.000000,0.000000,-0.664575,0.110774,0.103171,-0.201039,9999,0,0,0,-0.029356,-0.003502,-0.020339,0.000000,0.000000,0.000000
highres_imu,71,1510647365184707840.000000,-0.000000,-0.000003,0.000000,0.000000,0.015955,-0.011554,-0.027224,0.000000,0.000000,-0.664575,0.110774,0.103171,-0.201039,9999,0,0,0,-0.029356,-0.003502,-0.020339,0.000000,0.000000,0.000000
highres_imu,72,1510647365256138752.000000,-0.000000,-0.000003,0.000000,0.000000,-0.006590,-0.012505,0.005106,0.000000,0.000000,-0.664575,0.110774,0.103171,-0.201039,9999,0,0,0,-0.029356,-0.003502,-0.020339,0.000000,0.000000,0.000000
highres_imu,72,1510647365277544448.000000,-0.000000,-0.000003,0.000000,0.000000,0.000089,-0.017180,0.010314,0.000000,0.000000,-0.664575,0.110774,0.103171,-0.201039,9999,0,0,0,-0.029356,-0.003502,-0.020339,0.000000,0.000000,0.000000
local_position_ned,72,1510647365307671808.000000,-0.000000,-0.000003,0.000000,0.000000,0.000089,-0.017180,0.010314,0.000000,0.000000,-0.666640,0.110774,0.103171,-0.201039,9999,0,0,0,0.003451,-0.002524,-0.020190,0.000000,0.000000,0.000000
highres_imu,72,1510647365326959360.000000,-0.000000,-0.000003,0.000000,0.000000,-0.006869,0.001567,-0.001425,0.000000,0.000000,-0.666640,0.110774,0.103171,-0.201039,9999,0,0,0,0.003451,-0.002524,-0.020190,0.000000,0.000000,0.000000
highres_imu,73,1510647365414631680.000000,-0.000000,-0.000003,0.000000,0.000000,0.005954,0.029443,0.018203,0.000000,0.000000,-0.666640,0.110774,0.103171,-0.201039,9999,0,0,0,0.003451,-0.002524,-0.020190,0.000000,0.000000,0.000000
attitude,73,1510647365424471040.000000,-0.000000,-0.000003,0.000000,0.000000,0.005954,0.029443,0.018203,0.000000,0.000000,-0.666640,0.109171,0.108009,-0.206698,9999,0,0,0,0.003451,-0.002524,-0.020190,0.000000,0.000000,0.000000
highres_imu,74,1510647365497149184.000000,-0.000000,-0.000003,0.000000,0.000000,-0.011944,0.007749,0.043475,0.000000,0.000000,-0.666640,0.109171,0.108009,-0.206698,9999,0,0,0,0.003451,-0.002524,-0.020190,0.000000,0.000000,0.000000
attitude,74,1510647365507471872.000000,-0.000000,-0.000003,0.000000,0.000000,-0.011944,0.007749,0.043475,0.000000,0.000000,-0.666640,0.109092,0.109372,-0.204936,9999,0,0,0,0.003451,-0.002524,-0.020190,0.000000,0.000000,0.000000
local_position_ned,74,1510647365552033536.000000,-0.000000,-0.000003,0.000000,0.000000,-0.011944,0.007749,0.043475,0.000000,0.000000,-0.672226,0.109092,0.109372,-0.204936,9999,0,0,0,0.017926,-0.002621,-0.018028,0.000000,0.000000,0.000000
highres_imu,74,1510647365570650368.000000,-0.000000,-0.000003,0.000000,0.000000,-0.002319,-0.009221,0.058309,0.000000,0.000000,-0.672226,0.109092,0.109372,-0.204936,9999,0,0,0,0.017926,-0.002621,-0.018028,0.000000,0.000000,0.000000
highres_imu,74,1510647365593090048.000000,-0.000000,-0.000003,0.000000,0.000000,-0.003465,-0.007614,0.057346,0.000000,0.000000,-0.672226,0.109092,0.109372,-0.204936,9999,0,0,0,0.017926,-0.002621,-0.018028,0.000000,0.000000,0.000000
highres_imu,75,1510647365633923072.000000,-0.000000,-0.000003,0.000000,0.000000,-0.008036,-0.005837,0.065275,0.000000,0.000000,-0.672226,0.109092,0.109372,-0.204936,9999,0,0,0,0.017926,-0.002621,-0.018028,0.000000,0.000000,0.000000
