Pose,FrameNo,timestamp(ns),timeboot(ms),xgyro,xyyro,zgyro,xacc,yacc,zacc,x,y,z,roll,pitch,yaw,hdop,lat,lon,alt,vx,vy,vz,gpsxacc,gpsyacc,gpszacc
attitude,0,1510565741488005632.000000,-0.000000,-0.000003,0.000000,0.000000,-0.000002,0.003976,0.000920,0.000000,0.000000,-2.280695,-0.000781,0.007526,0.035599,0,0,0,0,-0.008668,0.003664,0.025097,0.000000,0.000000,0.000000
highres_imu,0,1510565741518650368.000000,-0.000000,-0.000003,0.000000,0.000000,0.002871,0.004186,0.000479,0.000000,0.000000,-2.280695,-0.000781,0.007526,0.035599,0,0,0,0,-0.008668,0.003664,0.025097,0.000000,0.000000,0.000000
attitude,1,1510565741557712640.000000,-0.000000,-0.000003,0.000000,0.000000,0.002871,0.004186,0.000479,0.000000,0.000000,-2.280695,-0.000809,0.007509,0.035618,0,0,0,0,-0.008668,0.003664,0.025097,0.000000,0.000000,0.000000
highres_imu,1,1510565741589030144.000000,-0.000000,-0.000003,0.000000,0.000000,0.007258,0.004186,0.000479,0.000000,0.000000,-2.280695,-0.000809,0.007509,0.035618,0,0,0,0,-0.008668,0.003664,0.025097,0.000000,0.000000,0.000000
attitude,1,1510565741629667584.000000,-0.000000,-0.000003,0.000000,0.000000,0.007258,0.004186,0.000479,0.000000,0.000000,-2.280695,-0.000803,0.007504,0.035647,0,0,0,0,-0.008668,0.003664,0.025097,0.000000,0.000000,0.000000
highres_imu,2,1510565741670379776.000000,-0.000000,-0.000003,0.000000,0.000000,0.008220,0.005357,-0.001334,0.000000,0.000000,-2.280695,-0.000803,0.007504,0.035647,0,0,0,0,-0.008668,0.003664,0.025097,0.000000,0.000000,0.000000
attitude,2,1510565741711112704.000000,-0.000000,-0.000003,0.000000,0.000000,0.008220,0.005357,-0.001334,0.000000,0.000000,-2.280695,-0.000770,0.007498,0.035650,0,0,0,0,-0.008668,0.003664,0.025097,0.000000,0.000000,0.000000
local_position_ned,2,1510565741731858688.000000,-0.000000,-0.000003,0.000000,0.000000,0.008220,0.005357,-0.001334,0.000000,0.000000,-2.282849,-0.000770,0.007498,0.035650,0,0,0,0,-0.008086,0.003926,0.022681,0.000000,0.000000,0.000000
highres_imu,3,1510565741751214848.000000,-0.000000,-0.000003,0.000000,0.000000,0.002187,0.005685,0.001126,0.000000,0.000000,-2.282849,-0.000770,0.007498,0.035650,0,0,0,0,-0.008086,0.003926,0.022681,0.000000,0.000000,0.000000
highres_imu,3,1510565741791290624.000000,-0.000000,-0.000003,0.000000,0.000000,0.003953,0.003973,0.000374,0.000000,0.000000,-2.282849,-0.000770,0.007498,0.035650,0,0,0,0,-0.008086,0.003926,0.022681,0.000000,0.000000,0.000000
attitude,3,1510565741801532160.000000,-0.000000,-0.000003,0.000000,0.000000,0.003953,0.003973,0.000374,0.000000,0.000000,-2.282849,-0.000786,0.007488,0.035655,0,0,0,0,-0.008086,0.003926,0.022681,0.000000,0.000000,0.000000
local_position_ned,4,1510565741846130944.000000,-0.000000,-0.000003,0.000000,0.000000,0.003953,0.003973,0.000374,0.000000,0.000000,-2.279129,-0.000786,0.007488,0.035655,0,0,0,0,-0.007664,0.003761,0.023499,0.000000,0.000000,0.000000
highres_imu,4,1510565741864876544.000000,-0.000000,-0.000003,0.000000,0.000000,0.001304,0.004929,0.001435,0.000000,0.000000,-2.279129,-0.000786,0.007488,0.035655,0,0,0,0,-0.007664,0.003761,0.023499,0.000000,0.000000,0.000000
highres_imu,4,1510565741883974912.000000,-0.000000,-0.000003,0.000000,0.000000,0.007999,0.005142,-0.001331,0.000000,0.000000,-2.279129,-0.000786,0.007488,0.035655,0,0,0,0,-0.007664,0.003761,0.023499,0.000000,0.000000,0.000000
highres_imu,4,1510565741940805120.000000,-0.000000,-0.000003,0.000000,0.000000,0.008316,0.003755,0.000585,0.000000,0.000000,-2.279129,-0.000786,0.007488,0.035655,0,0,0,0,-0.007664,0.003761,0.023499,0.000000,0.000000,0.000000
local_position_ned,5,1510565741950866944.000000,-0.000000,-0.000003,0.000000,0.000000,0.008316,0.003755,0.000585,0.000000,0.000000,-2.278605,-0.000786,0.007488,0.035655,0,0,0,0,-0.006897,0.003651,0.024779,0.000000,0.000000,0.000000
highres_imu,5,1510565741969013504.000000,-0.000000,-0.000003,0.000000,0.000000,0.003213,0.004293,0.000479,0.000000,0.000000,-2.278605,-0.000786,0.007488,0.035655,0,0,0,0,-0.006897,0.003651,0.024779,0.000000,0.000000,0.000000
highres_imu,5,1510565742031134976.000000,-0.000000,-0.000003,0.000000,0.000000,0.002599,0.004186,0.001220,0.000000,0.000000,-2.278605,-0.000786,0.007488,0.035655,0,0,0,0,-0.006897,0.003651,0.024779,0.000000,0.000000,0.000000
attitude,6,1510565742058983680.000000,-0.000000,-0.000003,0.000000,0.000000,0.002599,0.004186,0.001220,0.000000,0.000000,-2.278605,-0.000764,0.007447,0.035567,0,0,0,0,-0.006897,0.003651,0.024779,0.000000,0.000000,0.000000
highres_imu,6,1510565742088472576.000000,-0.000000,-0.000003,0.000000,0.000000,0.004367,0.005250,0.001014,0.000000,0.000000,-2.278605,-0.000764,0.007447,0.035567,0,0,0,0,-0.006897,0.003651,0.024779,0.000000,0.000000,0.000000
highres_imu,6,1510565742107995136.000000,-0.000000,-0.000003,0.000000,0.000000,0.000979,0.006102,0.001543,0.000000,0.000000,-2.278605,-0.000764,0.007447,0.035567,0,0,0,0,-0.006897,0.003651,0.024779,0.000000,0.000000,0.000000
highres_imu,7,1510565742148237568.000000,-0.000000,-0.000003,0.000000,0.000000,0.003773,0.003979,-0.000378,0.000000,0.000000,-2.278605,-0.000764,0.007447,0.035567,0,0,0,0,-0.006897,0.003651,0.024779,0.000000,0.000000,0.000000
highres_imu,7,1510565742167260672.000000,-0.000000,-0.000003,0.000000,0.000000,0.001404,0.003654,0.000266,0.000000,0.000000,-2.278605,-0.000764,0.007447,0.035567,0,0,0,0,-0.006897,0.003651,0.024779,0.000000,0.000000,0.000000
local_position_ned,7,1510565742187013888.000000,-0.000000,-0.000003,0.000000,0.000000,0.001404,0.003654,0.000266,0.000000,0.000000,-2.282173,-0.000764,0.007447,0.035567,0,0,0,0,-0.007148,0.004063,0.022754,0.000000,0.000000,0.000000
attitude,7,1510565742218908928.000000,-0.000000,-0.000003,0.000000,0.000000,0.001404,0.003654,0.000266,0.000000,0.000000,-2.282173,-0.000739,0.007441,0.035457,0,0,0,0,-0.007148,0.004063,0.022754,0.000000,0.000000,0.000000
highres_imu,8,1510565742248308992.000000,-0.000000,-0.000003,0.000000,0.000000,0.002138,0.003871,0.000479,0.000000,0.000000,-2.282173,-0.000739,0.007441,0.035457,0,0,0,0,-0.007148,0.004063,0.022754,0.000000,0.000000,0.000000
highres_imu,8,1510565742318500608.000000,-0.000000,-0.000003,0.000000,0.000000,0.000880,0.005250,0.001122,0.000000,0.000000,-2.282173,-0.000739,0.007441,0.035457,0,0,0,0,-0.007148,0.004063,0.022754,0.000000,0.000000,0.000000
highres_imu,9,1510565742365362688.000000,-0.000000,-0.000003,0.000000,0.000000,0.007260,0.004822,-0.000480,0.000000,0.000000,-2.282173,-0.000739,0.007441,0.035457,0,0,0,0,-0.007148,0.004063,0.022754,0.000000,0.000000,0.000000
attitude,9,1510565742376303616.000000,-0.000000,-0.000003,0.000000,0.000000,0.007260,0.004822,-0.000480,0.000000,0.000000,-2.282173,-0.000733,0.007443,0.035293,0,0,0,0,-0.007148,0.004063,0.022754,0.000000,0.000000,0.000000
highres_imu,9,1510565742445710848.000000,-0.000000,-0.000003,0.000000,0.000000,0.001404,0.004186,0.001010,0.000000,0.000000,-2.282173,-0.000733,0.007443,0.035293,0,0,0,0,-0.007148,0.004063,0.022754,0.000000,0.000000,0.000000
attitude,10,1510565742456188160.000000,-0.000000,-0.000003,0.000000,0.000000,0.001404,0.004186,0.001010,0.000000,0.000000,-2.282173,-0.000744,0.007426,0.035243,0,0,0,0,-0.007148,0.004063,0.022754,0.000000,0.000000,0.000000
attitude,10,1510565742504908288.000000,-0.000000,-0.000003,0.000000,0.000000,0.001404,0.004186,0.001010,0.000000,0.000000,-2.282173,-0.000747,0.007413,0.035173,0,0,0,0,-0.007148,0.004063,0.022754,0.000000,0.000000,0.000000
local_position_ned,10,1510565742514244096.000000,-0.000000,-0.000003,0.000000,0.000000,0.001404,0.004186,0.001010,0.000000,0.000000,-2.297154,-0.000747,0.007413,0.035173,0,0,0,0,-0.006749,0.003501,0.018264,0.000000,0.000000,0.000000
highres_imu,10,1510565742534141696.000000,-0.000000,-0.000003,0.000000,0.000000,0.000804,0.004365,0.001543,0.000000,0.000000,-2.297154,-0.000747,0.007413,0.035173,0,0,0,0,-0.006749,0.003501,0.018264,0.000000,0.000000,0.000000
highres_imu,12,1510565742651687936.000000,-0.000000,-0.000003,0.000000,0.000000,0.001999,0.003549,0.001543,0.000000,0.000000,-2.297154,-0.000747,0.007413,0.035173,0,0,0,0,-0.006749,0.003501,0.018264,0.000000,0.000000,0.000000
attitude,12,1510565742661616896.000000,-0.000000,-0.000003,0.000000,0.000000,0.001999,0.003549,0.001543,0.000000,0.000000,-2.297154,-0.000808,0.007385,0.035095,0,0,0,0,-0.006749,0.003501,0.018264,0.000000,0.000000,0.000000
highres_imu,12,1510565742729473536.000000,-0.000000,-0.000003,0.000000,0.000000,0.007896,0.003974,-0.000479,0.000000,0.000000,-2.297154,-0.000808,0.007385,0.035095,0,0,0,0,-0.006749,0.003501,0.018264,0.000000,0.000000,0.000000
highres_imu,14,1510565742853869056.000000,-0.000000,-0.000003,0.000000,0.000000,0.000971,0.003327,0.000479,0.000000,0.000000,-2.297154,-0.000808,0.007385,0.035095,0,0,0,0,-0.006749,0.003501,0.018264,0.000000,0.000000,0.000000
highres_imu,14,1510565742899217408.000000,-0.000000,-0.000003,0.000000,0.000000,0.005663,0.005038,-0.001012,0.000000,0.000000,-2.297154,-0.000808,0.007385,0.035095,0,0,0,0,-0.006749,0.003501,0.018264,0.000000,0.000000,0.000000
highres_imu,15,1510565742977348608.000000,-0.000000,-0.000003,0.000000,0.000000,0.005448,0.004293,-0.000373,0.000000,0.000000,-2.297154,-0.000808,0.007385,0.035095,0,0,0,0,-0.006749,0.003501,0.018264,0.000000,0.000000,0.000000
highres_imu,15,1510565742996131328.000000,-0.000000,-0.000003,0.000000,0.000000,0.006735,0.004186,-0.000374,0.000000,0.000000,-2.297154,-0.000808,0.007385,0.035095,0,0,0,0,-0.006749,0.003501,0.018264,0.000000,0.000000,0.000000
local_position_ned,15,1510565743028834816.000000,-0.000000,-0.000003,0.000000,0.000000,0.006735,0.004186,-0.000374,0.000000,0.000000,-2.307636,-0.000808,0.007385,0.035095,0,0,0,0,-0.005189,0.005599,0.017055,0.000000,0.000000,0.000000
highres_imu,15,1510565743048178432.000000,-0.000000,-0.000003,0.000000,0.000000,0.008213,0.003656,-0.000585,0.000000,0.000000,-2.307636,-0.000808,0.007385,0.035095,0,0,0,0,-0.005189,0.005599,0.017055,0.000000,0.000000,0.000000
highres_imu,16,1510565743067695872.000000,-0.000000,-0.000003,0.000000,0.000000,0.000004,0.004399,0.000059,0.000000,0.000000,-2.307636,-0.000808,0.007385,0.035095,0,0,0,0,-0.005189,0.005599,0.017055,0.000000,0.000000,0.000000
attitude,16,1510565743077336320.000000,-0.000000,-0.000003,0.000000,0.000000,0.000004,0.004399,0.000059,0.000000,0.000000,-2.307636,-0.000787,0.007312,0.035028,0,0,0,0,-0.005189,0.005599,0.017055,0.000000,0.000000,0.000000
highres_imu,16,1510565743136990720.000000,-0.000000,-0.000003,0.000000,0.000000,0.005231,0.003122,0.000479,0.000000,0.000000,-2.307636,-0.000787,0.007312,0.035028,0,0,0,0,-0.005189,0.005599,0.017055,0.000000,0.000000,0.000000
highres_imu,17,1510565743177037824.000000,-0.000000,-0.000003,0.000000,0.000000,0.007457,0.004511,0.001345,0.000000,0.000000,-2.307636,-0.000787,0.007312,0.035028,0,0,0,0,-0.005189,0.005599,0.017055,0.000000,0.000000,0.000000
attitude,17,1510565743187298304.000000,-0.000000,-0.000003,0.000000,0.000000,0.007457,0.004511,0.001345,0.000000,0.000000,-2.307636,-0.000799,0.007271,0.035201,0,0,0,0,-0.005189,0.005599,0.017055,0.000000,0.000000,0.000000
highres_imu,17,1510565743227660288.000000,-0.000000,-0.000003,0.000000,0.000000,0.000659,0.003335,0.000908,0.000000,0.000000,-2.307636,-0.000799,0.007271,0.035201,0,0,0,0,-0.005189,0.005599,0.017055,0.000000,0.000000,0.000000
highres_imu,18,1510565743271577856.000000,-0.000000,-0.000003,0.000000,0.000000,0.001724,0.003867,0.001543,0.000000,0.000000,-2.307636,-0.000799,0.007271,0.035201,0,0,0,0,-0.005189,0.005599,0.017055,0.000000,0.000000,0.000000
attitude,18,1510565743330519040.000000,-0.000000,-0.000003,0.000000,0.000000,0.001724,0.003867,0.001543,0.000000,0.000000,-2.307636,-0.000813,0.007231,0.035449,0,0,0,0,-0.005189,0.005599,0.017055,0.000000,0.000000,0.000000
highres_imu,19,1510565743360688128.000000,-0.000000,-0.000003,0.000000,0.000000,0.005431,0.003231,0.000806,0.000000,0.000000,-2.307636,-0.000813,0.007231,0.035449,0,0,0,0,-0.005189,0.005599,0.017055,0.000000,0.000000,0.000000
local_position_ned,19,1510565743370566912.000000,-0.000000,-0.000003,0.000000,0.000000,0.005431,0.003231,0.000806,0.000000,0.000000,-2.310138,-0.000813,0.007231,0.035449,0,0,0,0,-0.005029,0.005824,0.018788,0.000000,0.000000,0.000000
highres_imu,19,1510565743410566400.000000,-0.000000,-0.000003,0.000000,0.000000,0.006110,0.004293,0.000266,0.000000,0.000000,-2.310138,-0.000813,0.007231,0.035449,0,0,0,0,-0.005029,0.005824,0.018788,0.000000,0.000000,0.000000
local_position_ned,19,1510565743421474048.000000,-0.000000,-0.000003,0.000000,0.000000,0.006110,0.004293,0.000266,0.000000,0.000000,-2.311906,-0.000813,0.007231,0.035449,0,0,0,0,-0.004911,0.005570,0.017636,0.000000,0.000000,0.000000
highres_imu,19,1510565743440780544.000000,-0.000000,-0.000003,0.000000,0.000000,0.005329,0.004186,0.001753,0.000000,0.000000,-2.311906,-0.000813,0.007231,0.035449,0,0,0,0,-0.004911,0.005570,0.017636,0.000000,0.000000,0.000000
highres_imu,20,1510565743518130688.000000,-0.000000,-0.000003,0.000000,0.000000,0.006406,0.004186,0.000798,0.000000,0.000000,-2.311906,-0.000813,0.007231,0.035449,0,0,0,0,-0.004911,0.005570,0.017636,0.000000,0.000000,0.000000
highres_imu,20,1510565743549859328.000000,-0.000000,-0.000003,0.000000,0.000000,0.007265,0.004404,0.000479,0.000000,0.000000,-2.311906,-0.000813,0.007231,0.035449,0,0,0,0,-0.004911,0.005570,0.017636,0.000000,0.000000,0.000000
highres_imu,21,1510565743569028096.000000,-0.000000,-0.000003,0.000000,0.000000,0.004813,0.004186,0.000479,0.000000,0.000000,-2.311906,-0.000813,0.007231,0.035449,0,0,0,0,-0.004911,0.005570,0.017636,0.000000,0.000000,0.000000
attitude,21,1510565743578919168.000000,-0.000000,-0.000003,0.000000,0.000000,0.004813,0.004186,0.000479,0.000000,0.000000,-2.311906,-0.000802,0.007209,0.035917,0,0,0,0,-0.004911,0.005570,0.017636,0.000000,0.000000,0.000000
highres_imu,21,1510565743631141632.000000,-0.000000,-0.000003,0.000000,0.000000,0.008390,0.004607,-0.000480,0.000000,0.000000,-2.311906,-0.000802,0.007209,0.035917,0,0,0,0,-0.004911,0.005570,0.017636,0.000000,0.000000,0.000000
highres_imu,21,1510565743650549504.000000,-0.000000,-0.000003,0.000000,0.000000,0.003508,0.004501,0.001436,0.000000,0.000000,-2.311906,-0.000802,0.007209,0.035917,0,0,0,0,-0.004911,0.005570,0.017636,0.000000,0.000000,0.000000
attitude,22,1510565743660584448.000000,-0.000000,-0.000003,0.000000,0.000000,0.003508,0.004501,0.001436,0.000000,0.000000,-2.311906,-0.000807,0.007167,0.036019,0,0,0,0,-0.004911,0.005570,0.017636,0.000000,0.000000,0.000000
attitude,22,1510565743692070400.000000,-0.000000,-0.000003,0.000000,0.000000,0.003508,0.004501,0.001436,0.000000,0.000000,-2.311906,-0.000793,0.007170,0.036120,0,0,0,0,-0.004911,0.005570,0.017636,0.000000,0.000000,0.000000
highres_imu,22,1510565743722694656.000000,-0.000000,-0.000003,0.000000,0.000000,0.002789,0.004186,0.000798,0.000000,0.000000,-2.311906,-0.000793,0.007170,0.036120,0,0,0,0,-0.004911,0.005570,0.017636,0.000000,0.000000,0.000000
attitude,23,1510565743771926016.000000,-0.000000,-0.000003,0.000000,0.000000,0.002789,0.004186,0.000798,0.000000,0.000000,-2.311906,-0.000785,0.007168,0.036171,0,0,0,0,-0.004911,0.005570,0.017636,0.000000,0.000000,0.000000
highres_imu,23,1510565743801987072.000000,-0.000000,-0.000003,0.000000,0.000000,0.003186,0.004396,0.000807,0.000000,0.000000,-2.311906,-0.000785,0.007168,0.036171,0,0,0,0,-0.004911,0.005570,0.017636,0.000000,0.000000,0.000000
attitude,23,1510565743842033408.000000,-0.000000,-0.000003,0.000000,0.000000,0.003186,0.004396,0.000807,0.000000,0.000000,-2.311906,-0.000797,0.007146,0.036187,0,0,0,0,-0.004911,0.005570,0.017636,0.000000,0.000000,0.000000
attitude,24,1510565743910242816.000000,-0.000000,-0.000003,0.000000,0.000000,0.003186,0.004396,0.000807,0.000000,0.000000,-2.311906,-0.000828,0.007134,0.036194,0,0,0,0,-0.004911,0.005570,0.017636,0.000000,0.000000,0.000000
highres_imu,24,1510565743940210432.000000,-0.000000,-0.000003,0.000000,0.000000,0.000764,0.004293,0.001437,0.000000,0.000000,-2.311906,-0.000828,0.007134,0.036194,0,0,0,0,-0.004911,0.005570,0.017636,0.000000,0.000000,0.000000
local_position_ned,24,1510565743949955584.000000,-0.000000,-0.000003,0.000000,0.000000,0.000764,0.004293,0.001437,0.000000,0.000000,-2.317944,-0.000828,0.007134,0.036194,0,0,0,0,-0.002984,0.004409,0.017362,0.000000,0.000000,0.000000
highres_imu,25,1510565743989231104.000000,-0.000000,-0.000003,0.000000,0.000000,0.006939,0.004931,-0.000585,0.000000,0.000000,-2.317944,-0.000828,0.007134,0.036194,0,0,0,0,-0.002984,0.004409,0.017362,0.000000,0.000000,0.000000
highres_imu,26,1510565744113310464.000000,-0.000000,-0.000003,0.000000,0.000000,0.002257,0.004825,-0.000054,0.000000,0.000000,-2.317944,-0.000828,0.007134,0.036194,0,0,0,0,-0.002984,0.004409,0.017362,0.000000,0.000000,0.000000
highres_imu,27,1510565744159922432.000000,-0.000000,-0.000003,0.000000,0.000000,0.002258,0.004081,0.000479,0.000000,0.000000,-2.317944,-0.000828,0.007134,0.036194,0,0,0,0,-0.002984,0.004409,0.017362,0.000000,0.000000,0.000000
highres_imu,27,1510565744178288896.000000,-0.000000,-0.000003,0.000000,0.000000,0.007790,0.004186,-0.000479,0.000000,0.000000,-2.317944,-0.000828,0.007134,0.036194,0,0,0,0,-0.002984,0.004409,0.017362,0.000000,0.000000,0.000000
attitude,27,1510565744188102144.000000,-0.000000,-0.000003,0.000000,0.000000,0.007790,0.004186,-0.000479,0.000000,0.000000,-2.317944,-0.000869,0.007068,0.036046,0,0,0,0,-0.002984,0.004409,0.017362,0.000000,0.000000,0.000000
highres_imu,27,1510565744228503808.000000,-0.000000,-0.000003,0.000000,0.000000,0.003977,0.004297,0.000049,0.000000,0.000000,-2.317944,-0.000869,0.007068,0.036046,0,0,0,0,-0.002984,0.004409,0.017362,0.000000,0.000000,0.000000
highres_imu,27,1510565744247273984.000000,-0.000000,-0.000003,0.000000,0.000000,0.000957,0.005039,-0.000791,0.000000,0.000000,-2.317944,-0.000869,0.007068,0.036046,0,0,0,0,-0.002984,0.004409,0.017362,0.000000,0.000000,0.000000
attitude,28,1510565744267299584.000000,-0.000000,-0.000003,0.000000,0.000000,0.000957,0.005039,-0.000791,0.000000,0.000000,-2.317944,-0.000902,0.007065,0.035957,0,0,0,0,-0.002984,0.004409,0.017362,0.000000,0.000000,0.000000
highres_imu,28,1510565744309218560.000000,-0.000000,-0.000003,0.000000,0.000000,0.008424,0.005250,0.000373,0.000000,0.000000,-2.317944,-0.000902,0.007065,0.035957,0,0,0,0,-0.002984,0.004409,0.017362,0.000000,0.000000,0.000000
highres_imu,28,1510565744328146688.000000,-0.000000,-0.000003,0.000000,0.000000,0.005950,0.005678,0.000595,0.000000,0.000000,-2.317944,-0.000902,0.007065,0.035957,0,0,0,0,-0.002984,0.004409,0.017362,0.000000,0.000000,0.000000
attitude,28,1510565744338049536.000000,-0.000000,-0.000003,0.000000,0.000000,0.005950,0.005678,0.000595,0.000000,0.000000,-2.317944,-0.000851,0.007072,0.035833,0,0,0,0,-0.002984,0.004409,0.017362,0.000000,0.000000,0.000000
attitude,29,1510565744365851136.000000,-0.000000,-0.000003,0.000000,0.000000,0.005950,0.005678,0.000595,0.000000,0.000000,-2.317944,-0.000851,0.007079,0.035760,0,0,0,0,-0.002984,0.004409,0.017362,0.000000,0.000000,0.000000
highres_imu,29,1510565744396134656.000000,-0.000000,-0.000003,0.000000,0.000000,-0.000643,0.003122,0.001011,0.000000,0.000000,-2.317944,-0.000851,0.007079,0.035760,0,0,0,0,-0.002984,0.004409,0.017362,0.000000,0.000000,0.000000
highres_imu,29,1510565744433782016.000000,-0.000000,-0.000003,0.000000,0.000000,0.001813,0.005250,0.001334,0.000000,0.000000,-2.317944,-0.000851,0.007079,0.035760,0,0,0,0,-0.002984,0.004409,0.017362,0.000000,0.000000,0.000000
attitude,29,1510565744443496192.000000,-0.000000,-0.000003,0.000000,0.000000,0.001813,0.005250,0.001334,0.000000,0.000000,-2.317944,-0.000862,0.007058,0.035668,0,0,0,0,-0.002984,0.004409,0.017362,0.000000,0.000000,0.000000
highres_imu,29,1510565744473732864.000000,-0.000000,-0.000003,0.000000,0.000000,0.008315,0.005250,0.001018,0.000000,0.000000,-2.317944,-0.000862,0.007058,0.035668,0,0,0,0,-0.002984,0.004409,0.017362,0.000000,0.000000,0.000000
attitude,30,1510565744514314496.000000,-0.000000,-0.000003,0.000000,0.000000,0.008315,0.005250,0.001018,0.000000,0.000000,-2.317944,-0.000862,0.007044,0.035581,0,0,0,0,-0.002984,0.004409,0.017362,0.000000,0.000000,0.000000
attitude,30,1510565744583589120.000000,-0.000000,-0.000003,0.000000,0.000000,0.008315,0.005250,0.001018,0.000000,0.000000,-2.317944,-0.000866,0.007040,0.035485,0,0,0,0,-0.002984,0.004409,0.017362,0.000000,0.000000,0.000000
highres_imu,30,1510565744612577024.000000,-0.000000,-0.000003,0.000000,0.000000,0.002918,0.005996,0.000797,0.000000,0.000000,-2.317944,-0.000866,0.007040,0.035485,0,0,0,0,-0.002984,0.004409,0.017362,0.000000,0.000000,0.000000
highres_imu,31,1510565744630918400.000000,-0.000000,-0.000003,0.000000,0.000000,0.000870,0.004293,0.001437,0.000000,0.000000,-2.317944,-0.000866,0.007040,0.035485,0,0,0,0,-0.002984,0.004409,0.017362,0.000000,0.000000,0.000000
local_position_ned,31,1510565744666622976.000000,-0.000000,-0.000003,0.000000,0.000000,0.000870,0.004293,0.001437,0.000000,0.000000,-2.328223,-0.000866,0.007040,0.035485,0,0,0,0,-0.001675,0.004660,0.016727,0.000000,0.000000,0.000000
attitude,31,1510565744679614976.000000,-0.000000,-0.000003,0.000000,0.000000,0.000870,0.004293,0.001437,0.000000,0.000000,-2.328223,-0.000908,0.006999,0.035392,0,0,0,0,-0.001675,0.004660,0.016727,0.000000,0.000000,0.000000
highres_imu,31,1510565744707986176.000000,-0.000000,-0.000003,0.000000,0.000000,-0.000302,0.004085,0.000479,0.000000,0.000000,-2.328223,-0.000908,0.006999,0.035392,0,0,0,0,-0.001675,0.004660,0.016727,0.000000,0.000000,0.000000
highres_imu,31,1510565744750917120.000000,-0.000000,-0.000003,0.000000,0.000000,0.000671,0.004712,0.000160,0.000000,0.000000,-2.328223,-0.000908,0.006999,0.035392,0,0,0,0,-0.001675,0.004660,0.016727,0.000000,0.000000,0.000000
highres_imu,32,1510565744824120832.000000,-0.000000,-0.000003,0.000000,0.000000,0.001073,0.003441,0.000377,0.000000,0.000000,-2.328223,-0.000908,0.006999,0.035392,0,0,0,0,-0.001675,0.004660,0.016727,0.000000,0.000000,0.000000
attitude,32,1510565744834075392.000000,-0.000000,-0.000003,0.000000,0.000000,0.001073,0.003441,0.000377,0.000000,0.000000,-2.328223,-0.000996,0.006975,0.035258,0,0,0,0,-0.001675,0.004660,0.016727,0.000000,0.000000,0.000000
highres_imu,33,1510565744892888064.000000,-0.000000,-0.000003,0.000000,0.000000,0.004486,0.004186,0.001543,0.000000,0.000000,-2.328223,-0.000996,0.006975,0.035258,0,0,0,0,-0.001675,0.004660,0.016727,0.000000,0.000000,0.000000
attitude,33,1510565744903075328.000000,-0.000000,-0.000003,0.000000,0.000000,0.004486,0.004186,0.001543,0.000000,0.000000,-2.328223,-0.000991,0.006959,0.035231,0,0,0,0,-0.001675,0.004660,0.016727,0.000000,0.000000,0.000000
highres_imu,33,1510565744960365312.000000,-0.000000,-0.000003,0.000000,0.000000,0.006734,0.003763,0.000270,0.000000,0.000000,-2.328223,-0.000991,0.006959,0.035231,0,0,0,0,-0.001675,0.004660,0.016727,0.000000,0.000000,0.000000
attitude,33,1510565744969941504.000000,-0.000000,-0.000003,0.000000,0.000000,0.006734,0.003763,0.000270,0.000000,0.000000,-2.328223,-0.000976,0.006935,0.035203,0,0,0,0,-0.001675,0.004660,0.016727,0.000000,0.000000,0.000000
attitude,33,1510565745017788160.000000,-0.000000,-0.000003,0.000000,0.000000,0.006734,0.003763,0.000270,0.000000,0.000000,-2.328223,-0.000993,0.006928,0.035203,0,0,0,0,-0.001675,0.004660,0.016727,0.000000,0.000000,0.000000
highres_imu,34,1510565745058164224.000000,-0.000000,-0.000003,0.000000,0.000000,0.007595,0.004186,0.001217,0.000000,0.000000,-2.328223,-0.000993,0.006928,0.035203,0,0,0,0,-0.001675,0.004660,0.016727,0.000000,0.000000,0.000000
highres_imu,35,1510565745174511104.000000,-0.000000,-0.000003,0.000000,0.000000,0.000019,0.004504,0.001543,0.000000,0.000000,-2.328223,-0.000993,0.006928,0.035203,0,0,0,0,-0.001675,0.004660,0.016727,0.000000,0.000000,0.000000
local_position_ned,35,1510565745186973952.000000,-0.000000,-0.000003,0.000000,0.000000,0.000019,0.004504,0.001543,0.000000,0.000000,-2.323067,-0.000993,0.006928,0.035203,0,0,0,0,0.000316,0.003983,0.019642,0.000000,0.000000,0.000000
highres_imu,35,1510565745205454848.000000,-0.000000,-0.000003,0.000000,0.000000,0.005152,0.004718,0.000368,0.000000,0.000000,-2.323067,-0.000993,0.006928,0.035203,0,0,0,0,0.000316,0.003983,0.019642,0.000000,0.000000,0.000000
highres_imu,35,1510565745247632640.000000,-0.000000,-0.000003,0.000000,0.000000,-0.000402,0.003977,0.000479,0.000000,0.000000,-2.323067,-0.000993,0.006928,0.035203,0,0,0,0,0.000316,0.003983,0.019642,0.000000,0.000000,0.000000
local_position_ned,35,1510565745257639168.000000,-0.000000,-0.000003,0.000000,0.000000,-0.000402,0.003977,0.000479,0.000000,0.000000,-2.323440,-0.000993,0.006928,0.035203,0,0,0,0,0.000425,0.004209,0.019735,0.000000,0.000000,0.000000
highres_imu,36,1510565745390576640.000000,-0.000000,-0.000003,0.000000,0.000000,0.008111,0.006634,0.000479,0.000000,0.000000,-2.323440,-0.000993,0.006928,0.035203,0,0,0,0,0.000425,0.004209,0.019735,0.000000,0.000000,0.000000
attitude,36,1510565745399705344.000000,-0.000000,-0.000003,0.000000,0.000000,0.008111,0.006634,0.000479,0.000000,0.000000,-2.323440,-0.001039,0.006952,0.035247,0,0,0,0,0.000425,0.004209,0.019735,0.000000,0.000000,0.000000
attitude,37,1510565745450336768.000000,-0.000000,-0.000003,0.000000,0.000000,0.008111,0.006634,0.000479,0.000000,0.000000,-2.323440,-0.001076,0.006953,0.035272,0,0,0,0,0.000425,0.004209,0.019735,0.000000,0.000000,0.000000
highres_imu,37,1510565745478800896.000000,-0.000000,-0.000003,0.000000,0.000000,0.008116,0.003864,-0.000585,0.000000,0.000000,-2.323440,-0.001076,0.006953,0.035272,0,0,0,0,0.000425,0.004209,0.019735,0.000000,0.000000,0.000000
highres_imu,37,1510565745521683200.000000,-0.000000,-0.000003,0.000000,0.000000,0.003533,0.004400,-0.000267,0.000000,0.000000,-2.323440,-0.001076,0.006953,0.035272,0,0,0,0,0.000425,0.004209,0.019735,0.000000,0.000000,0.000000
attitude,37,1510565745531322112.000000,-0.000000,-0.000003,0.000000,0.000000,0.003533,0.004400,-0.000267,0.000000,0.000000,-2.323440,-0.001070,0.006937,0.035308,0,0,0,0,0.000425,0.004209,0.019735,0.000000,0.000000,0.000000
highres_imu,38,1510565745605769216.000000,-0.000000,-0.000003,0.000000,0.000000,0.004385,0.005996,0.000372,0.000000,0.000000,-2.323440,-0.001070,0.006937,0.035308,0,0,0,0,0.000425,0.004209,0.019735,0.000000,0.000000,0.000000
highres_imu,38,1510565745623878912.000000,-0.000000,-0.000003,0.000000,0.000000,0.001823,0.004724,0.000910,0.000000,0.000000,-2.323440,-0.001070,0.006937,0.035308,0,0,0,0,0.000425,0.004209,0.019735,0.000000,0.000000,0.000000
attitude,38,1510565745633505024.000000,-0.000000,-0.000003,0.000000,0.000000,0.001823,0.004724,0.000910,0.000000,0.000000,-2.323440,-0.001059,0.006962,0.035354,0,0,0,0,0.000425,0.004209,0.019735,0.000000,0.000000,0.000000
highres_imu,38,1510565745668960000.000000,-0.000000,-0.000003,0.000000,0.000000,0.003729,0.004186,0.000164,0.000000,0.000000,-2.323440,-0.001059,0.006962,0.035354,0,0,0,0,0.000425,0.004209,0.019735,0.000000,0.000000,0.000000
highres_imu,39,1510565745690672128.000000,-0.000000,-0.000003,0.000000,0.000000,0.003729,0.004186,-0.000049,0.000000,0.000000,-2.323440,-0.001059,0.006962,0.035354,0,0,0,0,0.000425,0.004209,0.019735,0.000000,0.000000,0.000000
local_position_ned,39,1510565745734267904.000000,-0.000000,-0.000003,0.000000,0.000000,0.003729,0.004186,-0.000049,0.000000,0.000000,-2.320914,-0.001059,0.006962,0.035354,0,0,0,0,0.001957,0.003306,0.020220,0.000000,0.000000,0.000000
highres_imu,39,1510565745752681984.000000,-0.000000,-0.000003,0.000000,0.000000,0.002142,0.005358,0.000799,0.000000,0.000000,-2.320914,-0.001059,0.006962,0.035354,0,0,0,0,0.001957,0.003306,0.020220,0.000000,0.000000,0.000000
highres_imu,39,1510565745771341824.000000,-0.000000,-0.000003,0.000000,0.000000,0.007134,0.005250,0.000479,0.000000,0.000000,-2.320914,-0.001059,0.006962,0.035354,0,0,0,0,0.001957,0.003306,0.020220,0.000000,0.000000,0.000000
highres_imu,39,1510565745810165248.000000,-0.000000,-0.000003,0.000000,0.000000,0.004491,0.004080,0.000585,0.000000,0.000000,-2.320914,-0.001059,0.006962,0.035354,0,0,0,0,0.001957,0.003306,0.020220,0.000000,0.000000,0.000000
local_position_ned,40,1510565745829835520.000000,-0.000000,-0.000003,0.000000,0.000000,0.004491,0.004080,0.000585,0.000000,0.000000,-2.320273,-0.001059,0.006962,0.035354,0,0,0,0,0.002128,0.002860,0.020197,0.000000,0.000000,0.000000
highres_imu,40,1510565745849093376.000000,-0.000000,-0.000003,0.000000,0.000000,0.001191,0.003548,0.000585,0.000000,0.000000,-2.320273,-0.001059,0.006962,0.035354,0,0,0,0,0.002128,0.002860,0.020197,0.000000,0.000000,0.000000
attitude,41,1510565745949370880.000000,-0.000000,-0.000003,0.000000,0.000000,0.001191,0.003548,0.000585,0.000000,0.000000,-2.320273,-0.001035,0.006988,0.035520,0,0,0,0,0.002128,0.002860,0.020197,0.000000,0.000000,0.000000
highres_imu,41,1510565745983952896.000000,-0.000000,-0.000003,0.000000,0.000000,0.000446,0.004186,0.000793,0.000000,0.000000,-2.320273,-0.001035,0.006988,0.035520,0,0,0,0,0.002128,0.002860,0.020197,0.000000,0.000000,0.000000
local_position_ned,41,1510565745993839616.000000,-0.000000,-0.000003,0.000000,0.000000,0.000446,0.004186,0.000793,0.000000,0.000000,-2.321767,-0.001035,0.006988,0.035520,0,0,0,0,0.002628,0.004032,0.020282,0.000000,0.000000,0.000000
attitude,41,1510565746022558720.000000,-0.000000,-0.000003,0.000000,0.000000,0.000446,0.004186,0.000793,0.000000,0.000000,-2.321767,-0.001070,0.006951,0.035548,0,0,0,0,0.002628,0.004032,0.020282,0.000000,0.000000,0.000000
highres_imu,41,1510565746053365504.000000,-0.000000,-0.000003,0.000000,0.000000,0.005146,0.005250,0.000479,0.000000,0.000000,-2.321767,-0.001070,0.006951,0.035548,0,0,0,0,0.002628,0.004032,0.020282,0.000000,0.000000,0.000000
attitude,42,1510565746103014656.000000,-0.000000,-0.000003,0.000000,0.000000,0.005146,0.005250,0.000479,0.000000,0.000000,-2.321767,-0.001108,0.006940,0.035575,0,0,0,0,0.002628,0.004032,0.020282,0.000000,0.000000,0.000000
highres_imu,42,1510565746131748864.000000,-0.000000,-0.000003,0.000000,0.000000,-0.000830,0.004080,0.002072,0.000000,0.000000,-2.321767,-0.001108,0.006940,0.035575,0,0,0,0,0.002628,0.004032,0.020282,0.000000,0.000000,0.000000
highres_imu,43,1510565746246788352.000000,-0.000000,-0.000003,0.000000,0.000000,0.005123,0.004186,0.000161,0.000000,0.000000,-2.321767,-0.001108,0.006940,0.035575,0,0,0,0,0.002628,0.004032,0.020282,0.000000,0.000000,0.000000
highres_imu,43,1510565746265929472.000000,-0.000000,-0.000003,0.000000,0.000000,0.006402,0.005144,0.000479,0.000000,0.000000,-2.321767,-0.001108,0.006940,0.035575,0,0,0,0,0.002628,0.004032,0.020282,0.000000,0.000000,0.000000
attitude,43,1510565746275934208.000000,-0.000000,-0.000003,0.000000,0.000000,0.006402,0.005144,0.000479,0.000000,0.000000,-2.321767,-0.001138,0.006929,0.035566,0,0,0,0,0.002628,0.004032,0.020282,0.000000,0.000000,0.000000
highres_imu,43,1510565746330109952.000000,-0.000000,-0.000003,0.000000,0.000000,0.001087,0.004186,0.001226,0.000000,0.000000,-2.321767,-0.001138,0.006929,0.035566,0,0,0,0,0.002628,0.004032,0.020282,0.000000,0.000000,0.000000
highres_imu,44,1510565746357580544.000000,-0.000000,-0.000003,0.000000,0.000000,0.005118,0.004503,0.000479,0.000000,0.000000,-2.321767,-0.001138,0.006929,0.035566,0,0,0,0,0.002628,0.004032,0.020282,0.000000,0.000000,0.000000
highres_imu,44,1510565746401955840.000000,-0.000000,-0.000003,0.000000,0.000000,0.000553,0.004186,0.000692,0.000000,0.000000,-2.321767,-0.001138,0.006929,0.035566,0,0,0,0,0.002628,0.004032,0.020282,0.000000,0.000000,0.000000
attitude,44,1510565746411294464.000000,-0.000000,-0.000003,0.000000,0.000000,0.000553,0.004186,0.000692,0.000000,0.000000,-2.321767,-0.001135,0.006948,0.035503,0,0,0,0,0.002628,0.004032,0.020282,0.000000,0.000000,0.000000
highres_imu,45,1510565746490735616.000000,-0.000000,-0.000003,0.000000,0.000000,0.001415,0.003571,0.000479,0.000000,0.000000,-2.321767,-0.001135,0.006948,0.035503,0,0,0,0,0.002628,0.004032,0.020282,0.000000,0.000000,0.000000
attitude,45,1510565746529605376.000000,-0.000000,-0.000003,0.000000,0.000000,0.001415,0.003571,0.000479,0.000000,0.000000,-2.321767,-0.001164,0.006957,0.035537,0,0,0,0,0.002628,0.004032,0.020282,0.000000,0.000000,0.000000
highres_imu,45,1510565746557504512.000000,-0.000000,-0.000003,0.000000,0.000000,0.001504,0.005356,0.000694,0.000000,0.000000,-2.321767,-0.001164,0.006957,0.035537,0,0,0,0,0.002628,0.004032,0.020282,0.000000,0.000000,0.000000
local_position_ned,45,1510565746566748928.000000,-0.000000,-0.000003,0.000000,0.000000,0.001504,0.005356,0.000694,0.000000,0.000000,-2.316746,-0.001164,0.006957,0.035537,0,0,0,0,0.002698,0.003197,0.020185,0.000000,0.000000,0.000000
attitude,46,1510565746606403328.000000,-0.000000,-0.000003,0.000000,0.000000,0.001504,0.005356,0.000694,0.000000,0.000000,-2.316746,-0.001175,0.006977,0.035552,0,0,0,0,0.002698,0.003197,0.020185,0.000000,0.000000,0.000000
highres_imu,46,1510565746635893504.000000,-0.000000,-0.000003,0.000000,0.000000,0.004242,0.004292,-0.000479,0.000000,0.000000,-2.316746,-0.001175,0.006977,0.035552,0,0,0,0,0.002698,0.003197,0.020185,0.000000,0.000000,0.000000
attitude,46,1510565746674674432.000000,-0.000000,-0.000003,0.000000,0.000000,0.004242,0.004292,-0.000479,0.000000,0.000000,-2.316746,-0.001174,0.006984,0.035552,0,0,0,0,0.002698,0.003197,0.020185,0.000000,0.000000,0.000000
highres_imu,46,1510565746709595136.000000,-0.000000,-0.000003,0.000000,0.000000,0.001836,0.004186,0.000691,0.000000,0.000000,-2.316746,-0.001174,0.006984,0.035552,0,0,0,0,0.002698,0.003197,0.020185,0.000000,0.000000,0.000000
highres_imu,47,1510565746750440448.000000,-0.000000,-0.000003,0.000000,0.000000,0.002469,0.003122,0.001756,0.000000,0.000000,-2.316746,-0.001174,0.006984,0.035552,0,0,0,0,0.002698,0.003197,0.020185,0.000000,0.000000,0.000000
highres_imu,47,1510565746768397056.000000,-0.000000,-0.000003,0.000000,0.000000,0.009171,0.003766,-0.000480,0.000000,0.000000,-2.316746,-0.001174,0.006984,0.035552,0,0,0,0,0.002698,0.003197,0.020185,0.000000,0.000000,0.000000
highres_imu,47,1510565746786648832.000000,-0.000000,-0.000003,0.000000,0.000000,0.004263,0.004819,0.000697,0.000000,0.000000,-2.316746,-0.001174,0.006984,0.035552,0,0,0,0,0.002698,0.003197,0.020185,0.000000,0.000000,0.000000
highres_imu,47,1510565746831387392.000000,-0.000000,-0.000003,0.000000,0.000000,0.001835,0.005358,0.000800,0.000000,0.000000,-2.316746,-0.001174,0.006984,0.035552,0,0,0,0,0.002698,0.003197,0.020185,0.000000,0.000000,0.000000
highres_imu,47,1510565746849337856.000000,-0.000000,-0.000003,0.000000,0.000000,0.008216,0.005675,0.000585,0.000000,0.000000,-2.316746,-0.001174,0.006984,0.035552,0,0,0,0,0.002698,0.003197,0.020185,0.000000,0.000000,0.000000
attitude,48,1510565746869134848.000000,-0.000000,-0.000003,0.000000,0.000000,0.008216,0.005675,0.000585,0.000000,0.000000,-2.316746,-0.001227,0.006989,0.035650,0,0,0,0,0.002698,0.003197,0.020185,0.000000,0.000000,0.000000
highres_imu,48,1510565746904990208.000000,-0.000000,-0.000003,0.000000,0.000000,0.007900,0.003757,-0.000373,0.000000,0.000000,-2.316746,-0.001227,0.006989,0.035650,0,0,0,0,0.002698,0.003197,0.020185,0.000000,0.000000,0.000000
highres_imu,48,1510565746923656192.000000,-0.000000,-0.000003,0.000000,0.000000,0.003878,0.004080,0.000580,0.000000,0.000000,-2.316746,-0.001227,0.006989,0.035650,0,0,0,0,0.002698,0.003197,0.020185,0.000000,0.000000,0.000000
highres_imu,48,1510565746968898304.000000,-0.000000,-0.000003,0.000000,0.000000,0.008960,0.003867,-0.000373,0.000000,0.000000,-2.316746,-0.001227,0.006989,0.035650,0,0,0,0,0.002698,0.003197,0.020185,0.000000,0.000000,0.000000
local_position_ned,48,1510565746978512128.000000,-0.000000,-0.000003,0.000000,0.000000,0.008960,0.003867,-0.000373,0.000000,0.000000,-2.309653,-0.001227,0.006989,0.035650,0,0,0,0,0.003448,0.003564,0.021855,0.000000,0.000000,0.000000
highres_imu,49,1510565746998227456.000000,-0.000000,-0.000003,0.000000,0.000000,0.004487,0.004713,0.000695,0.000000,0.000000,-2.309653,-0.001227,0.006989,0.035650,0,0,0,0,0.003448,0.003564,0.021855,0.000000,0.000000,0.000000
attitude,49,1510565747007467008.000000,-0.000000,-0.000003,0.000000,0.000000,0.004487,0.004713,0.000695,0.000000,0.000000,-2.309653,-0.001217,0.006984,0.035765,0,0,0,0,0.003448,0.003564,0.021855,0.000000,0.000000,0.000000
highres_imu,50,1510565747171036672.000000,-0.000000,-0.000003,0.000000,0.000000,0.001206,0.004186,0.000052,0.000000,0.000000,-2.309653,-0.001217,0.006984,0.035765,0,0,0,0,0.003448,0.003564,0.021855,0.000000,0.000000,0.000000
attitude,50,1510565747206074880.000000,-0.000000,-0.000003,0.000000,0.000000,0.001206,0.004186,0.000052,0.000000,0.000000,-2.309653,-0.001224,0.006955,0.035891,0,0,0,0,0.003448,0.003564,0.021855,0.000000,0.000000,0.000000
highres_imu,50,1510565747236713984.000000,-0.000000,-0.000003,0.000000,0.000000,0.008535,0.003973,0.001118,0.000000,0.000000,-2.309653,-0.001224,0.006955,0.035891,0,0,0,0,0.003448,0.003564,0.021855,0.000000,0.000000,0.000000
highres_imu,51,1510565747304958720.000000,-0.000000,-0.000003,0.000000,0.000000,0.000551,0.005250,0.001118,0.000000,0.000000,-2.309653,-0.001224,0.006955,0.035891,0,0,0,0,0.003448,0.003564,0.021855,0.000000,0.000000,0.000000
attitude,51,1510565747345625088.000000,-0.000000,-0.000003,0.000000,0.000000,0.000551,0.005250,0.001118,0.000000,0.000000,-2.309653,-0.001233,0.006956,0.036021,0,0,0,0,0.003448,0.003564,0.021855,0.000000,0.000000,0.000000
highres_imu,51,1510565747373979648.000000,-0.000000,-0.000003,0.000000,0.000000,0.004694,0.004608,0.001224,0.000000,0.000000,-2.309653,-0.001233,0.006956,0.036021,0,0,0,0,0.003448,0.003564,0.021855,0.000000,0.000000,0.000000
attitude,52,1510565747427558400.000000,-0.000000,-0.000003,0.000000,0.000000,0.004694,0.004608,0.001224,0.000000,0.000000,-2.309653,-0.001272,0.006953,0.036049,0,0,0,0,0.003448,0.003564,0.021855,0.000000,0.000000,0.000000
highres_imu,52,1510565747459234304.000000,-0.000000,-0.000003,0.000000,0.000000,0.005765,0.004186,0.000159,0.000000,0.000000,-2.309653,-0.001272,0.006953,0.036049,0,0,0,0,0.003448,0.003564,0.021855,0.000000,0.000000,0.000000
highres_imu,52,1510565747506038016.000000,-0.000000,-0.000003,0.000000,0.000000,0.000446,0.004826,0.000691,0.000000,0.000000,-2.309653,-0.001272,0.006953,0.036049,0,0,0,0,0.003448,0.003564,0.021855,0.000000,0.000000,0.000000
highres_imu,53,1510565747528051200.000000,-0.000000,-0.000003,0.000000,0.000000,0.003638,0.003654,0.000373,0.000000,0.000000,-2.309653,-0.001272,0.006953,0.036049,0,0,0,0,0.003448,0.003564,0.021855,0.000000,0.000000,0.000000
attitude,53,1510565747542632192.000000,-0.000000,-0.000003,0.000000,0.000000,0.003638,0.003654,0.000373,0.000000,0.000000,-2.309653,-0.001277,0.006940,0.036082,0,0,0,0,0.003448,0.003564,0.021855,0.000000,0.000000,0.000000
local_position_ned,53,1510565747568931072.000000,-0.000000,-0.000003,0.000000,0.000000,0.003638,0.003654,0.000373,0.000000,0.000000,-2.296128,-0.001277,0.006940,0.036082,0,0,0,0,0.003981,0.003652,0.026711,0.000000,0.000000,0.000000
highres_imu,53,1510565747587231232.000000,-0.000000,-0.000003,0.000000,0.000000,0.006512,0.003867,0.000479,0.000000,0.000000,-2.296128,-0.001277,0.006940,0.036082,0,0,0,0,0.003981,0.003652,0.026711,0.000000,0.000000,0.000000
highres_imu,53,1510565747607751936.000000,-0.000000,-0.000003,0.000000,0.000000,0.005165,0.004927,0.000262,0.000000,0.000000,-2.296128,-0.001277,0.006940,0.036082,0,0,0,0,0.003981,0.003652,0.026711,0.000000,0.000000,0.000000
highres_imu,53,1510565747647823872.000000,-0.000000,-0.000003,0.000000,0.000000,0.001192,0.004400,0.001223,0.000000,0.000000,-2.296128,-0.001277,0.006940,0.036082,0,0,0,0,0.003981,0.003652,0.026711,0.000000,0.000000,0.000000
local_position_ned,53,1510565747658062336.000000,-0.000000,-0.000003,0.000000,0.000000,0.001192,0.004400,0.001223,0.000000,0.000000,-2.289902,-0.001277,0.006940,0.036082,0,0,0,0,0.003727,0.005005,0.028176,0.000000,0.000000,0.000000
highres_imu,54,1510565747676330496.000000,-0.000000,-0.000003,0.000000,0.000000,0.006510,0.004824,0.000161,0.000000,0.000000,-2.289902,-0.001277,0.006940,0.036082,0,0,0,0,0.003727,0.005005,0.028176,0.000000,0.000000,0.000000
attitude,54,1510565747685766400.000000,-0.000000,-0.000003,0.000000,0.000000,0.006510,0.004824,0.000161,0.000000,0.000000,-2.289902,-0.001254,0.006931,0.036053,0,0,0,0,0.003727,0.005005,0.028176,0.000000,0.000000,0.000000
highres_imu,54,1510565747784101120.000000,-0.000000,-0.000003,0.000000,0.000000,0.003633,0.004186,0.000585,0.000000,0.000000,-2.289902,-0.001254,0.006931,0.036053,0,0,0,0,0.003727,0.005005,0.028176,0.000000,0.000000,0.000000
highres_imu,55,1510565747802807296.000000,-0.000000,-0.000003,0.000000,0.000000,0.006831,0.004293,-0.000266,0.000000,0.000000,-2.289902,-0.001254,0.006931,0.036053,0,0,0,0,0.003727,0.005005,0.028176,0.000000,0.000000,0.000000
local_position_ned,55,1510565747812783616.000000,-0.000000,-0.000003,0.000000,0.000000,0.006831,0.004293,-0.000266,0.000000,0.000000,-2.284269,-0.001254,0.006931,0.036053,0,0,0,0,0.004179,0.004981,0.029410,0.000000,0.000000,0.000000
highres_imu,55,1510565747831555072.000000,-0.000000,-0.000003,0.000000,0.000000,0.000555,0.004400,0.001117,0.000000,0.000000,-2.284269,-0.001254,0.006931,0.036053,0,0,0,0,0.004179,0.004981,0.029410,0.000000,0.000000,0.000000
highres_imu,55,1510565747870075648.000000,-0.000000,-0.000003,0.000000,0.000000,0.005047,0.003974,0.000261,0.000000,0.000000,-2.284269,-0.001254,0.006931,0.036053,0,0,0,0,0.004179,0.004981,0.029410,0.000000,0.000000,0.000000
highres_imu,55,1510565747888716288.000000,-0.000000,-0.000003,0.000000,0.000000,0.001513,0.003335,0.000479,0.000000,0.000000,-2.284269,-0.001254,0.006931,0.036053,0,0,0,0,0.004179,0.004981,0.029410,0.000000,0.000000,0.000000
highres_imu,56,1510565747943588864.000000,-0.000000,-0.000003,0.000000,0.000000,0.000762,0.004186,0.001543,0.000000,0.000000,-2.284269,-0.001254,0.006931,0.036053,0,0,0,0,0.004179,0.004981,0.029410,0.000000,0.000000,0.000000
highres_imu,56,1510565748015185664.000000,-0.000000,-0.000003,0.000000,0.000000,0.006194,0.004718,0.002181,0.000000,0.000000,-2.284269,-0.001254,0.006931,0.036053,0,0,0,0,0.004179,0.004981,0.029410,0.000000,0.000000,0.000000
highres_imu,56,1510565748033936128.000000,-0.000000,-0.000003,0.000000,0.000000,0.000767,0.006315,0.001543,0.000000,0.000000,-2.284269,-0.001254,0.006931,0.036053,0,0,0,0,0.004179,0.004981,0.029410,0.000000,0.000000,0.000000
attitude,56,1510565748043524352.000000,-0.000000,-0.000003,0.000000,0.000000,0.000767,0.006315,0.001543,0.000000,0.000000,-2.284269,-0.001358,0.006958,0.035651,0,0,0,0,0.004179,0.004981,0.029410,0.000000,0.000000,0.000000
highres_imu,57,1510565748101495040.000000,-0.000000,-0.000003,0.000000,0.000000,0.007561,0.005993,0.001440,0.000000,0.000000,-2.284269,-0.001358,0.006958,0.035651,0,0,0,0,0.004179,0.004981,0.029410,0.000000,0.000000,0.000000
attitude,57,1510565748114636032.000000,-0.000000,-0.000003,0.000000,0.000000,0.007561,0.005993,0.001440,0.000000,0.000000,-2.284269,-0.001356,0.007000,0.035597,0,0,0,0,0.004179,0.004981,0.029410,0.000000,0.000000,0.000000
highres_imu,57,1510565748184671744.000000,-0.000000,-0.000003,0.000000,0.000000,0.008140,0.004287,0.000044,0.000000,0.000000,-2.284269,-0.001356,0.007000,0.035597,0,0,0,0,0.004179,0.004981,0.029410,0.000000,0.000000,0.000000
attitude,58,1510565748194196480.000000,-0.000000,-0.000003,0.000000,0.000000,0.008140,0.004287,0.000044,0.000000,0.000000,-2.284269,-0.001341,0.007004,0.035557,0,0,0,0,0.004179,0.004981,0.029410,0.000000,0.000000,0.000000
highres_imu,58,1510565748256938240.000000,-0.000000,-0.000003,0.000000,0.000000,0.002061,0.003122,0.000479,0.000000,0.000000,-2.284269,-0.001341,0.007004,0.035557,0,0,0,0,0.004179,0.004981,0.029410,0.000000,0.000000,0.000000
highres_imu,58,1510565748275932928.000000,-0.000000,-0.000003,0.000000,0.000000,0.003130,0.004827,0.000479,0.000000,0.000000,-2.284269,-0.001341,0.007004,0.035557,0,0,0,0,0.004179,0.004981,0.029410,0.000000,0.000000,0.000000
attitude,58,1510565748285073152.000000,-0.000000,-0.000003,0.000000,0.000000,0.003130,0.004827,0.000479,0.000000,0.000000,-2.284269,-0.001337,0.006989,0.035509,0,0,0,0,0.004179,0.004981,0.029410,0.000000,0.000000,0.000000
highres_imu,59,1510565748323872256.000000,-0.000000,-0.000003,0.000000,0.000000,0.002686,0.004720,-0.000055,0.000000,0.000000,-2.284269,-0.001337,0.006989,0.035509,0,0,0,0,0.004179,0.004981,0.029410,0.000000,0.000000,0.000000
highres_imu,59,1510565748343097344.000000,-0.000000,-0.000003,0.000000,0.000000,0.007259,0.004292,0.000161,0.000000,0.000000,-2.284269,-0.001337,0.006989,0.035509,0,0,0,0,0.004179,0.004981,0.029410,0.000000,0.000000,0.000000
attitude,59,1510565748352635904.000000,-0.000000,-0.000003,0.000000,0.000000,0.007259,0.004292,0.000161,0.000000,0.000000,-2.284269,-0.001345,0.007001,0.035433,0,0,0,0,0.004179,0.004981,0.029410,0.000000,0.000000,0.000000
highres_imu,59,1510565748389313792.000000,-0.000000,-0.000003,0.000000,0.000000,0.003411,0.004292,0.001432,0.000000,0.000000,-2.284269,-0.001345,0.007001,0.035433,0,0,0,0,0.004179,0.004981,0.029410,0.000000,0.000000,0.000000
local_position_ned,59,1510565748398464256.000000,-0.000000,-0.000003,0.000000,0.000000,0.003411,0.004292,0.001432,0.000000,0.000000,-2.276505,-0.001345,0.007001,0.035433,0,0,0,0,0.004903,0.002537,0.029743,0.000000,0.000000,0.000000
highres_imu,59,1510565748427842304.000000,-0.000000,-0.000003,0.000000,0.000000,0.002697,0.005250,0.000156,0.000000,0.000000,-2.276505,-0.001345,0.007001,0.035433,0,0,0,0,0.004903,0.002537,0.029743,0.000000,0.000000,0.000000
highres_imu,60,1510565748478809088.000000,-0.000000,-0.000003,0.000000,0.000000,0.001940,0.003760,0.001543,0.000000,0.000000,-2.276505,-0.001345,0.007001,0.035433,0,0,0,0,0.004903,0.002537,0.029743,0.000000,0.000000,0.000000
highres_imu,60,1510565748496218624.000000,-0.000000,-0.000003,0.000000,0.000000,0.007895,0.003970,0.000266,0.000000,0.000000,-2.276505,-0.001345,0.007001,0.035433,0,0,0,0,0.004903,0.002537,0.029743,0.000000,0.000000,0.000000
highres_imu,60,1510565748547671808.000000,-0.000000,-0.000003,0.000000,0.000000,0.003942,0.005036,0.001652,0.000000,0.000000,-2.276505,-0.001345,0.007001,0.035433,0,0,0,0,0.004903,0.002537,0.029743,0.000000,0.000000,0.000000
highres_imu,60,1510565748566744576.000000,-0.000000,-0.000003,0.000000,0.000000,0.001619,0.004186,0.000583,0.000000,0.000000,-2.276505,-0.001345,0.007001,0.035433,0,0,0,0,0.004903,0.002537,0.029743,0.000000,0.000000,0.000000
attitude,61,1510565748614033664.000000,-0.000000,-0.000003,0.000000,0.000000,0.001619,0.004186,0.000583,0.000000,0.000000,-2.276505,-0.001333,0.007064,0.035272,0,0,0,0,0.004903,0.002537,0.029743,0.000000,0.000000,0.000000
highres_imu,61,1510565748645762560.000000,-0.000000,-0.000003,0.000000,0.000000,0.005533,0.003862,0.001436,0.000000,0.000000,-2.276505,-0.001333,0.007064,0.035272,0,0,0,0,0.004903,0.002537,0.029743,0.000000,0.000000,0.000000
local_position_ned,61,1510565748655179520.000000,-0.000000,-0.000003,0.000000,0.000000,0.005533,0.003862,0.001436,0.000000,0.000000,-2.278461,-0.001333,0.007064,0.035272,0,0,0,0,0.003432,0.002299,0.029029,0.000000,0.000000,0.000000
attitude,61,1510565748692008192.000000,-0.000000,-0.000003,0.000000,0.000000,0.005533,0.003862,0.001436,0.000000,0.000000,-2.278461,-0.001324,0.007062,0.035252,0,0,0,0,0.003432,0.002299,0.029029,0.000000,0.000000,0.000000
highres_imu,62,1510565748827659520.000000,-0.000000,-0.000003,0.000000,0.000000,0.006420,0.003650,0.000264,0.000000,0.000000,-2.278461,-0.001324,0.007062,0.035252,0,0,0,0,0.003432,0.002299,0.029029,0.000000,0.000000,0.000000
attitude,63,1510565748886621952.000000,-0.000000,-0.000003,0.000000,0.000000,0.006420,0.003650,0.000264,0.000000,0.000000,-2.278461,-0.001335,0.007050,0.035268,0,0,0,0,0.003432,0.002299,0.029029,0.000000,0.000000,0.000000
highres_imu,63,1510565748916046336.000000,-0.000000,-0.000003,0.000000,0.000000,-0.000723,0.004930,0.000692,0.000000,0.000000,-2.278461,-0.001335,0.007050,0.035268,0,0,0,0,0.003432,0.002299,0.029029,0.000000,0.000000,0.000000
highres_imu,63,1510565748967098112.000000,-0.000000,-0.000003,0.000000,0.000000,0.007351,0.005250,-0.000050,0.000000,0.000000,-2.278461,-0.001335,0.007050,0.035268,0,0,0,0,0.003432,0.002299,0.029029,0.000000,0.000000,0.000000
highres_imu,63,1510565748988653056.000000,-0.000000,-0.000003,0.000000,0.000000,0.000659,0.005038,0.001330,0.000000,0.000000,-2.278461,-0.001335,0.007050,0.035268,0,0,0,0,0.003432,0.002299,0.029029,0.000000,0.000000,0.000000
highres_imu,64,1510565749040336384.000000,-0.000000,-0.000003,0.000000,0.000000,0.000022,0.004823,0.001758,0.000000,0.000000,-2.278461,-0.001335,0.007050,0.035268,0,0,0,0,0.003432,0.002299,0.029029,0.000000,0.000000,0.000000
highres_imu,64,1510565749060826112.000000,-0.000000,-0.000003,0.000000,0.000000,0.004517,0.005250,0.000791,0.000000,0.000000,-2.278461,-0.001335,0.007050,0.035268,0,0,0,0,0.003432,0.002299,0.029029,0.000000,0.000000,0.000000
attitude,64,1510565749070577664.000000,-0.000000,-0.000003,0.000000,0.000000,0.004517,0.005250,0.000791,0.000000,0.000000,-2.278461,-0.001428,0.007067,0.035346,0,0,0,0,0.003432,0.002299,0.029029,0.000000,0.000000,0.000000
highres_imu,64,1510565749111339264.000000,-0.000000,-0.000003,0.000000,0.000000,0.007132,0.004186,0.000479,0.000000,0.000000,-2.278461,-0.001428,0.007067,0.035346,0,0,0,0,0.003432,0.002299,0.029029,0.000000,0.000000,0.000000
highres_imu,65,1510565749131960064.000000,-0.000000,-0.000003,0.000000,0.000000,0.001092,0.004186,0.001009,0.000000,0.000000,-2.278461,-0.001428,0.007067,0.035346,0,0,0,0,0.003432,0.002299,0.029029,0.000000,0.000000,0.000000
attitude,65,1510565749142539264.000000,-0.000000,-0.000003,0.000000,0.000000,0.001092,0.004186,0.001009,0.000000,0.000000,-2.278461,-0.001428,0.007062,0.035385,0,0,0,0,0.003432,0.002299,0.029029,0.000000,0.000000,0.000000
local_position_ned,65,1510565749173198592.000000,-0.000000,-0.000003,0.000000,0.000000,0.001092,0.004186,0.001009,0.000000,0.000000,-2.273075,-0.001428,0.007062,0.035385,0,0,0,0,0.002476,0.000517,0.029243,0.000000,0.000000,0.000000
highres_imu,65,1510565749192009216.000000,-0.000000,-0.000003,0.000000,0.000000,0.006835,0.004504,0.000479,0.000000,0.000000,-2.273075,-0.001428,0.007062,0.035385,0,0,0,0,0.002476,0.000517,0.029243,0.000000,0.000000,0.000000
attitude,65,1510565749211914496.000000,-0.000000,-0.000003,0.000000,0.000000,0.006835,0.004504,0.000479,0.000000,0.000000,-2.273075,-0.001405,0.007069,0.035464,0,0,0,0,0.002476,0.000517,0.029243,0.000000,0.000000,0.000000
highres_imu,66,1510565749267800320.000000,-0.000000,-0.000003,0.000000,0.000000,0.001195,0.003122,0.001116,0.000000,0.000000,-2.273075,-0.001405,0.007069,0.035464,0,0,0,0,0.002476,0.000517,0.029243,0.000000,0.000000,0.000000
highres_imu,66,1510565749295564800.000000,-0.000000,-0.000003,0.000000,0.000000,0.004485,0.004080,0.001010,0.000000,0.000000,-2.273075,-0.001405,0.007069,0.035464,0,0,0,0,0.002476,0.000517,0.029243,0.000000,0.000000,0.000000
highres_imu,66,1510565749339365120.000000,-0.000000,-0.000003,0.000000,0.000000,0.002657,0.004820,0.000162,0.000000,0.000000,-2.273075,-0.001405,0.007069,0.035464,0,0,0,0,0.002476,0.000517,0.029243,0.000000,0.000000,0.000000
local_position_ned,66,1510565749349068544.000000,-0.000000,-0.000003,0.000000,0.000000,0.002657,0.004820,0.000162,0.000000,0.000000,-2.274448,-0.001405,0.007069,0.035464,0,0,0,0,0.002036,-0.000806,0.028049,0.000000,0.000000,0.000000
highres_imu,66,1510565749367174656.000000,-0.000000,-0.000003,0.000000,0.000000,0.002362,0.003122,0.000479,0.000000,0.000000,-2.274448,-0.001405,0.007069,0.035464,0,0,0,0,0.002036,-0.000806,0.028049,0.000000,0.000000,0.000000
highres_imu,67,1510565749420010240.000000,-0.000000,-0.000003,0.000000,0.000000,0.006006,0.005041,-0.000273,0.000000,0.000000,-2.274448,-0.001405,0.007069,0.035464,0,0,0,0,0.002036,-0.000806,0.028049,0.000000,0.000000,0.000000
highres_imu,67,1510565749438225408.000000,-0.000000,-0.000003,0.000000,0.000000,0.008217,0.004293,0.000372,0.000000,0.000000,-2.274448,-0.001405,0.007069,0.035464,0,0,0,0,0.002036,-0.000806,0.028049,0.000000,0.000000,0.000000
highres_imu,67,1510565749490874112.000000,-0.000000,-0.000003,0.000000,0.000000,0.001180,0.004290,0.000479,0.000000,0.000000,-2.274448,-0.001405,0.007069,0.035464,0,0,0,0,0.002036,-0.000806,0.028049,0.000000,0.000000,0.000000
highres_imu,67,1510565749510642176.000000,-0.000000,-0.000003,0.000000,0.000000,0.004895,0.004186,0.000479,0.000000,0.000000,-2.274448,-0.001405,0.007069,0.035464,0,0,0,0,0.002036,-0.000806,0.028049,0.000000,0.000000,0.000000
highres_imu,68,1510565749559222272.000000,-0.000000,-0.000003,0.000000,0.000000,0.008109,0.004186,-0.000479,0.000000,0.000000,-2.274448,-0.001405,0.007069,0.035464,0,0,0,0,0.002036,-0.000806,0.028049,0.000000,0.000000,0.000000
highres_imu,68,1510565749578754560.000000,-0.000000,-0.000003,0.000000,0.000000,0.004408,0.003332,0.001015,0.000000,0.000000,-2.274448,-0.001405,0.007069,0.035464,0,0,0,0,0.002036,-0.000806,0.028049,0.000000,0.000000,0.000000
attitude,68,1510565749589842176.000000,-0.000000,-0.000003,0.000000,0.000000,0.004408,0.003332,0.001015,0.000000,0.000000,-2.274448,-0.001349,0.007080,0.036056,0,0,0,0,0.002036,-0.000806,0.028049,0.000000,0.000000,0.000000
highres_imu,68,1510565749627972096.000000,-0.000000,-0.000003,0.000000,0.000000,0.000209,0.005250,0.001543,0.000000,0.000000,-2.274448,-0.001349,0.007080,0.036056,0,0,0,0,0.002036,-0.000806,0.028049,0.000000,0.000000,0.000000
attitude,68,1510565749637598208.000000,-0.000000,-0.000003,0.000000,0.000000,0.000209,0.005250,0.001543,0.000000,0.000000,-2.274448,-0.001369,0.007046,0.036136,0,0,0,0,0.002036,-0.000806,0.028049,0.000000,0.000000,0.000000
attitude,69,1510565749688913664.000000,-0.000000,-0.000003,0.000000,0.000000,0.000209,0.005250,0.001543,0.000000,0.000000,-2.274448,-0.001368,0.007039,0.036211,0,0,0,0,0.002036,-0.000806,0.028049,0.000000,0.000000,0.000000
highres_imu,69,1510565749729228800.000000,-0.000000,-0.000003,0.000000,0.000000,0.001829,0.004931,0.001118,0.000000,0.000000,-2.274448,-0.001368,0.007039,0.036211,0,0,0,0,0.002036,-0.000806,0.028049,0.000000,0.000000,0.000000
attitude,69,1510565749776390400.000000,-0.000000,-0.000003,0.000000,0.000000,0.001829,0.004931,0.001118,0.000000,0.000000,-2.274448,-0.001400,0.007017,0.036233,0,0,0,0,0.002036,-0.000806,0.028049,0.000000,0.000000,0.000000
highres_imu,70,1510565749805789696.000000,-0.000000,-0.000003,0.000000,0.000000,0.001504,0.004808,0.000921,0.000000,0.000000,-2.274448,-0.001400,0.007017,0.036233,0,0,0,0,0.002036,-0.000806,0.028049,0.000000,0.000000,0.000000
local_position_ned,70,1510565749903272704.000000,-0.000000,-0.000003,0.000000,0.000000,0.001504,0.004808,0.000921,0.000000,0.000000,-2.279564,-0.001400,0.007017,0.036233,0,0,0,0,0.001353,-0.000440,0.026646,0.000000,0.000000,0.000000
highres_imu,70,1510565749922305536.000000,-0.000000,-0.000003,0.000000,0.000000,0.004492,0.005250,0.001330,0.000000,0.000000,-2.279564,-0.001400,0.007017,0.036233,0,0,0,0,0.001353,-0.000440,0.026646,0.000000,0.000000,0.000000
highres_imu,71,1510565749941828096.000000,-0.000000,-0.000003,0.000000,0.000000,0.001083,0.004827,0.002501,0.000000,0.000000,-2.279564,-0.001400,0.007017,0.036233,0,0,0,0,0.001353,-0.000440,0.026646,0.000000,0.000000,0.000000
highres_imu,71,1510565749999519232.000000,-0.000000,-0.000003,0.000000,0.000000,0.001291,0.004927,0.000479,0.000000,0.000000,-2.279564,-0.001400,0.007017,0.036233,0,0,0,0,0.001353,-0.000440,0.026646,0.000000,0.000000,0.000000
highres_imu,71,1510565750021877248.000000,-0.000000,-0.000003,0.000000,0.000000,0.005979,0.005250,0.000051,0.000000,0.000000,-2.279564,-0.001400,0.007017,0.036233,0,0,0,0,0.001353,-0.000440,0.026646,0.000000,0.000000,0.000000
highres_imu,71,1510565750050023168.000000,-0.000000,-0.000003,0.000000,0.000000,0.003224,0.004829,-0.000270,0.000000,0.000000,-2.279564,-0.001400,0.007017,0.036233,0,0,0,0,0.001353,-0.000440,0.026646,0.000000,0.000000,0.000000
highres_imu,72,1510565750069609984.000000,-0.000000,-0.000003,0.000000,0.000000,0.007252,0.004080,0.000378,0.000000,0.000000,-2.279564,-0.001400,0.007017,0.036233,0,0,0,0,0.001353,-0.000440,0.026646,0.000000,0.000000,0.000000
highres_imu,72,1510565750137800960.000000,-0.000000,-0.000003,0.000000,0.000000,0.004177,0.003763,0.001115,0.000000,0.000000,-2.279564,-0.001400,0.007017,0.036233,0,0,0,0,0.001353,-0.000440,0.026646,0.000000,0.000000,0.000000
highres_imu,72,1510565750155461120.000000,-0.000000,-0.000003,0.000000,0.000000,0.005668,0.004720,0.000691,0.000000,0.000000,-2.279564,-0.001400,0.007017,0.036233,0,0,0,0,0.001353,-0.000440,0.026646,0.000000,0.000000,0.000000
attitude,72,1510565750164844032.000000,-0.000000,-0.000003,0.000000,0.000000,0.005668,0.004720,0.000691,0.000000,0.000000,-2.279564,-0.001477,0.007012,0.036151,0,0,0,0,0.001353,-0.000440,0.026646,0.000000,0.000000,0.000000
attitude,73,1510565750270552320.000000,-0.000000,-0.000003,0.000000,0.000000,0.005668,0.004720,0.000691,0.000000,0.000000,-2.279564,-0.001478,0.007011,0.036057,0,0,0,0,0.001353,-0.000440,0.026646,0.000000,0.000000,0.000000
highres_imu,73,1510565750299503104.000000,-0.000000,-0.000003,0.000000,0.000000,0.004459,0.006213,0.000479,0.000000,0.000000,-2.279564,-0.001478,0.007011,0.036057,0,0,0,0,0.001353,-0.000440,0.026646,0.000000,0.000000,0.000000
highres_imu,73,1510565750320305920.000000,-0.000000,-0.000003,0.000000,0.000000,0.002681,0.005575,0.000479,0.000000,0.000000,-2.279564,-0.001478,0.007011,0.036057,0,0,0,0,0.001353,-0.000440,0.026646,0.000000,0.000000,0.000000
highres_imu,74,1510565750365251584.000000,-0.000000,-0.000003,0.000000,0.000000,0.000234,0.006209,0.001543,0.000000,0.000000,-2.279564,-0.001478,0.007011,0.036057,0,0,0,0,0.001353,-0.000440,0.026646,0.000000,0.000000,0.000000
highres_imu,74,1510565750384229888.000000,-0.000000,-0.000003,0.000000,0.000000,0.006501,0.003973,-0.000050,0.000000,0.000000,-2.279564,-0.001478,0.007011,0.036057,0,0,0,0,0.001353,-0.000440,0.026646,0.000000,0.000000,0.000000
local_position_ned,75,1510565750483039488.000000,-0.000000,-0.000003,0.000000,0.000000,0.006501,0.003973,-0.000050,0.000000,0.000000,-2.286638,-0.001478,0.007011,0.036057,0,0,0,0,-0.000236,-0.001840,0.023607,0.000000,0.000000,0.000000
highres_imu,75,1510565750509951744.000000,-0.000000,-0.000003,0.000000,0.000000,0.006744,0.005143,0.000374,0.000000,0.000000,-2.286638,-0.001478,0.007011,0.036057,0,0,0,0,-0.000236,-0.001840,0.023607,0.000000,0.000000,0.000000
highres_imu,75,1510565750534251520.000000,-0.000000,-0.000003,0.000000,0.000000,0.000978,0.006209,0.000266,0.000000,0.000000,-2.286638,-0.001478,0.007011,0.036057,0,0,0,0,-0.000236,-0.001840,0.023607,0.000000,0.000000,0.000000
attitude,75,1510565750543957760.000000,-0.000000,-0.000003,0.000000,0.000000,0.000978,0.006209,0.000266,0.000000,0.000000,-2.286638,-0.001442,0.007073,0.035926,0,0,0,0,-0.000236,-0.001840,0.023607,0.000000,0.000000,0.000000
local_position_ned,75,1510565750577356032.000000,-0.000000,-0.000003,0.000000,0.000000,0.000978,0.006209,0.000266,0.000000,0.000000,-2.288309,-0.001442,0.007073,0.035926,0,0,0,0,-0.000239,-0.001950,0.023088,0.000000,0.000000,0.000000
highres_imu,76,1510565750596592128.000000,-0.000000,-0.000003,0.000000,0.000000,0.006514,0.002803,0.000479,0.000000,0.000000,-2.288309,-0.001442,0.007073,0.035926,0,0,0,0,-0.000239,-0.001950,0.023088,0.000000,0.000000,0.000000
attitude,76,1510565750606142464.000000,-0.000000,-0.000003,0.000000,0.000000,0.006514,0.002803,0.000479,0.000000,0.000000,-2.288309,-0.001445,0.007074,0.035877,0,0,0,0,-0.000239,-0.001950,0.023088,0.000000,0.000000,0.000000
highres_imu,76,1510565750656688896.000000,-0.000000,-0.000003,0.000000,0.000000,0.002870,0.004186,0.000795,0.000000,0.000000,-2.288309,-0.001445,0.007074,0.035877,0,0,0,0,-0.000239,-0.001950,0.023088,0.000000,0.000000,0.000000
highres_imu,77,1510565750720977408.000000,-0.000000,-0.000003,0.000000,0.000000,0.000428,0.004186,0.001856,0.000000,0.000000,-2.288309,-0.001445,0.007074,0.035877,0,0,0,0,-0.000239,-0.001950,0.023088,0.000000,0.000000,0.000000
attitude,77,1510565750733736448.000000,-0.000000,-0.000003,0.000000,0.000000,0.000428,0.004186,0.001856,0.000000,0.000000,-2.288309,-0.001453,0.007076,0.035845,0,0,0,0,-0.000239,-0.001950,0.023088,0.000000,0.000000,0.000000
