Pose,FrameNo,timestamp(ns),timeboot(ms),xgyro,xyyro,zgyro,xacc,yacc,zacc,x,y,z,roll,pitch,yaw,hdop,lat,lon,alt,vx,vy,vz,gpsxacc,gpsyacc,gpszacc
local_position_ned,0,1511122429711950848.000000,0.000000,-0.000004,-0.000000,0.000000,0.005000,0.002365,0.001736,0.000000,0.000000,-0.621603,-0.087620,0.022119,0.158643,0,0,0,0,-0.009257,0.006318,-0.145181,0.000000,0.000000,0.000000
highres_imu,0,1511122429715072256.000000,0.000000,-0.000004,-0.000000,0.000000,0.000932,0.002478,-0.001056,0.000000,0.000000,-0.621603,-0.087620,0.022119,0.158643,0,0,0,0,-0.009257,0.006318,-0.145181,0.000000,0.000000,0.000000
attitude,0,1511122429716537344.000000,0.000000,-0.000004,-0.000000,0.000000,0.000932,0.002478,-0.001056,0.000000,0.000000,-0.621603,-0.087617,0.022129,0.158636,0,0,0,0,-0.009257,0.006318,-0.145181,0.000000,0.000000,0.000000
highres_imu,0,1511122429720891136.000000,0.000000,-0.000004,-0.000000,0.000000,0.004991,0.002582,0.001522,0.000000,0.000000,-0.621603,-0.087617,0.022129,0.158636,0,0,0,0,-0.009257,0.006318,-0.145181,0.000000,0.000000,0.000000
highres_imu,0,1511122429726083072.000000,0.000000,-0.000004,-0.000000,0.000000,0.001060,0.003110,0.001090,0.000000,0.000000,-0.621603,-0.087617,0.022129,0.158636,0,0,0,0,-0.009257,0.006318,-0.145181,0.000000,0.000000,0.000000
attitude,0,1511122429735713280.000000,0.000000,-0.000004,-0.000000,0.000000,0.001060,0.003110,0.001090,0.000000,0.000000,-0.621603,-0.087614,0.022138,0.158640,0,0,0,0,-0.009257,0.006318,-0.145181,0.000000,0.000000,0.000000
highres_imu,0,1511122429738690560.000000,0.000000,-0.000004,-0.000000,0.000000,0.004785,0.002790,0.002146,0.000000,0.000000,-0.621603,-0.087614,0.022138,0.158640,0,0,0,0,-0.009257,0.006318,-0.145181,0.000000,0.000000,0.000000
attitude,0,1511122429741741568.000000,0.000000,-0.000004,-0.000000,0.000000,0.004785,0.002790,0.002146,0.000000,0.000000,-0.621603,-0.087605,0.022142,0.158649,0,0,0,0,-0.009257,0.006318,-0.145181,0.000000,0.000000,0.000000
highres_imu,0,1511122429744585984.000000,0.000000,-0.000004,-0.000000,0.000000,0.002453,0.001833,-0.002537,0.000000,0.000000,-0.621603,-0.087605,0.022142,0.158649,0,0,0,0,-0.009257,0.006318,-0.145181,0.000000,0.000000,0.000000
attitude,0,1511122429752669696.000000,0.000000,-0.000004,-0.000000,0.000000,0.002453,0.001833,-0.002537,0.000000,0.000000,-0.621603,-0.087607,0.022164,0.158638,0,0,0,0,-0.009257,0.006318,-0.145181,0.000000,0.000000,0.000000
highres_imu,0,1511122429755532288.000000,0.000000,-0.000004,-0.000000,0.000000,0.002447,0.002048,-0.000609,0.000000,0.000000,-0.621603,-0.087607,0.022164,0.158638,0,0,0,0,-0.009257,0.006318,-0.145181,0.000000,0.000000,0.000000
highres_imu,0,1511122429762221824.000000,0.000000,-0.000004,-0.000000,0.000000,0.003399,0.002897,0.002578,0.000000,0.000000,-0.621603,-0.087607,0.022164,0.158638,0,0,0,0,-0.009257,0.006318,-0.145181,0.000000,0.000000,0.000000
attitude,0,1511122429763952384.000000,0.000000,-0.000004,-0.000000,0.000000,0.003399,0.002897,0.002578,0.000000,0.000000,-0.621603,-0.087616,0.022168,0.158645,0,0,0,0,-0.009257,0.006318,-0.145181,0.000000,0.000000,0.000000
highres_imu,0,1511122429768799232.000000,0.000000,-0.000004,-0.000000,0.000000,0.003512,0.001939,-0.000823,0.000000,0.000000,-0.621603,-0.087616,0.022168,0.158645,0,0,0,0,-0.009257,0.006318,-0.145181,0.000000,0.000000,0.000000
attitude,0,1511122429774489344.000000,0.000000,-0.000004,-0.000000,0.000000,0.003512,0.001939,-0.000823,0.000000,0.000000,-0.621603,-0.087619,0.022172,0.158638,0,0,0,0,-0.009257,0.006318,-0.145181,0.000000,0.000000,0.000000
highres_imu,0,1511122429777084672.000000,0.000000,-0.000004,-0.000000,0.000000,0.004793,0.002787,0.002254,0.000000,0.000000,-0.621603,-0.087619,0.022172,0.158638,0,0,0,0,-0.009257,0.006318,-0.145181,0.000000,0.000000,0.000000
attitude,0,1511122429784356352.000000,0.000000,-0.000004,-0.000000,0.000000,0.004793,0.002787,0.002254,0.000000,0.000000,-0.621603,-0.087608,0.022174,0.158644,0,0,0,0,-0.009257,0.006318,-0.145181,0.000000,0.000000,0.000000
highres_imu,0,1511122429791464448.000000,0.000000,-0.000004,-0.000000,0.000000,0.003711,0.002790,0.001934,0.000000,0.000000,-0.621603,-0.087608,0.022174,0.158644,0,0,0,0,-0.009257,0.006318,-0.145181,0.000000,0.000000,0.000000
attitude,1,1511122429802946560.000000,0.000000,-0.000004,-0.000000,0.000000,0.003711,0.002790,0.001934,0.000000,0.000000,-0.621603,-0.087615,0.022174,0.158632,0,0,0,0,-0.009257,0.006318,-0.145181,0.000000,0.000000,0.000000
highres_imu,2,1511122429908324608.000000,0.000000,-0.000004,-0.000000,0.000000,-0.000002,0.001833,-0.001162,0.000000,0.000000,-0.621603,-0.087615,0.022174,0.158632,0,0,0,0,-0.009257,0.006318,-0.145181,0.000000,0.000000,0.000000
highres_imu,2,1511122429912848128.000000,0.000000,-0.000004,-0.000000,0.000000,0.003609,0.002786,0.002993,0.000000,0.000000,-0.621603,-0.087615,0.022174,0.158632,0,0,0,0,-0.009257,0.006318,-0.145181,0.000000,0.000000,0.000000
attitude,2,1511122429914349568.000000,0.000000,-0.000004,-0.000000,0.000000,0.003609,0.002786,0.002993,0.000000,0.000000,-0.621603,-0.087618,0.022176,0.158626,0,0,0,0,-0.009257,0.006318,-0.145181,0.000000,0.000000,0.000000
highres_imu,2,1511122429917146368.000000,0.000000,-0.000004,-0.000000,0.000000,0.003824,0.002897,-0.002000,0.000000,0.000000,-0.621603,-0.087618,0.022176,0.158626,0,0,0,0,-0.009257,0.006318,-0.145181,0.000000,0.000000,0.000000
highres_imu,2,1511122429920204800.000000,0.000000,-0.000004,-0.000000,0.000000,0.001159,0.002897,-0.001485,0.000000,0.000000,-0.621603,-0.087618,0.022176,0.158626,0,0,0,0,-0.009257,0.006318,-0.145181,0.000000,0.000000,0.000000
attitude,2,1511122429921721344.000000,0.000000,-0.000004,-0.000000,0.000000,0.001159,0.002897,-0.001485,0.000000,0.000000,-0.621603,-0.087619,0.022182,0.158612,0,0,0,0,-0.009257,0.006318,-0.145181,0.000000,0.000000,0.000000
local_position_ned,2,1511122429925056512.000000,0.000000,-0.000004,-0.000000,0.000000,0.001159,0.002897,-0.001485,0.000000,0.000000,-0.615183,-0.087619,0.022182,0.158612,0,0,0,0,-0.009327,0.005440,-0.144023,0.000000,0.000000,0.000000
highres_imu,2,1511122429929792256.000000,0.000000,-0.000004,-0.000000,0.000000,0.002776,0.001833,-0.002624,0.000000,0.000000,-0.615183,-0.087619,0.022182,0.158612,0,0,0,0,-0.009327,0.005440,-0.144023,0.000000,0.000000,0.000000
attitude,2,1511122429931327488.000000,0.000000,-0.000004,-0.000000,0.000000,0.002776,0.001833,-0.002624,0.000000,0.000000,-0.615183,-0.087608,0.022182,0.158607,0,0,0,0,-0.009327,0.005440,-0.144023,0.000000,0.000000,0.000000
highres_imu,2,1511122429935954176.000000,0.000000,-0.000004,-0.000000,0.000000,0.000534,0.001833,-0.001983,0.000000,0.000000,-0.615183,-0.087608,0.022182,0.158607,0,0,0,0,-0.009327,0.005440,-0.144023,0.000000,0.000000,0.000000
highres_imu,2,1511122429938848000.000000,0.000000,-0.000004,-0.000000,0.000000,0.003194,0.001833,0.000766,0.000000,0.000000,-0.615183,-0.087608,0.022182,0.158607,0,0,0,0,-0.009327,0.005440,-0.144023,0.000000,0.000000,0.000000
highres_imu,2,1511122429943310080.000000,0.000000,-0.000004,-0.000000,0.000000,0.001413,0.001833,-0.003272,0.000000,0.000000,-0.615183,-0.087608,0.022182,0.158607,0,0,0,0,-0.009327,0.005440,-0.144023,0.000000,0.000000,0.000000
attitude,2,1511122429944977920.000000,0.000000,-0.000004,-0.000000,0.000000,0.001413,0.001833,-0.003272,0.000000,0.000000,-0.615183,-0.087620,0.022179,0.158589,0,0,0,0,-0.009327,0.005440,-0.144023,0.000000,0.000000,0.000000
highres_imu,2,1511122429949505536.000000,0.000000,-0.000004,-0.000000,0.000000,0.004676,0.001940,0.001826,0.000000,0.000000,-0.615183,-0.087620,0.022179,0.158589,0,0,0,0,-0.009327,0.005440,-0.144023,0.000000,0.000000,0.000000
highres_imu,2,1511122429961039872.000000,0.000000,-0.000004,-0.000000,0.000000,0.001804,0.002897,0.000448,0.000000,0.000000,-0.615183,-0.087620,0.022179,0.158589,0,0,0,0,-0.009327,0.005440,-0.144023,0.000000,0.000000,0.000000
highres_imu,2,1511122429967412992.000000,0.000000,-0.000004,-0.000000,0.000000,0.002009,0.001833,-0.003062,0.000000,0.000000,-0.615183,-0.087620,0.022179,0.158589,0,0,0,0,-0.009327,0.005440,-0.144023,0.000000,0.000000,0.000000
attitude,2,1511122429968850176.000000,0.000000,-0.000004,-0.000000,0.000000,0.002009,0.001833,-0.003062,0.000000,0.000000,-0.615183,-0.087611,0.022165,0.158491,0,0,0,0,-0.009327,0.005440,-0.144023,0.000000,0.000000,0.000000
highres_imu,2,1511122429974392576.000000,0.000000,-0.000004,-0.000000,0.000000,0.004677,0.002897,-0.000505,0.000000,0.000000,-0.615183,-0.087611,0.022165,0.158491,0,0,0,0,-0.009327,0.005440,-0.144023,0.000000,0.000000,0.000000
highres_imu,2,1511122429978542848.000000,0.000000,-0.000004,-0.000000,0.000000,0.001910,0.002897,-0.004235,0.000000,0.000000,-0.615183,-0.087611,0.022165,0.158491,0,0,0,0,-0.009327,0.005440,-0.144023,0.000000,0.000000,0.000000
attitude,2,1511122429980006400.000000,0.000000,-0.000004,-0.000000,0.000000,0.001910,0.002897,-0.004235,0.000000,0.000000,-0.615183,-0.087607,0.022174,0.158469,0,0,0,0,-0.009327,0.005440,-0.144023,0.000000,0.000000,0.000000
highres_imu,2,1511122429982590976.000000,0.000000,-0.000004,-0.000000,0.000000,0.005313,0.002895,0.000546,0.000000,0.000000,-0.615183,-0.087607,0.022174,0.158469,0,0,0,0,-0.009327,0.005440,-0.144023,0.000000,0.000000,0.000000
highres_imu,2,1511122429996441344.000000,0.000000,-0.000004,-0.000000,0.000000,0.002435,0.002363,-0.002424,0.000000,0.000000,-0.615183,-0.087607,0.022174,0.158469,0,0,0,0,-0.009327,0.005440,-0.144023,0.000000,0.000000,0.000000
attitude,2,1511122429997761536.000000,0.000000,-0.000004,-0.000000,0.000000,0.002435,0.002363,-0.002424,0.000000,0.000000,-0.615183,-0.087600,0.022185,0.158460,0,0,0,0,-0.009327,0.005440,-0.144023,0.000000,0.000000,0.000000
highres_imu,3,1511122430005344512.000000,0.000000,-0.000004,-0.000000,0.000000,0.001801,0.002578,0.000447,0.000000,0.000000,-0.615183,-0.087600,0.022185,0.158460,0,0,0,0,-0.009327,0.005440,-0.144023,0.000000,0.000000,0.000000
highres_imu,3,1511122430015672320.000000,0.000000,-0.000004,-0.000000,0.000000,0.000520,0.000768,-0.002316,0.000000,0.000000,-0.615183,-0.087600,0.022185,0.158460,0,0,0,0,-0.009327,0.005440,-0.144023,0.000000,0.000000,0.000000
highres_imu,4,1511122430120594688.000000,0.000000,-0.000004,-0.000000,0.000000,0.002910,0.001744,0.001851,0.000000,0.000000,-0.615183,-0.087600,0.022185,0.158460,0,0,0,0,-0.009327,0.005440,-0.144023,0.000000,0.000000,0.000000
highres_imu,4,1511122430125328384.000000,0.000000,-0.000004,-0.000000,0.000000,0.004465,0.001833,-0.001570,0.000000,0.000000,-0.615183,-0.087600,0.022185,0.158460,0,0,0,0,-0.009327,0.005440,-0.144023,0.000000,0.000000,0.000000
highres_imu,4,1511122430130124032.000000,0.000000,-0.000004,-0.000000,0.000000,0.003709,0.003423,0.001187,0.000000,0.000000,-0.615183,-0.087600,0.022185,0.158460,0,0,0,0,-0.009327,0.005440,-0.144023,0.000000,0.000000,0.000000
attitude,4,1511122430131579136.000000,0.000000,-0.000004,-0.000000,0.000000,0.003709,0.003423,0.001187,0.000000,0.000000,-0.615183,-0.087597,0.022188,0.158438,0,0,0,0,-0.009327,0.005440,-0.144023,0.000000,0.000000,0.000000
highres_imu,4,1511122430134603520.000000,0.000000,-0.000004,-0.000000,0.000000,0.004140,0.002577,-0.001791,0.000000,0.000000,-0.615183,-0.087597,0.022188,0.158438,0,0,0,0,-0.009327,0.005440,-0.144023,0.000000,0.000000,0.000000
local_position_ned,4,1511122430137696512.000000,0.000000,-0.000004,-0.000000,0.000000,0.004140,0.002577,-0.001791,0.000000,0.000000,-0.611001,-0.087597,0.022188,0.158438,0,0,0,0,-0.008577,0.003542,-0.144185,0.000000,0.000000,0.000000
highres_imu,4,1511122430140628224.000000,0.000000,-0.000004,-0.000000,0.000000,0.000101,0.002046,-0.001148,0.000000,0.000000,-0.611001,-0.087597,0.022188,0.158438,0,0,0,0,-0.008577,0.003542,-0.144185,0.000000,0.000000,0.000000
attitude,4,1511122430142081792.000000,0.000000,-0.000004,-0.000000,0.000000,0.000101,0.002046,-0.001148,0.000000,0.000000,-0.611001,-0.087602,0.022190,0.158423,0,0,0,0,-0.008577,0.003542,-0.144185,0.000000,0.000000,0.000000
highres_imu,4,1511122430146621696.000000,0.000000,-0.000004,-0.000000,0.000000,0.004365,0.002897,-0.001665,0.000000,0.000000,-0.611001,-0.087602,0.022190,0.158423,0,0,0,0,-0.008577,0.003542,-0.144185,0.000000,0.000000,0.000000
highres_imu,4,1511122430151141888.000000,0.000000,-0.000004,-0.000000,0.000000,0.001058,0.002149,-0.000499,0.000000,0.000000,-0.611001,-0.087602,0.022190,0.158423,0,0,0,0,-0.008577,0.003542,-0.144185,0.000000,0.000000,0.000000
attitude,4,1511122430152654336.000000,0.000000,-0.000004,-0.000000,0.000000,0.001058,0.002149,-0.000499,0.000000,0.000000,-0.611001,-0.087595,0.022198,0.158417,0,0,0,0,-0.008577,0.003542,-0.144185,0.000000,0.000000,0.000000
attitude,4,1511122430157094656.000000,0.000000,-0.000004,-0.000000,0.000000,0.001058,0.002149,-0.000499,0.000000,0.000000,-0.611001,-0.087584,0.022194,0.158413,0,0,0,0,-0.008577,0.003542,-0.144185,0.000000,0.000000,0.000000
highres_imu,4,1511122430161535232.000000,0.000000,-0.000004,-0.000000,0.000000,0.004459,0.001833,0.001618,0.000000,0.000000,-0.611001,-0.087584,0.022194,0.158413,0,0,0,0,-0.008577,0.003542,-0.144185,0.000000,0.000000,0.000000
highres_imu,4,1511122430167216896.000000,0.000000,-0.000004,-0.000000,0.000000,0.001590,0.002471,0.000235,0.000000,0.000000,-0.611001,-0.087584,0.022194,0.158413,0,0,0,0,-0.008577,0.003542,-0.144185,0.000000,0.000000,0.000000
attitude,4,1511122430168707072.000000,0.000000,-0.000004,-0.000000,0.000000,0.001590,0.002471,0.000235,0.000000,0.000000,-0.611001,-0.087604,0.022190,0.158325,0,0,0,0,-0.008577,0.003542,-0.144185,0.000000,0.000000,0.000000
highres_imu,4,1511122430173082880.000000,0.000000,-0.000004,-0.000000,0.000000,0.001470,0.001833,-0.002521,0.000000,0.000000,-0.611001,-0.087604,0.022190,0.158325,0,0,0,0,-0.008577,0.003542,-0.144185,0.000000,0.000000,0.000000
highres_imu,4,1511122430177272320.000000,0.000000,-0.000004,-0.000000,0.000000,0.000537,0.001833,-0.000067,0.000000,0.000000,-0.611001,-0.087604,0.022190,0.158325,0,0,0,0,-0.008577,0.003542,-0.144185,0.000000,0.000000,0.000000
attitude,4,1511122430178582528.000000,0.000000,-0.000004,-0.000000,0.000000,0.000537,0.001833,-0.000067,0.000000,0.000000,-0.611001,-0.087609,0.022191,0.158315,0,0,0,0,-0.008577,0.003542,-0.144185,0.000000,0.000000,0.000000
highres_imu,4,1511122430182872320.000000,0.000000,-0.000004,-0.000000,0.000000,0.005100,0.001727,0.000773,0.000000,0.000000,-0.611001,-0.087609,0.022191,0.158315,0,0,0,0,-0.008577,0.003542,-0.144185,0.000000,0.000000,0.000000
highres_imu,4,1511122430187055616.000000,0.000000,-0.000004,-0.000000,0.000000,0.002761,0.000768,-0.003277,0.000000,0.000000,-0.611001,-0.087609,0.022191,0.158315,0,0,0,0,-0.008577,0.003542,-0.144185,0.000000,0.000000,0.000000
attitude,4,1511122430188438016.000000,0.000000,-0.000004,-0.000000,0.000000,0.002761,0.000768,-0.003277,0.000000,0.000000,-0.611001,-0.087598,0.022185,0.158302,0,0,0,0,-0.008577,0.003542,-0.144185,0.000000,0.000000,0.000000
highres_imu,4,1511122430190978048.000000,0.000000,-0.000004,-0.000000,0.000000,0.002541,0.002042,0.000122,0.000000,0.000000,-0.611001,-0.087598,0.022185,0.158302,0,0,0,0,-0.008577,0.003542,-0.144185,0.000000,0.000000,0.000000
highres_imu,4,1511122430195200768.000000,0.000000,-0.000004,-0.000000,0.000000,0.001905,0.001938,-0.003383,0.000000,0.000000,-0.611001,-0.087598,0.022185,0.158302,0,0,0,0,-0.008577,0.003542,-0.144185,0.000000,0.000000,0.000000
attitude,4,1511122430196492544.000000,0.000000,-0.000004,-0.000000,0.000000,0.001905,0.001938,-0.003383,0.000000,0.000000,-0.611001,-0.087587,0.022188,0.158283,0,0,0,0,-0.008577,0.003542,-0.144185,0.000000,0.000000,0.000000
highres_imu,5,1511122430203527936.000000,0.000000,-0.000004,-0.000000,0.000000,0.001266,0.002468,0.001187,0.000000,0.000000,-0.611001,-0.087587,0.022188,0.158283,0,0,0,0,-0.008577,0.003542,-0.144185,0.000000,0.000000,0.000000
highres_imu,5,1511122430219224832.000000,0.000000,-0.000004,-0.000000,0.000000,0.005222,0.002897,0.000871,0.000000,0.000000,-0.611001,-0.087587,0.022188,0.158283,0,0,0,0,-0.008577,0.003542,-0.144185,0.000000,0.000000,0.000000
attitude,5,1511122430220562944.000000,0.000000,-0.000004,-0.000000,0.000000,0.005222,0.002897,0.000871,0.000000,0.000000,-0.611001,-0.087574,0.022194,0.158276,0,0,0,0,-0.008577,0.003542,-0.144185,0.000000,0.000000,0.000000
highres_imu,5,1511122430223260928.000000,0.000000,-0.000004,-0.000000,0.000000,0.001917,0.001940,-0.003279,0.000000,0.000000,-0.611001,-0.087574,0.022194,0.158276,0,0,0,0,-0.008577,0.003542,-0.144185,0.000000,0.000000,0.000000
highres_imu,5,1511122430227709696.000000,0.000000,-0.000004,-0.000000,0.000000,0.001583,0.001833,-0.001049,0.000000,0.000000,-0.611001,-0.087574,0.022194,0.158276,0,0,0,0,-0.008577,0.003542,-0.144185,0.000000,0.000000,0.000000
attitude,5,1511122430229317376.000000,0.000000,-0.000004,-0.000000,0.000000,0.001583,0.001833,-0.001049,0.000000,0.000000,-0.611001,-0.087581,0.022192,0.158255,0,0,0,0,-0.008577,0.003542,-0.144185,0.000000,0.000000,0.000000
highres_imu,5,1511122430233801984.000000,0.000000,-0.000004,-0.000000,0.000000,0.000830,0.001509,-0.003383,0.000000,0.000000,-0.611001,-0.087581,0.022192,0.158255,0,0,0,0,-0.008577,0.003542,-0.144185,0.000000,0.000000,0.000000
local_position_ned,5,1511122430236794880.000000,0.000000,-0.000004,-0.000000,0.000000,0.000830,0.001509,-0.003383,0.000000,0.000000,-0.612542,-0.087581,0.022192,0.158255,0,0,0,0,-0.007863,0.003729,-0.144442,0.000000,0.000000,0.000000
highres_imu,5,1511122430239470336.000000,0.000000,-0.000004,-0.000000,0.000000,0.000541,0.001408,0.000776,0.000000,0.000000,-0.612542,-0.087581,0.022192,0.158255,0,0,0,0,-0.007863,0.003729,-0.144442,0.000000,0.000000,0.000000
attitude,5,1511122430240866560.000000,0.000000,-0.000004,-0.000000,0.000000,0.000541,0.001408,0.000776,0.000000,0.000000,-0.612542,-0.087588,0.022187,0.158242,0,0,0,0,-0.007863,0.003729,-0.144442,0.000000,0.000000,0.000000
highres_imu,5,1511122430254650112.000000,0.000000,-0.000004,-0.000000,0.000000,0.003930,0.001833,0.001717,0.000000,0.000000,-0.612542,-0.087588,0.022187,0.158242,0,0,0,0,-0.007863,0.003729,-0.144442,0.000000,0.000000,0.000000
attitude,5,1511122430257496576.000000,0.000000,-0.000004,-0.000000,0.000000,0.003930,0.001833,0.001717,0.000000,0.000000,-0.612542,-0.087589,0.022186,0.158238,0,0,0,0,-0.007863,0.003729,-0.144442,0.000000,0.000000,0.000000
highres_imu,5,1511122430260176384.000000,0.000000,-0.000004,-0.000000,0.000000,0.001166,0.001833,-0.002002,0.000000,0.000000,-0.612542,-0.087589,0.022186,0.158238,0,0,0,0,-0.007863,0.003729,-0.144442,0.000000,0.000000,0.000000
highres_imu,5,1511122430262678528.000000,0.000000,-0.000004,-0.000000,0.000000,0.000738,0.002044,0.001083,0.000000,0.000000,-0.612542,-0.087589,0.022186,0.158238,0,0,0,0,-0.007863,0.003729,-0.144442,0.000000,0.000000,0.000000
highres_imu,5,1511122430267080192.000000,0.000000,-0.000004,-0.000000,0.000000,0.001464,0.002159,-0.000723,0.000000,0.000000,-0.612542,-0.087589,0.022186,0.158238,0,0,0,0,-0.007863,0.003729,-0.144442,0.000000,0.000000,0.000000
attitude,5,1511122430268567296.000000,0.000000,-0.000004,-0.000000,0.000000,0.001464,0.002159,-0.000723,0.000000,0.000000,-0.612542,-0.087595,0.022188,0.158242,0,0,0,0,-0.007863,0.003729,-0.144442,0.000000,0.000000,0.000000
highres_imu,5,1511122430271123456.000000,0.000000,-0.000004,-0.000000,0.000000,0.001815,0.002042,0.001524,0.000000,0.000000,-0.612542,-0.087595,0.022188,0.158242,0,0,0,0,-0.007863,0.003729,-0.144442,0.000000,0.000000,0.000000
attitude,5,1511122430275270400.000000,0.000000,-0.000004,-0.000000,0.000000,0.001815,0.002042,0.001524,0.000000,0.000000,-0.612542,-0.087592,0.022191,0.158250,0,0,0,0,-0.007863,0.003729,-0.144442,0.000000,0.000000,0.000000
highres_imu,5,1511122430278215168.000000,0.000000,-0.000004,-0.000000,0.000000,0.000532,0.002689,-0.002421,0.000000,0.000000,-0.612542,-0.087592,0.022191,0.158250,0,0,0,0,-0.007863,0.003729,-0.144442,0.000000,0.000000,0.000000
highres_imu,5,1511122430287536896.000000,0.000000,-0.000004,-0.000000,0.000000,0.004041,0.001833,-0.001778,0.000000,0.000000,-0.612542,-0.087592,0.022191,0.158250,0,0,0,0,-0.007863,0.003729,-0.144442,0.000000,0.000000,0.000000
highres_imu,5,1511122430291507968.000000,0.000000,-0.000004,-0.000000,0.000000,0.001489,0.001833,-0.002429,0.000000,0.000000,-0.612542,-0.087592,0.022191,0.158250,0,0,0,0,-0.007863,0.003729,-0.144442,0.000000,0.000000,0.000000
attitude,5,1511122430292813824.000000,0.000000,-0.000004,-0.000000,0.000000,0.001489,0.001833,-0.002429,0.000000,0.000000,-0.612542,-0.087562,0.022182,0.158162,0,0,0,0,-0.007863,0.003729,-0.144442,0.000000,0.000000,0.000000
highres_imu,5,1511122430296850176.000000,0.000000,-0.000004,-0.000000,0.000000,0.004038,0.002045,0.001299,0.000000,0.000000,-0.612542,-0.087562,0.022182,0.158162,0,0,0,0,-0.007863,0.003729,-0.144442,0.000000,0.000000,0.000000
attitude,5,1511122430299799552.000000,0.000000,-0.000004,-0.000000,0.000000,0.004038,0.002045,0.001299,0.000000,0.000000,-0.612542,-0.087552,0.022182,0.158159,0,0,0,0,-0.007863,0.003729,-0.144442,0.000000,0.000000,0.000000
highres_imu,5,1511122430302447616.000000,0.000000,-0.000004,-0.000000,0.000000,0.001049,0.001833,-0.002676,0.000000,0.000000,-0.612542,-0.087552,0.022182,0.158159,0,0,0,0,-0.007863,0.003729,-0.144442,0.000000,0.000000,0.000000
highres_imu,6,1511122430306584576.000000,0.000000,-0.000004,-0.000000,0.000000,0.003294,0.001833,-0.001571,0.000000,0.000000,-0.612542,-0.087552,0.022182,0.158159,0,0,0,0,-0.007863,0.003729,-0.144442,0.000000,0.000000,0.000000
attitude,6,1511122430307905024.000000,0.000000,-0.000004,-0.000000,0.000000,0.003294,0.001833,-0.001571,0.000000,0.000000,-0.612542,-0.087550,0.022180,0.158151,0,0,0,0,-0.007863,0.003729,-0.144442,0.000000,0.000000,0.000000
highres_imu,6,1511122430313466880.000000,0.000000,-0.000004,-0.000000,0.000000,0.000422,0.002789,-0.001894,0.000000,0.000000,-0.612542,-0.087550,0.022180,0.158151,0,0,0,0,-0.007863,0.003729,-0.144442,0.000000,0.000000,0.000000
attitude,6,1511122430316289792.000000,0.000000,-0.000004,-0.000000,0.000000,0.000422,0.002789,-0.001894,0.000000,0.000000,-0.612542,-0.087555,0.022183,0.158147,0,0,0,0,-0.007863,0.003729,-0.144442,0.000000,0.000000,0.000000
highres_imu,6,1511122430335882240.000000,0.000000,-0.000004,-0.000000,0.000000,0.001590,0.002373,-0.001646,0.000000,0.000000,-0.612542,-0.087555,0.022183,0.158147,0,0,0,0,-0.007863,0.003729,-0.144442,0.000000,0.000000,0.000000
attitude,6,1511122430338887168.000000,0.000000,-0.000004,-0.000000,0.000000,0.001590,0.002373,-0.001646,0.000000,0.000000,-0.612542,-0.087558,0.022172,0.158125,0,0,0,0,-0.007863,0.003729,-0.144442,0.000000,0.000000,0.000000
highres_imu,6,1511122430341528832.000000,0.000000,-0.000004,-0.000000,0.000000,0.004145,0.001833,-0.002532,0.000000,0.000000,-0.612542,-0.087558,0.022172,0.158125,0,0,0,0,-0.007863,0.003729,-0.144442,0.000000,0.000000,0.000000
local_position_ned,6,1511122430344763904.000000,0.000000,-0.000004,-0.000000,0.000000,0.004145,0.001833,-0.002532,0.000000,0.000000,-0.614232,-0.087558,0.022172,0.158125,0,0,0,0,-0.008645,0.004500,-0.143263,0.000000,0.000000,0.000000
highres_imu,6,1511122430347290880.000000,0.000000,-0.000004,-0.000000,0.000000,0.000845,0.001833,-0.002221,0.000000,0.000000,-0.614232,-0.087558,0.022172,0.158125,0,0,0,0,-0.008645,0.004500,-0.143263,0.000000,0.000000,0.000000
attitude,6,1511122430348849664.000000,0.000000,-0.000004,-0.000000,0.000000,0.000845,0.001833,-0.002221,0.000000,0.000000,-0.614232,-0.087553,0.022172,0.158113,0,0,0,0,-0.008645,0.004500,-0.143263,0.000000,0.000000,0.000000
highres_imu,6,1511122430352841984.000000,0.000000,-0.000004,-0.000000,0.000000,0.003179,0.001726,-0.002967,0.000000,0.000000,-0.614232,-0.087553,0.022172,0.158113,0,0,0,0,-0.008645,0.004500,-0.143263,0.000000,0.000000,0.000000
attitude,6,1511122430355890432.000000,0.000000,-0.000004,-0.000000,0.000000,0.003179,0.001726,-0.002967,0.000000,0.000000,-0.614232,-0.087542,0.022174,0.158108,0,0,0,0,-0.008645,0.004500,-0.143263,0.000000,0.000000,0.000000
highres_imu,6,1511122430358749952.000000,0.000000,-0.000004,-0.000000,0.000000,0.004673,0.001726,0.001938,0.000000,0.000000,-0.614232,-0.087542,0.022174,0.158108,0,0,0,0,-0.008645,0.004500,-0.143263,0.000000,0.000000,0.000000
highres_imu,6,1511122430363543296.000000,0.000000,-0.000004,-0.000000,0.000000,0.003203,0.001189,-0.001244,0.000000,0.000000,-0.614232,-0.087542,0.022174,0.158108,0,0,0,0,-0.008645,0.004500,-0.143263,0.000000,0.000000,0.000000
attitude,6,1511122430364894976.000000,0.000000,-0.000004,-0.000000,0.000000,0.003203,0.001189,-0.001244,0.000000,0.000000,-0.614232,-0.087538,0.022169,0.158111,0,0,0,0,-0.008645,0.004500,-0.143263,0.000000,0.000000,0.000000
highres_imu,6,1511122430375652352.000000,0.000000,-0.000004,-0.000000,0.000000,-0.000655,0.002358,-0.000319,0.000000,0.000000,-0.614232,-0.087538,0.022169,0.158111,0,0,0,0,-0.008645,0.004500,-0.143263,0.000000,0.000000,0.000000
attitude,6,1511122430376974592.000000,0.000000,-0.000004,-0.000000,0.000000,-0.000655,0.002358,-0.000319,0.000000,0.000000,-0.614232,-0.087556,0.022167,0.158157,0,0,0,0,-0.008645,0.004500,-0.143263,0.000000,0.000000,0.000000
highres_imu,6,1511122430383080192.000000,0.000000,-0.000004,-0.000000,0.000000,0.003197,0.001833,0.001300,0.000000,0.000000,-0.614232,-0.087556,0.022167,0.158157,0,0,0,0,-0.008645,0.004500,-0.143263,0.000000,0.000000,0.000000
highres_imu,6,1511122430387367168.000000,0.000000,-0.000004,-0.000000,0.000000,0.000956,0.001199,-0.002638,0.000000,0.000000,-0.614232,-0.087556,0.022167,0.158157,0,0,0,0,-0.008645,0.004500,-0.143263,0.000000,0.000000,0.000000
highres_imu,6,1511122430392079360.000000,0.000000,-0.000004,-0.000000,0.000000,0.001481,0.001089,-0.000089,0.000000,0.000000,-0.614232,-0.087556,0.022167,0.158157,0,0,0,0,-0.008645,0.004500,-0.143263,0.000000,0.000000,0.000000
highres_imu,6,1511122430396037376.000000,0.000000,-0.000004,-0.000000,0.000000,0.001144,0.001517,-0.002306,0.000000,0.000000,-0.614232,-0.087556,0.022167,0.158157,0,0,0,0,-0.008645,0.004500,-0.143263,0.000000,0.000000,0.000000
attitude,6,1511122430397467136.000000,0.000000,-0.000004,-0.000000,0.000000,0.001144,0.001517,-0.002306,0.000000,0.000000,-0.614232,-0.087563,0.022160,0.158161,0,0,0,0,-0.008645,0.004500,-0.143263,0.000000,0.000000,0.000000
highres_imu,6,1511122430400212480.000000,0.000000,-0.000004,-0.000000,0.000000,0.001493,0.001617,0.000765,0.000000,0.000000,-0.614232,-0.087563,0.022160,0.158161,0,0,0,0,-0.008645,0.004500,-0.143263,0.000000,0.000000,0.000000
highres_imu,7,1511122430404775168.000000,0.000000,-0.000004,-0.000000,0.000000,0.004570,0.001833,0.002154,0.000000,0.000000,-0.614232,-0.087563,0.022160,0.158161,0,0,0,0,-0.008645,0.004500,-0.143263,0.000000,0.000000,0.000000
attitude,7,1511122430406092032.000000,0.000000,-0.000004,-0.000000,0.000000,0.004570,0.001833,0.002154,0.000000,0.000000,-0.614232,-0.087559,0.022159,0.158178,0,0,0,0,-0.008645,0.004500,-0.143263,0.000000,0.000000,0.000000
highres_imu,7,1511122430413116160.000000,0.000000,-0.000004,-0.000000,0.000000,0.001803,0.002791,0.000554,0.000000,0.000000,-0.614232,-0.087559,0.022159,0.158178,0,0,0,0,-0.008645,0.004500,-0.143263,0.000000,0.000000,0.000000
highres_imu,7,1511122430421482752.000000,0.000000,-0.000004,-0.000000,0.000000,0.005624,0.002144,-0.000013,0.000000,0.000000,-0.614232,-0.087559,0.022159,0.158178,0,0,0,0,-0.008645,0.004500,-0.143263,0.000000,0.000000,0.000000
attitude,7,1511122430422802944.000000,0.000000,-0.000004,-0.000000,0.000000,0.005624,0.002144,-0.000013,0.000000,0.000000,-0.614232,-0.087553,0.022162,0.158184,0,0,0,0,-0.008645,0.004500,-0.143263,0.000000,0.000000,0.000000
highres_imu,8,1511122430534666752.000000,0.000000,-0.000004,-0.000000,0.000000,0.001479,0.002466,0.001178,0.000000,0.000000,-0.614232,-0.087553,0.022162,0.158184,0,0,0,0,-0.008645,0.004500,-0.143263,0.000000,0.000000,0.000000
attitude,8,1511122430536265984.000000,0.000000,-0.000004,-0.000000,0.000000,0.001479,0.002466,0.001178,0.000000,0.000000,-0.614232,-0.087554,0.022162,0.158173,0,0,0,0,-0.008645,0.004500,-0.143263,0.000000,0.000000,0.000000
highres_imu,8,1511122430538988288.000000,0.000000,-0.000004,-0.000000,0.000000,0.003184,0.002155,0.001305,0.000000,0.000000,-0.614232,-0.087554,0.022162,0.158173,0,0,0,0,-0.008645,0.004500,-0.143263,0.000000,0.000000,0.000000
local_position_ned,8,1511122430542279936.000000,0.000000,-0.000004,-0.000000,0.000000,0.003184,0.002155,0.001305,0.000000,0.000000,-0.607755,-0.087554,0.022162,0.158173,0,0,0,0,-0.008869,0.005032,-0.141341,0.000000,0.000000,0.000000
highres_imu,8,1511122430545197824.000000,0.000000,-0.000004,-0.000000,0.000000,-0.000216,0.001086,-0.000617,0.000000,0.000000,-0.607755,-0.087554,0.022162,0.158173,0,0,0,0,-0.008869,0.005032,-0.141341,0.000000,0.000000,0.000000
attitude,8,1511122430546657536.000000,0.000000,-0.000004,-0.000000,0.000000,-0.000216,0.001086,-0.000617,0.000000,0.000000,-0.607755,-0.087563,0.022160,0.158185,0,0,0,0,-0.008869,0.005032,-0.141341,0.000000,0.000000,0.000000
highres_imu,8,1511122430550980352.000000,0.000000,-0.000004,-0.000000,0.000000,0.003293,0.001833,0.001087,0.000000,0.000000,-0.607755,-0.087563,0.022160,0.158185,0,0,0,0,-0.008869,0.005032,-0.141341,0.000000,0.000000,0.000000
attitude,8,1511122430552634112.000000,0.000000,-0.000004,-0.000000,0.000000,0.003293,0.001833,0.001087,0.000000,0.000000,-0.607755,-0.087562,0.022163,0.158202,0,0,0,0,-0.008869,0.005032,-0.141341,0.000000,0.000000,0.000000
highres_imu,8,1511122430557167104.000000,0.000000,-0.000004,-0.000000,0.000000,-0.000006,0.001833,-0.002532,0.000000,0.000000,-0.607755,-0.087562,0.022163,0.158202,0,0,0,0,-0.008869,0.005032,-0.141341,0.000000,0.000000,0.000000
highres_imu,8,1511122430560156416.000000,0.000000,-0.000004,-0.000000,0.000000,0.001469,0.003102,0.000972,0.000000,0.000000,-0.607755,-0.087562,0.022163,0.158202,0,0,0,0,-0.008869,0.005032,-0.141341,0.000000,0.000000,0.000000
highres_imu,8,1511122430564388352.000000,0.000000,-0.000004,-0.000000,0.000000,0.004154,0.003110,0.000356,0.000000,0.000000,-0.607755,-0.087562,0.022163,0.158202,0,0,0,0,-0.008869,0.005032,-0.141341,0.000000,0.000000,0.000000
attitude,8,1511122430566194176.000000,0.000000,-0.000004,-0.000000,0.000000,0.004154,0.003110,0.000356,0.000000,0.000000,-0.607755,-0.087570,0.022172,0.158208,0,0,0,0,-0.008869,0.005032,-0.141341,0.000000,0.000000,0.000000
highres_imu,8,1511122430570818816.000000,0.000000,-0.000004,-0.000000,0.000000,0.002855,0.003433,0.001721,0.000000,0.000000,-0.607755,-0.087570,0.022172,0.158208,0,0,0,0,-0.008869,0.005032,-0.141341,0.000000,0.000000,0.000000
attitude,8,1511122430573987584.000000,0.000000,-0.000004,-0.000000,0.000000,0.002855,0.003433,0.001721,0.000000,0.000000,-0.607755,-0.087574,0.022182,0.158215,0,0,0,0,-0.008869,0.005032,-0.141341,0.000000,0.000000,0.000000
highres_imu,8,1511122430576951552.000000,0.000000,-0.000004,-0.000000,0.000000,0.001703,0.002144,-0.001569,0.000000,0.000000,-0.607755,-0.087574,0.022182,0.158215,0,0,0,0,-0.008869,0.005032,-0.141341,0.000000,0.000000,0.000000
attitude,8,1511122430580131328.000000,0.000000,-0.000004,-0.000000,0.000000,0.001703,0.002144,-0.001569,0.000000,0.000000,-0.607755,-0.087567,0.022185,0.158228,0,0,0,0,-0.008869,0.005032,-0.141341,0.000000,0.000000,0.000000
attitude,8,1511122430586405120.000000,0.000000,-0.000004,-0.000000,0.000000,0.001703,0.002144,-0.001569,0.000000,0.000000,-0.607755,-0.087577,0.022166,0.158308,0,0,0,0,-0.008869,0.005032,-0.141341,0.000000,0.000000,0.000000
highres_imu,8,1511122430590908672.000000,0.000000,-0.000004,-0.000000,0.000000,0.002764,0.003005,0.001610,0.000000,0.000000,-0.607755,-0.087577,0.022166,0.158308,0,0,0,0,-0.008869,0.005032,-0.141341,0.000000,0.000000,0.000000
highres_imu,8,1511122430595062272.000000,0.000000,-0.000004,-0.000000,0.000000,0.002216,0.002897,-0.001906,0.000000,0.000000,-0.607755,-0.087577,0.022166,0.158308,0,0,0,0,-0.008869,0.005032,-0.141341,0.000000,0.000000,0.000000
attitude,8,1511122430596484352.000000,0.000000,-0.000004,-0.000000,0.000000,0.002216,0.002897,-0.001906,0.000000,0.000000,-0.607755,-0.087578,0.022174,0.158317,0,0,0,0,-0.008869,0.005032,-0.141341,0.000000,0.000000,0.000000
highres_imu,8,1511122430600437248.000000,0.000000,-0.000004,-0.000000,0.000000,0.004344,0.002897,0.000773,0.000000,0.000000,-0.607755,-0.087578,0.022174,0.158317,0,0,0,0,-0.008869,0.005032,-0.141341,0.000000,0.000000,0.000000
attitude,8,1511122430603534848.000000,0.000000,-0.000004,-0.000000,0.000000,0.004344,0.002897,0.000773,0.000000,0.000000,-0.607755,-0.087579,0.022181,0.158325,0,0,0,0,-0.008869,0.005032,-0.141341,0.000000,0.000000,0.000000
highres_imu,9,1511122430606122496.000000,0.000000,-0.000004,-0.000000,0.000000,0.001173,0.001306,-0.001355,0.000000,0.000000,-0.607755,-0.087579,0.022181,0.158325,0,0,0,0,-0.008869,0.005032,-0.141341,0.000000,0.000000,0.000000
highres_imu,9,1511122430610176256.000000,0.000000,-0.000004,-0.000000,0.000000,0.004067,0.002471,0.001300,0.000000,0.000000,-0.607755,-0.087579,0.022181,0.158325,0,0,0,0,-0.008869,0.005032,-0.141341,0.000000,0.000000,0.000000
attitude,9,1511122430611493120.000000,0.000000,-0.000004,-0.000000,0.000000,0.004067,0.002471,0.001300,0.000000,0.000000,-0.607755,-0.087575,0.022178,0.158333,0,0,0,0,-0.008869,0.005032,-0.141341,0.000000,0.000000,0.000000
highres_imu,9,1511122430618678528.000000,0.000000,-0.000004,-0.000000,0.000000,0.000842,0.001833,-0.001371,0.000000,0.000000,-0.607755,-0.087575,0.022178,0.158333,0,0,0,0,-0.008869,0.005032,-0.141341,0.000000,0.000000,0.000000
highres_imu,9,1511122430635905792.000000,0.000000,-0.000004,-0.000000,0.000000,0.001256,0.001833,-0.000523,0.000000,0.000000,-0.607755,-0.087575,0.022178,0.158333,0,0,0,0,-0.008869,0.005032,-0.141341,0.000000,0.000000,0.000000
attitude,9,1511122430637401856.000000,0.000000,-0.000004,-0.000000,0.000000,0.001256,0.001833,-0.000523,0.000000,0.000000,-0.607755,-0.087579,0.022178,0.158345,0,0,0,0,-0.008869,0.005032,-0.141341,0.000000,0.000000,0.000000
highres_imu,9,1511122430640205312.000000,0.000000,-0.000004,-0.000000,0.000000,0.005419,0.002046,0.000876,0.000000,0.000000,-0.607755,-0.087579,0.022178,0.158345,0,0,0,0,-0.008869,0.005032,-0.141341,0.000000,0.000000,0.000000
local_position_ned,9,1511122430642983936.000000,0.000000,-0.000004,-0.000000,0.000000,0.005419,0.002046,0.000876,0.000000,0.000000,-0.608147,-0.087579,0.022178,0.158345,0,0,0,0,-0.010215,0.005273,-0.141605,0.000000,0.000000,0.000000
highres_imu,9,1511122430645544448.000000,0.000000,-0.000004,-0.000000,0.000000,0.002642,0.001938,-0.002644,0.000000,0.000000,-0.608147,-0.087579,0.022178,0.158345,0,0,0,0,-0.010215,0.005273,-0.141605,0.000000,0.000000,0.000000
attitude,9,1511122430646850560.000000,0.000000,-0.000004,-0.000000,0.000000,0.002642,0.001938,-0.002644,0.000000,0.000000,-0.608147,-0.087568,0.022177,0.158348,0,0,0,0,-0.010215,0.005273,-0.141605,0.000000,0.000000,0.000000
highres_imu,9,1511122430651015936.000000,0.000000,-0.000004,-0.000000,0.000000,0.004354,0.001304,0.001621,0.000000,0.000000,-0.608147,-0.087568,0.022177,0.158348,0,0,0,0,-0.010215,0.005273,-0.141605,0.000000,0.000000,0.000000
attitude,9,1511122430653878272.000000,0.000000,-0.000004,-0.000000,0.000000,0.004354,0.001304,0.001621,0.000000,0.000000,-0.608147,-0.087566,0.022176,0.158360,0,0,0,0,-0.010215,0.005273,-0.141605,0.000000,0.000000,0.000000
highres_imu,9,1511122430656644352.000000,0.000000,-0.000004,-0.000000,0.000000,0.001271,0.002046,-0.000298,0.000000,0.000000,-0.608147,-0.087566,0.022176,0.158360,0,0,0,0,-0.010215,0.005273,-0.141605,0.000000,0.000000,0.000000
attitude,9,1511122430659379456.000000,0.000000,-0.000004,-0.000000,0.000000,0.001271,0.002046,-0.000298,0.000000,0.000000,-0.608147,-0.087564,0.022179,0.158374,0,0,0,0,-0.010215,0.005273,-0.141605,0.000000,0.000000,0.000000
highres_imu,9,1511122430662122240.000000,0.000000,-0.000004,-0.000000,0.000000,0.004572,0.002897,0.001076,0.000000,0.000000,-0.608147,-0.087564,0.022179,0.158374,0,0,0,0,-0.010215,0.005273,-0.141605,0.000000,0.000000,0.000000
highres_imu,9,1511122430666323712.000000,0.000000,-0.000004,-0.000000,0.000000,0.000101,0.002259,0.000342,0.000000,0.000000,-0.608147,-0.087564,0.022179,0.158374,0,0,0,0,-0.010215,0.005273,-0.141605,0.000000,0.000000,0.000000
attitude,9,1511122430669129216.000000,0.000000,-0.000004,-0.000000,0.000000,0.000101,0.002259,0.000342,0.000000,0.000000,-0.608147,-0.087576,0.022181,0.158378,0,0,0,0,-0.010215,0.005273,-0.141605,0.000000,0.000000,0.000000
highres_imu,9,1511122430671671040.000000,0.000000,-0.000004,-0.000000,0.000000,0.002345,0.002897,-0.002107,0.000000,0.000000,-0.608147,-0.087576,0.022181,0.158378,0,0,0,0,-0.010215,0.005273,-0.141605,0.000000,0.000000,0.000000
highres_imu,9,1511122430675820544.000000,0.000000,-0.000004,-0.000000,0.000000,0.000857,0.002897,-0.000181,0.000000,0.000000,-0.608147,-0.087576,0.022181,0.158378,0,0,0,0,-0.010215,0.005273,-0.141605,0.000000,0.000000,0.000000
attitude,9,1511122430677271296.000000,0.000000,-0.000004,-0.000000,0.000000,0.000857,0.002897,-0.000181,0.000000,0.000000,-0.608147,-0.087575,0.022192,0.158386,0,0,0,0,-0.010215,0.005273,-0.141605,0.000000,0.000000,0.000000
highres_imu,9,1511122430681657600.000000,0.000000,-0.000004,-0.000000,0.000000,0.002874,0.002256,-0.001999,0.000000,0.000000,-0.608147,-0.087575,0.022192,0.158386,0,0,0,0,-0.010215,0.005273,-0.141605,0.000000,0.000000,0.000000
highres_imu,9,1511122430685706240.000000,0.000000,-0.000004,-0.000000,0.000000,0.001802,0.001939,-0.000192,0.000000,0.000000,-0.608147,-0.087575,0.022192,0.158386,0,0,0,0,-0.010215,0.005273,-0.141605,0.000000,0.000000,0.000000
attitude,9,1511122430687009792.000000,0.000000,-0.000004,-0.000000,0.000000,0.001802,0.001939,-0.000192,0.000000,0.000000,-0.608147,-0.087567,0.022194,0.158397,0,0,0,0,-0.010215,0.005273,-0.141605,0.000000,0.000000,0.000000
highres_imu,9,1511122430689789440.000000,0.000000,-0.000004,-0.000000,0.000000,0.004996,0.002684,0.001193,0.000000,0.000000,-0.608147,-0.087567,0.022194,0.158397,0,0,0,0,-0.010215,0.005273,-0.141605,0.000000,0.000000,0.000000
highres_imu,9,1511122430694222336.000000,0.000000,-0.000004,-0.000000,0.000000,0.001059,0.002366,-0.000299,0.000000,0.000000,-0.608147,-0.087567,0.022194,0.158397,0,0,0,0,-0.010215,0.005273,-0.141605,0.000000,0.000000,0.000000
attitude,9,1511122430695563520.000000,0.000000,-0.000004,-0.000000,0.000000,0.001059,0.002366,-0.000299,0.000000,0.000000,-0.608147,-0.087563,0.022199,0.158403,0,0,0,0,-0.010215,0.005273,-0.141605,0.000000,0.000000,0.000000
highres_imu,9,1511122430702670592.000000,0.000000,-0.000004,-0.000000,0.000000,0.004251,0.002789,0.001508,0.000000,0.000000,-0.608147,-0.087563,0.022199,0.158403,0,0,0,0,-0.010215,0.005273,-0.141605,0.000000,0.000000,0.000000
highres_imu,11,1511122430813966336.000000,0.000000,-0.000004,-0.000000,0.000000,0.000627,0.001833,-0.001364,0.000000,0.000000,-0.608147,-0.087563,0.022199,0.158403,0,0,0,0,-0.010215,0.005273,-0.141605,0.000000,0.000000,0.000000
attitude,11,1511122430815348480.000000,0.000000,-0.000004,-0.000000,0.000000,0.000627,0.001833,-0.001364,0.000000,0.000000,-0.608147,-0.087564,0.022202,0.158412,0,0,0,0,-0.010215,0.005273,-0.141605,0.000000,0.000000,0.000000
highres_imu,11,1511122430823536896.000000,0.000000,-0.000004,-0.000000,0.000000,0.000836,0.002254,0.000438,0.000000,0.000000,-0.608147,-0.087564,0.022202,0.158412,0,0,0,0,-0.010215,0.005273,-0.141605,0.000000,0.000000,0.000000
attitude,11,1511122430826664960.000000,0.000000,-0.000004,-0.000000,0.000000,0.000836,0.002254,0.000438,0.000000,0.000000,-0.608147,-0.087563,0.022207,0.158425,0,0,0,0,-0.010215,0.005273,-0.141605,0.000000,0.000000,0.000000
highres_imu,11,1511122430833726976.000000,0.000000,-0.000004,-0.000000,0.000000,0.002439,0.001833,0.001830,0.000000,0.000000,-0.608147,-0.087563,0.022207,0.158425,0,0,0,0,-0.010215,0.005273,-0.141605,0.000000,0.000000,0.000000
highres_imu,11,1511122430839834112.000000,0.000000,-0.000004,-0.000000,0.000000,0.000953,0.001936,-0.002322,0.000000,0.000000,-0.608147,-0.087563,0.022207,0.158425,0,0,0,0,-0.010215,0.005273,-0.141605,0.000000,0.000000,0.000000
attitude,11,1511122430841452032.000000,0.000000,-0.000004,-0.000000,0.000000,0.000953,0.001936,-0.002322,0.000000,0.000000,-0.608147,-0.087573,0.022237,0.158495,0,0,0,0,-0.010215,0.005273,-0.141605,0.000000,0.000000,0.000000
highres_imu,11,1511122430844241664.000000,0.000000,-0.000004,-0.000000,0.000000,0.004889,0.002365,0.000447,0.000000,0.000000,-0.608147,-0.087573,0.022237,0.158495,0,0,0,0,-0.010215,0.005273,-0.141605,0.000000,0.000000,0.000000
local_position_ned,11,1511122430847320576.000000,0.000000,-0.000004,-0.000000,0.000000,0.004889,0.002365,0.000447,0.000000,0.000000,-0.605616,-0.087573,0.022237,0.158495,0,0,0,0,-0.010389,0.005904,-0.141222,0.000000,0.000000,0.000000
attitude,11,1511122430848773120.000000,0.000000,-0.000004,-0.000000,0.000000,0.004889,0.002365,0.000447,0.000000,0.000000,-0.605616,-0.087569,0.022245,0.158506,0,0,0,0,-0.010389,0.005904,-0.141222,0.000000,0.000000,0.000000
highres_imu,11,1511122430851671296.000000,0.000000,-0.000004,-0.000000,0.000000,0.001167,0.001513,-0.002322,0.000000,0.000000,-0.605616,-0.087569,0.022245,0.158506,0,0,0,0,-0.010389,0.005904,-0.141222,0.000000,0.000000,0.000000
attitude,11,1511122430854773760.000000,0.000000,-0.000004,-0.000000,0.000000,0.001167,0.001513,-0.002322,0.000000,0.000000,-0.605616,-0.087571,0.022243,0.158508,0,0,0,0,-0.010389,0.005904,-0.141222,0.000000,0.000000,0.000000
highres_imu,11,1511122430859349760.000000,0.000000,-0.000004,-0.000000,0.000000,0.000741,0.000875,-0.003488,0.000000,0.000000,-0.605616,-0.087571,0.022243,0.158508,0,0,0,0,-0.010389,0.005904,-0.141222,0.000000,0.000000,0.000000
highres_imu,11,1511122430862312960.000000,0.000000,-0.000004,-0.000000,0.000000,0.002763,0.002472,0.001194,0.000000,0.000000,-0.605616,-0.087571,0.022243,0.158508,0,0,0,0,-0.010389,0.005904,-0.141222,0.000000,0.000000,0.000000
attitude,11,1511122430865604608.000000,0.000000,-0.000004,-0.000000,0.000000,0.002763,0.002472,0.001194,0.000000,0.000000,-0.605616,-0.087571,0.022238,0.158504,0,0,0,0,-0.010389,0.005904,-0.141222,0.000000,0.000000,0.000000
highres_imu,11,1511122430868487680.000000,0.000000,-0.000004,-0.000000,0.000000,0.004149,0.001939,0.000457,0.000000,0.000000,-0.605616,-0.087571,0.022238,0.158504,0,0,0,0,-0.010389,0.005904,-0.141222,0.000000,0.000000,0.000000
highres_imu,11,1511122430872565248.000000,0.000000,-0.000004,-0.000000,0.000000,0.003182,0.002466,0.001391,0.000000,0.000000,-0.605616,-0.087571,0.022238,0.158504,0,0,0,0,-0.010389,0.005904,-0.141222,0.000000,0.000000,0.000000
attitude,11,1511122430873885440.000000,0.000000,-0.000004,-0.000000,0.000000,0.003182,0.002466,0.001391,0.000000,0.000000,-0.605616,-0.087566,0.022240,0.158508,0,0,0,0,-0.010389,0.005904,-0.141222,0.000000,0.000000,0.000000
highres_imu,11,1511122430878069248.000000,0.000000,-0.000004,-0.000000,0.000000,0.004023,0.002255,-0.001272,0.000000,0.000000,-0.605616,-0.087566,0.022240,0.158508,0,0,0,0,-0.010389,0.005904,-0.141222,0.000000,0.000000,0.000000
attitude,11,1511122430881070080.000000,0.000000,-0.000004,-0.000000,0.000000,0.004023,0.002255,-0.001272,0.000000,0.000000,-0.605616,-0.087571,0.022239,0.158494,0,0,0,0,-0.010389,0.005904,-0.141222,0.000000,0.000000,0.000000
highres_imu,11,1511122430883564288.000000,0.000000,-0.000004,-0.000000,0.000000,0.002108,0.002371,0.000112,0.000000,0.000000,-0.605616,-0.087571,0.022239,0.158494,0,0,0,0,-0.010389,0.005904,-0.141222,0.000000,0.000000,0.000000
highres_imu,11,1511122430889365248.000000,0.000000,-0.000004,-0.000000,0.000000,0.000740,0.001833,-0.003490,0.000000,0.000000,-0.605616,-0.087571,0.022239,0.158494,0,0,0,0,-0.010389,0.005904,-0.141222,0.000000,0.000000,0.000000
attitude,11,1511122430890682880.000000,0.000000,-0.000004,-0.000000,0.000000,0.000740,0.001833,-0.003490,0.000000,0.000000,-0.605616,-0.087574,0.022239,0.158482,0,0,0,0,-0.010389,0.005904,-0.141222,0.000000,0.000000,0.000000
highres_imu,11,1511122430893270016.000000,0.000000,-0.000004,-0.000000,0.000000,0.004041,0.001833,-0.001681,0.000000,0.000000,-0.605616,-0.087574,0.022239,0.158482,0,0,0,0,-0.010389,0.005904,-0.141222,0.000000,0.000000,0.000000
attitude,11,1511122430896037120.000000,0.000000,-0.000004,-0.000000,0.000000,0.004041,0.001833,-0.001681,0.000000,0.000000,-0.605616,-0.087569,0.022240,0.158479,0,0,0,0,-0.010389,0.005904,-0.141222,0.000000,0.000000,0.000000
highres_imu,11,1511122430902270208.000000,0.000000,-0.000004,-0.000000,0.000000,0.002548,0.002578,0.001193,0.000000,0.000000,-0.605616,-0.087569,0.022240,0.158479,0,0,0,0,-0.010389,0.005904,-0.141222,0.000000,0.000000,0.000000
attitude,12,1511122430913782528.000000,0.000000,-0.000004,-0.000000,0.000000,0.002548,0.002578,0.001193,0.000000,0.000000,-0.605616,-0.087573,0.022243,0.158479,0,0,0,0,-0.010389,0.005904,-0.141222,0.000000,0.000000,0.000000
highres_imu,13,1511122431024090624.000000,0.000000,-0.000004,-0.000000,0.000000,0.005207,0.001833,0.001191,0.000000,0.000000,-0.605616,-0.087573,0.022243,0.158479,0,0,0,0,-0.010389,0.005904,-0.141222,0.000000,0.000000,0.000000
attitude,13,1511122431035786496.000000,0.000000,-0.000004,-0.000000,0.000000,0.005207,0.001833,0.001191,0.000000,0.000000,-0.605616,-0.087586,0.022242,0.158437,0,0,0,0,-0.010389,0.005904,-0.141222,0.000000,0.000000,0.000000
highres_imu,13,1511122431043674624.000000,0.000000,-0.000004,-0.000000,0.000000,0.004357,0.002464,0.001067,0.000000,0.000000,-0.605616,-0.087586,0.022242,0.158437,0,0,0,0,-0.010389,0.005904,-0.141222,0.000000,0.000000,0.000000
highres_imu,13,1511122431048100864.000000,0.000000,-0.000004,-0.000000,0.000000,0.000627,0.001400,-0.003392,0.000000,0.000000,-0.605616,-0.087586,0.022242,0.158437,0,0,0,0,-0.010389,0.005904,-0.141222,0.000000,0.000000,0.000000
highres_imu,13,1511122431063312896.000000,0.000000,-0.000004,-0.000000,0.000000,0.001810,0.001511,0.000771,0.000000,0.000000,-0.605616,-0.087586,0.022242,0.158437,0,0,0,0,-0.010389,0.005904,-0.141222,0.000000,0.000000,0.000000
highres_imu,13,1511122431067661312.000000,0.000000,-0.000004,-0.000000,0.000000,0.005105,0.002476,0.000218,0.000000,0.000000,-0.605616,-0.087586,0.022242,0.158437,0,0,0,0,-0.010389,0.005904,-0.141222,0.000000,0.000000,0.000000
attitude,13,1511122431069334784.000000,0.000000,-0.000004,-0.000000,0.000000,0.005105,0.002476,0.000218,0.000000,0.000000,-0.605616,-0.087593,0.022239,0.158432,0,0,0,0,-0.010389,0.005904,-0.141222,0.000000,0.000000,0.000000
highres_imu,13,1511122431072188672.000000,0.000000,-0.000004,-0.000000,0.000000,0.002210,0.000873,-0.002747,0.000000,0.000000,-0.605616,-0.087593,0.022239,0.158432,0,0,0,0,-0.010389,0.005904,-0.141222,0.000000,0.000000,0.000000
attitude,13,1511122431075286016.000000,0.000000,-0.000004,-0.000000,0.000000,0.002210,0.000873,-0.002747,0.000000,0.000000,-0.605616,-0.087598,0.022233,0.158424,0,0,0,0,-0.010389,0.005904,-0.141222,0.000000,0.000000,0.000000
highres_imu,13,1511122431078071040.000000,0.000000,-0.000004,-0.000000,0.000000,0.005212,0.001833,-0.000074,0.000000,0.000000,-0.605616,-0.087598,0.022233,0.158424,0,0,0,0,-0.010389,0.005904,-0.141222,0.000000,0.000000,0.000000
highres_imu,13,1511122431082567168.000000,0.000000,-0.000004,-0.000000,0.000000,0.002029,0.001414,-0.002632,0.000000,0.000000,-0.605616,-0.087598,0.022233,0.158424,0,0,0,0,-0.010389,0.005904,-0.141222,0.000000,0.000000,0.000000
highres_imu,13,1511122431086953728.000000,0.000000,-0.000004,-0.000000,0.000000,0.002973,0.002897,0.001192,0.000000,0.000000,-0.605616,-0.087598,0.022233,0.158424,0,0,0,0,-0.010389,0.005904,-0.141222,0.000000,0.000000,0.000000
attitude,13,1511122431088407808.000000,0.000000,-0.000004,-0.000000,0.000000,0.002973,0.002897,0.001192,0.000000,0.000000,-0.605616,-0.087588,0.022234,0.158419,0,0,0,0,-0.010389,0.005904,-0.141222,0.000000,0.000000,0.000000
highres_imu,13,1511122431091325696.000000,0.000000,-0.000004,-0.000000,0.000000,0.006166,0.002897,0.001192,0.000000,0.000000,-0.605616,-0.087588,0.022234,0.158419,0,0,0,0,-0.010389,0.005904,-0.141222,0.000000,0.000000,0.000000
highres_imu,13,1511122431094103808.000000,0.000000,-0.000004,-0.000000,0.000000,0.001802,0.002046,-0.001998,0.000000,0.000000,-0.605616,-0.087588,0.022234,0.158419,0,0,0,0,-0.010389,0.005904,-0.141222,0.000000,0.000000,0.000000
attitude,13,1511122431095524352.000000,0.000000,-0.000004,-0.000000,0.000000,0.001802,0.002046,-0.001998,0.000000,0.000000,-0.605616,-0.087576,0.022237,0.158416,0,0,0,0,-0.010389,0.005904,-0.141222,0.000000,0.000000,0.000000
highres_imu,13,1511122431101133824.000000,0.000000,-0.000004,-0.000000,0.000000,0.005634,0.002684,0.000874,0.000000,0.000000,-0.605616,-0.087576,0.022237,0.158416,0,0,0,0,-0.010389,0.005904,-0.141222,0.000000,0.000000,0.000000
highres_imu,14,1511122431105483008.000000,0.000000,-0.000004,-0.000000,0.000000,0.001602,0.002046,-0.002106,0.000000,0.000000,-0.605616,-0.087576,0.022237,0.158416,0,0,0,0,-0.010389,0.005904,-0.141222,0.000000,0.000000,0.000000
attitude,14,1511122431106809344.000000,0.000000,-0.000004,-0.000000,0.000000,0.001602,0.002046,-0.002106,0.000000,0.000000,-0.605616,-0.087563,0.022245,0.158417,0,0,0,0,-0.010389,0.005904,-0.141222,0.000000,0.000000,0.000000
highres_imu,14,1511122431109623040.000000,0.000000,-0.000004,-0.000000,0.000000,0.002551,0.002897,0.001091,0.000000,0.000000,-0.605616,-0.087563,0.022245,0.158417,0,0,0,0,-0.010389,0.005904,-0.141222,0.000000,0.000000,0.000000
highres_imu,14,1511122431113577984.000000,0.000000,-0.000004,-0.000000,0.000000,0.000423,0.000978,-0.002325,0.000000,0.000000,-0.605616,-0.087563,0.022245,0.158417,0,0,0,0,-0.010389,0.005904,-0.141222,0.000000,0.000000,0.000000
attitude,14,1511122431115024640.000000,0.000000,-0.000004,-0.000000,0.000000,0.000423,0.000978,-0.002325,0.000000,0.000000,-0.605616,-0.087564,0.022244,0.158420,0,0,0,0,-0.010389,0.005904,-0.141222,0.000000,0.000000,0.000000
highres_imu,14,1511122431122040832.000000,0.000000,-0.000004,-0.000000,0.000000,0.002446,0.001833,0.001193,0.000000,0.000000,-0.605616,-0.087564,0.022244,0.158420,0,0,0,0,-0.010389,0.005904,-0.141222,0.000000,0.000000,0.000000
highres_imu,14,1511122431136059136.000000,0.000000,-0.000004,-0.000000,0.000000,0.005306,0.002792,-0.000961,0.000000,0.000000,-0.605616,-0.087564,0.022244,0.158420,0,0,0,0,-0.010389,0.005904,-0.141222,0.000000,0.000000,0.000000
attitude,14,1511122431137551616.000000,0.000000,-0.000004,-0.000000,0.000000,0.005306,0.002792,-0.000961,0.000000,0.000000,-0.605616,-0.087554,0.022247,0.158423,0,0,0,0,-0.010389,0.005904,-0.141222,0.000000,0.000000,0.000000
highres_imu,14,1511122431143661824.000000,0.000000,-0.000004,-0.000000,0.000000,0.001590,0.002897,-0.002517,0.000000,0.000000,-0.605616,-0.087554,0.022247,0.158423,0,0,0,0,-0.010389,0.005904,-0.141222,0.000000,0.000000,0.000000
attitude,14,1511122431145009408.000000,0.000000,-0.000004,-0.000000,0.000000,0.001590,0.002897,-0.002517,0.000000,0.000000,-0.605616,-0.087552,0.022289,0.158332,0,0,0,0,-0.010389,0.005904,-0.141222,0.000000,0.000000,0.000000
highres_imu,14,1511122431149191168.000000,0.000000,-0.000004,-0.000000,0.000000,0.003935,0.002577,0.001620,0.000000,0.000000,-0.605616,-0.087552,0.022289,0.158332,0,0,0,0,-0.010389,0.005904,-0.141222,0.000000,0.000000,0.000000
highres_imu,14,1511122431151804672.000000,0.000000,-0.000004,-0.000000,0.000000,0.005113,0.001833,-0.000815,0.000000,0.000000,-0.605616,-0.087552,0.022289,0.158332,0,0,0,0,-0.010389,0.005904,-0.141222,0.000000,0.000000,0.000000
attitude,14,1511122431153294592.000000,0.000000,-0.000004,-0.000000,0.000000,0.005113,0.001833,-0.000815,0.000000,0.000000,-0.605616,-0.087536,0.022291,0.158334,0,0,0,0,-0.010389,0.005904,-0.141222,0.000000,0.000000,0.000000
highres_imu,14,1511122431155856640.000000,0.000000,-0.000004,-0.000000,0.000000,0.001697,0.001833,-0.001893,0.000000,0.000000,-0.605616,-0.087536,0.022291,0.158334,0,0,0,0,-0.010389,0.005904,-0.141222,0.000000,0.000000,0.000000
local_position_ned,14,1511122431158843392.000000,0.000000,-0.000004,-0.000000,0.000000,0.001697,0.001833,-0.001893,0.000000,0.000000,-0.612387,-0.087536,0.022291,0.158334,0,0,0,0,-0.011925,0.006756,-0.141170,0.000000,0.000000,0.000000
highres_imu,14,1511122431161444608.000000,0.000000,-0.000004,-0.000000,0.000000,0.004784,0.001088,-0.001678,0.000000,0.000000,-0.612387,-0.087536,0.022291,0.158334,0,0,0,0,-0.011925,0.006756,-0.141170,0.000000,0.000000,0.000000
attitude,14,1511122431162953728.000000,0.000000,-0.000004,-0.000000,0.000000,0.004784,0.001088,-0.001678,0.000000,0.000000,-0.612387,-0.087525,0.022286,0.158327,0,0,0,0,-0.011925,0.006756,-0.141170,0.000000,0.000000,0.000000
highres_imu,14,1511122431165528064.000000,0.000000,-0.000004,-0.000000,0.000000,0.000846,0.001833,-0.002004,0.000000,0.000000,-0.612387,-0.087525,0.022286,0.158327,0,0,0,0,-0.011925,0.006756,-0.141170,0.000000,0.000000,0.000000
highres_imu,14,1511122431171192064.000000,0.000000,-0.000004,-0.000000,0.000000,0.004030,0.001833,0.002153,0.000000,0.000000,-0.612387,-0.087525,0.022286,0.158327,0,0,0,0,-0.011925,0.006756,-0.141170,0.000000,0.000000,0.000000
attitude,14,1511122431172622336.000000,0.000000,-0.000004,-0.000000,0.000000,0.004030,0.001833,0.002153,0.000000,0.000000,-0.612387,-0.087527,0.022285,0.158328,0,0,0,0,-0.011925,0.006756,-0.141170,0.000000,0.000000,0.000000
highres_imu,14,1511122431175388672.000000,0.000000,-0.000004,-0.000000,0.000000,0.002868,0.001833,-0.001148,0.000000,0.000000,-0.612387,-0.087527,0.022285,0.158328,0,0,0,0,-0.011925,0.006756,-0.141170,0.000000,0.000000,0.000000
attitude,14,1511122431178094848.000000,0.000000,-0.000004,-0.000000,0.000000,0.002868,0.001833,-0.001148,0.000000,0.000000,-0.612387,-0.087539,0.022286,0.158319,0,0,0,0,-0.011925,0.006756,-0.141170,0.000000,0.000000,0.000000
highres_imu,14,1511122431183988736.000000,0.000000,-0.000004,-0.000000,0.000000,0.003507,0.001731,0.001304,0.000000,0.000000,-0.612387,-0.087539,0.022286,0.158319,0,0,0,0,-0.011925,0.006756,-0.141170,0.000000,0.000000,0.000000
attitude,14,1511122431192187136.000000,0.000000,-0.000004,-0.000000,0.000000,0.003507,0.001731,0.001304,0.000000,0.000000,-0.612387,-0.087536,0.022274,0.158320,0,0,0,0,-0.011925,0.006756,-0.141170,0.000000,0.000000,0.000000
highres_imu,14,1511122431196356608.000000,0.000000,-0.000004,-0.000000,0.000000,0.003083,0.001833,0.001191,0.000000,0.000000,-0.612387,-0.087536,0.022274,0.158320,0,0,0,0,-0.011925,0.006756,-0.141170,0.000000,0.000000,0.000000
highres_imu,14,1511122431200788224.000000,0.000000,-0.000004,-0.000000,0.000000,0.001903,0.001725,-0.001253,0.000000,0.000000,-0.612387,-0.087536,0.022274,0.158320,0,0,0,0,-0.011925,0.006756,-0.141170,0.000000,0.000000,0.000000
attitude,14,1511122431202103040.000000,0.000000,-0.000004,-0.000000,0.000000,0.001903,0.001725,-0.001253,0.000000,0.000000,-0.612387,-0.087531,0.022271,0.158308,0,0,0,0,-0.011925,0.006756,-0.141170,0.000000,0.000000,0.000000
highres_imu,15,1511122431206479616.000000,0.000000,-0.000004,-0.000000,0.000000,0.004035,0.002581,0.002794,0.000000,0.000000,-0.612387,-0.087531,0.022271,0.158308,0,0,0,0,-0.011925,0.006756,-0.141170,0.000000,0.000000,0.000000
attitude,15,1511122431209384704.000000,0.000000,-0.000004,-0.000000,0.000000,0.004035,0.002581,0.002794,0.000000,0.000000,-0.612387,-0.087520,0.022273,0.158315,0,0,0,0,-0.011925,0.006756,-0.141170,0.000000,0.000000,0.000000
highres_imu,15,1511122431211910912.000000,0.000000,-0.000004,-0.000000,0.000000,0.001165,0.002365,0.000022,0.000000,0.000000,-0.612387,-0.087520,0.022273,0.158315,0,0,0,0,-0.011925,0.006756,-0.141170,0.000000,0.000000,0.000000
highres_imu,15,1511122431214890752.000000,0.000000,-0.000004,-0.000000,0.000000,0.004364,0.002574,0.002037,0.000000,0.000000,-0.612387,-0.087520,0.022273,0.158315,0,0,0,0,-0.011925,0.006756,-0.141170,0.000000,0.000000,0.000000
highres_imu,15,1511122431218918144.000000,0.000000,-0.000004,-0.000000,0.000000,0.003595,0.002370,-0.001903,0.000000,0.000000,-0.612387,-0.087520,0.022273,0.158315,0,0,0,0,-0.011925,0.006756,-0.141170,0.000000,0.000000,0.000000
attitude,15,1511122431220279040.000000,0.000000,-0.000004,-0.000000,0.000000,0.003595,0.002370,-0.001903,0.000000,0.000000,-0.612387,-0.087515,0.022279,0.158315,0,0,0,0,-0.011925,0.006756,-0.141170,0.000000,0.000000,0.000000
highres_imu,16,1511122431332408832.000000,0.000000,-0.000004,-0.000000,0.000000,0.004253,0.003339,0.001312,0.000000,0.000000,-0.612387,-0.087515,0.022279,0.158315,0,0,0,0,-0.011925,0.006756,-0.141170,0.000000,0.000000,0.000000
attitude,16,1511122431334114048.000000,0.000000,-0.000004,-0.000000,0.000000,0.004253,0.003339,0.001312,0.000000,0.000000,-0.612387,-0.087509,0.022297,0.158321,0,0,0,0,-0.011925,0.006756,-0.141170,0.000000,0.000000,0.000000
highres_imu,16,1511122431344886016.000000,0.000000,-0.000004,-0.000000,0.000000,0.001487,0.001833,0.001931,0.000000,0.000000,-0.612387,-0.087509,0.022297,0.158321,0,0,0,0,-0.011925,0.006756,-0.141170,0.000000,0.000000,0.000000
attitude,16,1511122431347972608.000000,0.000000,-0.000004,-0.000000,0.000000,0.001487,0.001833,0.001931,0.000000,0.000000,-0.612387,-0.087543,0.022301,0.158264,0,0,0,0,-0.011925,0.006756,-0.141170,0.000000,0.000000,0.000000
attitude,16,1511122431355140096.000000,0.000000,-0.000004,-0.000000,0.000000,0.001487,0.001833,0.001931,0.000000,0.000000,-0.612387,-0.087538,0.022304,0.158264,0,0,0,0,-0.011925,0.006756,-0.141170,0.000000,0.000000,0.000000
highres_imu,16,1511122431357859328.000000,0.000000,-0.000004,-0.000000,0.000000,0.003612,0.002471,0.001831,0.000000,0.000000,-0.612387,-0.087538,0.022304,0.158264,0,0,0,0,-0.011925,0.006756,-0.141170,0.000000,0.000000,0.000000
local_position_ned,16,1511122431361002752.000000,0.000000,-0.000004,-0.000000,0.000000,0.003612,0.002471,0.001831,0.000000,0.000000,-0.618163,-0.087538,0.022304,0.158264,0,0,0,0,-0.010972,0.006970,-0.142101,0.000000,0.000000,0.000000
highres_imu,16,1511122431363950080.000000,0.000000,-0.000004,-0.000000,0.000000,0.005317,0.002579,-0.000505,0.000000,0.000000,-0.618163,-0.087538,0.022304,0.158264,0,0,0,0,-0.010972,0.006970,-0.142101,0.000000,0.000000,0.000000
attitude,16,1511122431365443328.000000,0.000000,-0.000004,-0.000000,0.000000,0.005317,0.002579,-0.000505,0.000000,0.000000,-0.618163,-0.087522,0.022308,0.158258,0,0,0,0,-0.010972,0.006970,-0.142101,0.000000,0.000000,0.000000
highres_imu,16,1511122431371507968.000000,0.000000,-0.000004,-0.000000,0.000000,0.003502,0.001833,0.001299,0.000000,0.000000,-0.618163,-0.087522,0.022308,0.158258,0,0,0,0,-0.010972,0.006970,-0.142101,0.000000,0.000000,0.000000
attitude,16,1511122431373108480.000000,0.000000,-0.000004,-0.000000,0.000000,0.003502,0.001833,0.001299,0.000000,0.000000,-0.618163,-0.087528,0.022306,0.158251,0,0,0,0,-0.010972,0.006970,-0.142101,0.000000,0.000000,0.000000
highres_imu,16,1511122431376304128.000000,0.000000,-0.000004,-0.000000,0.000000,0.004788,0.001833,-0.001241,0.000000,0.000000,-0.618163,-0.087528,0.022306,0.158251,0,0,0,0,-0.010972,0.006970,-0.142101,0.000000,0.000000,0.000000
highres_imu,16,1511122431380730112.000000,0.000000,-0.000004,-0.000000,0.000000,0.000426,0.001833,-0.002536,0.000000,0.000000,-0.618163,-0.087528,0.022306,0.158251,0,0,0,0,-0.010972,0.006970,-0.142101,0.000000,0.000000,0.000000
attitude,16,1511122431382455552.000000,0.000000,-0.000004,-0.000000,0.000000,0.000426,0.001833,-0.002536,0.000000,0.000000,-0.618163,-0.087528,0.022304,0.158234,0,0,0,0,-0.010972,0.006970,-0.142101,0.000000,0.000000,0.000000
highres_imu,16,1511122431387200256.000000,0.000000,-0.000004,-0.000000,0.000000,0.004252,0.001833,-0.002315,0.000000,0.000000,-0.618163,-0.087528,0.022304,0.158234,0,0,0,0,-0.010972,0.006970,-0.142101,0.000000,0.000000,0.000000
highres_imu,16,1511122431391643136.000000,0.000000,-0.000004,-0.000000,0.000000,0.001057,0.002470,-0.003812,0.000000,0.000000,-0.618163,-0.087528,0.022304,0.158234,0,0,0,0,-0.010972,0.006970,-0.142101,0.000000,0.000000,0.000000
attitude,16,1511122431392950272.000000,0.000000,-0.000004,-0.000000,0.000000,0.001057,0.002470,-0.003812,0.000000,0.000000,-0.618163,-0.087530,0.022305,0.158207,0,0,0,0,-0.010972,0.006970,-0.142101,0.000000,0.000000,0.000000
