Pose,FrameNo,timestamp(ns),timeboot(ms),xgyro,xyyro,zgyro,xacc,yacc,zacc,x,y,z,roll,pitch,yaw,hdop,lat,lon,alt,vx,vy,vz,gpsxacc,gpsyacc,gpszacc
highres_imu,0,1511023774177946368.000000,0.000000,-0.000003,0.000000,-0.000003,0.000526,0.002897,-0.001588,0.000000,0.000000,-0.307023,-0.079139,0.023301,0.109401,0,0,0,0,0.020318,0.028531,-0.077806,0.000000,0.000000,0.000000
local_position_ned,0,1511023774182178304.000000,0.000000,-0.000003,0.000000,-0.000003,0.000526,0.002897,-0.001588,0.000000,0.000000,-0.302144,-0.079139,0.023301,0.109401,0,0,0,0,0.021417,0.027301,-0.076548,0.000000,0.000000,0.000000
highres_imu,0,1511023774185156096.000000,0.000000,-0.000003,0.000000,-0.000003,0.000210,0.002580,-0.001899,0.000000,0.000000,-0.302144,-0.079139,0.023301,0.109401,0,0,0,0,0.021417,0.027301,-0.076548,0.000000,0.000000,0.000000
highres_imu,0,1511023774193377280.000000,0.000000,-0.000003,0.000000,-0.000003,-0.000219,0.002152,0.000235,0.000000,0.000000,-0.302144,-0.079139,0.023301,0.109401,0,0,0,0,0.021417,0.027301,-0.076548,0.000000,0.000000,0.000000
highres_imu,0,1511023774202929152.000000,0.000000,-0.000003,0.000000,-0.000003,-0.000538,0.002156,0.000886,0.000000,0.000000,-0.302144,-0.079139,0.023301,0.109401,0,0,0,0,0.021417,0.027301,-0.076548,0.000000,0.000000,0.000000
attitude,0,1511023774204459520.000000,0.000000,-0.000003,0.000000,-0.000003,-0.000538,0.002156,0.000886,0.000000,0.000000,-0.302144,-0.079144,0.023298,0.109391,0,0,0,0,0.021417,0.027301,-0.076548,0.000000,0.000000,0.000000
highres_imu,0,1511023774209139200.000000,0.000000,-0.000003,0.000000,-0.000003,0.001484,0.002897,-0.002001,0.000000,0.000000,-0.302144,-0.079144,0.023298,0.109391,0,0,0,0,0.021417,0.027301,-0.076548,0.000000,0.000000,0.000000
highres_imu,0,1511023774212178176.000000,0.000000,-0.000003,0.000000,-0.000003,-0.000112,0.001939,-0.000084,0.000000,0.000000,-0.302144,-0.079144,0.023298,0.109391,0,0,0,0,0.021417,0.027301,-0.076548,0.000000,0.000000,0.000000
attitude,0,1511023774214064128.000000,0.000000,-0.000003,0.000000,-0.000003,-0.000112,0.001939,-0.000084,0.000000,0.000000,-0.302144,-0.079143,0.023294,0.109387,0,0,0,0,0.021417,0.027301,-0.076548,0.000000,0.000000,0.000000
highres_imu,0,1511023774218977536.000000,0.000000,-0.000003,0.000000,-0.000003,0.000526,0.003540,-0.001700,0.000000,0.000000,-0.302144,-0.079143,0.023294,0.109387,0,0,0,0,0.021417,0.027301,-0.076548,0.000000,0.000000,0.000000
highres_imu,1,1511023774224064000.000000,0.000000,-0.000003,0.000000,-0.000003,0.000420,0.002897,0.000235,0.000000,0.000000,-0.302144,-0.079143,0.023294,0.109387,0,0,0,0,0.021417,0.027301,-0.076548,0.000000,0.000000,0.000000
attitude,1,1511023774225779456.000000,0.000000,-0.000003,0.000000,-0.000003,0.000420,0.002897,0.000235,0.000000,0.000000,-0.302144,-0.079144,0.023298,0.109375,0,0,0,0,0.021417,0.027301,-0.076548,0.000000,0.000000,0.000000
highres_imu,1,1511023774230205440.000000,0.000000,-0.000003,0.000000,-0.000003,0.001271,0.004699,-0.002220,0.000000,0.000000,-0.302144,-0.079144,0.023298,0.109375,0,0,0,0,0.021417,0.027301,-0.076548,0.000000,0.000000,0.000000
attitude,1,1511023774231698944.000000,0.000000,-0.000003,0.000000,-0.000003,0.001271,0.004699,-0.002220,0.000000,0.000000,-0.302144,-0.079137,0.023305,0.109365,0,0,0,0,0.021417,0.027301,-0.076548,0.000000,0.000000,0.000000
highres_imu,1,1511023774235724032.000000,0.000000,-0.000003,0.000000,-0.000003,-0.000538,0.003109,0.000129,0.000000,0.000000,-0.302144,-0.079137,0.023305,0.109365,0,0,0,0,0.021417,0.027301,-0.076548,0.000000,0.000000,0.000000
highres_imu,1,1511023774240546304.000000,0.000000,-0.000003,0.000000,-0.000003,-0.000324,0.003327,-0.002433,0.000000,0.000000,-0.302144,-0.079137,0.023305,0.109365,0,0,0,0,0.021417,0.027301,-0.076548,0.000000,0.000000,0.000000
attitude,1,1511023774241887744.000000,0.000000,-0.000003,0.000000,-0.000003,-0.000324,0.003327,-0.002433,0.000000,0.000000,-0.302144,-0.079146,0.023309,0.109356,0,0,0,0,0.021417,0.027301,-0.076548,0.000000,0.000000,0.000000
highres_imu,1,1511023774246200064.000000,0.000000,-0.000003,0.000000,-0.000003,0.001484,0.002684,-0.001040,0.000000,0.000000,-0.302144,-0.079146,0.023309,0.109356,0,0,0,0,0.021417,0.027301,-0.076548,0.000000,0.000000,0.000000
attitude,1,1511023774247663104.000000,0.000000,-0.000003,0.000000,-0.000003,0.001484,0.002684,-0.001040,0.000000,0.000000,-0.302144,-0.079145,0.023304,0.109354,0,0,0,0,0.021417,0.027301,-0.076548,0.000000,0.000000,0.000000
highres_imu,1,1511023774251898368.000000,0.000000,-0.000003,0.000000,-0.000003,0.001483,0.002897,-0.002000,0.000000,0.000000,-0.302144,-0.079145,0.023304,0.109354,0,0,0,0,0.021417,0.027301,-0.076548,0.000000,0.000000,0.000000
highres_imu,1,1511023774256053248.000000,0.000000,-0.000003,0.000000,-0.000003,0.000314,0.002258,-0.000083,0.000000,0.000000,-0.302144,-0.079145,0.023304,0.109354,0,0,0,0,0.021417,0.027301,-0.076548,0.000000,0.000000,0.000000
attitude,1,1511023774257427456.000000,0.000000,-0.000003,0.000000,-0.000003,0.000314,0.002258,-0.000083,0.000000,0.000000,-0.302144,-0.079137,0.023295,0.109350,0,0,0,0,0.021417,0.027301,-0.076548,0.000000,0.000000,0.000000
highres_imu,1,1511023774261860864.000000,0.000000,-0.000003,0.000000,-0.000003,0.000739,0.002897,-0.001681,0.000000,0.000000,-0.302144,-0.079137,0.023295,0.109350,0,0,0,0,0.021417,0.027301,-0.076548,0.000000,0.000000,0.000000
highres_imu,1,1511023774264567296.000000,0.000000,-0.000003,0.000000,-0.000003,-0.000218,0.002897,-0.000087,0.000000,0.000000,-0.302144,-0.079137,0.023295,0.109350,0,0,0,0,0.021417,0.027301,-0.076548,0.000000,0.000000,0.000000
attitude,1,1511023774265894144.000000,0.000000,-0.000003,0.000000,-0.000003,-0.000218,0.002897,-0.000087,0.000000,0.000000,-0.302144,-0.079139,0.023295,0.109348,0,0,0,0,0.021417,0.027301,-0.076548,0.000000,0.000000,0.000000
highres_imu,2,1511023774373770496.000000,0.000000,-0.000003,0.000000,-0.000003,0.000526,0.002897,0.000128,0.000000,0.000000,-0.302144,-0.079139,0.023295,0.109348,0,0,0,0,0.021417,0.027301,-0.076548,0.000000,0.000000,0.000000
local_position_ned,2,1511023774379808256.000000,0.000000,-0.000003,0.000000,-0.000003,0.000526,0.002897,0.000128,0.000000,0.000000,-0.300822,-0.079139,0.023295,0.109348,0,0,0,0,0.021306,0.027287,-0.075658,0.000000,0.000000,0.000000
highres_imu,2,1511023774391452160.000000,0.000000,-0.000003,0.000000,-0.000003,-0.000752,0.002046,-0.000298,0.000000,0.000000,-0.300822,-0.079139,0.023295,0.109348,0,0,0,0,0.021306,0.027287,-0.075658,0.000000,0.000000,0.000000
attitude,2,1511023774393012992.000000,0.000000,-0.000003,0.000000,-0.000003,-0.000752,0.002046,-0.000298,0.000000,0.000000,-0.300822,-0.079143,0.023291,0.109345,0,0,0,0,0.021306,0.027287,-0.075658,0.000000,0.000000,0.000000
highres_imu,2,1511023774397466368.000000,0.000000,-0.000003,0.000000,-0.000003,0.000845,0.002152,0.000554,0.000000,0.000000,-0.300822,-0.079143,0.023291,0.109345,0,0,0,0,0.021306,0.027287,-0.075658,0.000000,0.000000,0.000000
highres_imu,2,1511023774408564736.000000,0.000000,-0.000003,0.000000,-0.000003,0.001590,0.002365,-0.001146,0.000000,0.000000,-0.300822,-0.079143,0.023291,0.109345,0,0,0,0,0.021306,0.027287,-0.075658,0.000000,0.000000,0.000000
highres_imu,2,1511023774413263104.000000,0.000000,-0.000003,0.000000,-0.000003,0.000633,0.002152,-0.002319,0.000000,0.000000,-0.300822,-0.079143,0.023291,0.109345,0,0,0,0,0.021306,0.027287,-0.075658,0.000000,0.000000,0.000000
attitude,2,1511023774415087872.000000,0.000000,-0.000003,0.000000,-0.000003,0.000633,0.002152,-0.002319,0.000000,0.000000,-0.300822,-0.079133,0.023240,0.109247,0,0,0,0,0.021306,0.027287,-0.075658,0.000000,0.000000,0.000000
highres_imu,2,1511023774419929600.000000,0.000000,-0.000003,0.000000,-0.000003,0.000207,0.002578,-0.001042,0.000000,0.000000,-0.300822,-0.079133,0.023240,0.109247,0,0,0,0,0.021306,0.027287,-0.075658,0.000000,0.000000,0.000000
highres_imu,2,1511023774423285248.000000,0.000000,-0.000003,0.000000,-0.000003,0.001053,0.003424,-0.002954,0.000000,0.000000,-0.300822,-0.079133,0.023240,0.109247,0,0,0,0,0.021306,0.027287,-0.075658,0.000000,0.000000,0.000000
attitude,3,1511023774424858368.000000,0.000000,-0.000003,0.000000,-0.000003,0.001053,0.003424,-0.002954,0.000000,0.000000,-0.300822,-0.079132,0.023240,0.109233,0,0,0,0,0.021306,0.027287,-0.075658,0.000000,0.000000,0.000000
highres_imu,3,1511023774429637120.000000,0.000000,-0.000003,0.000000,-0.000003,0.000526,0.002258,-0.000084,0.000000,0.000000,-0.300822,-0.079132,0.023240,0.109233,0,0,0,0,0.021306,0.027287,-0.075658,0.000000,0.000000,0.000000
highres_imu,3,1511023774433734656.000000,0.000000,-0.000003,0.000000,-0.000003,0.000526,0.002791,-0.000938,0.000000,0.000000,-0.300822,-0.079132,0.023240,0.109233,0,0,0,0,0.021306,0.027287,-0.075658,0.000000,0.000000,0.000000
attitude,3,1511023774435402240.000000,0.000000,-0.000003,0.000000,-0.000003,0.000526,0.002791,-0.000938,0.000000,0.000000,-0.300822,-0.079130,0.023241,0.109219,0,0,0,0,0.021306,0.027287,-0.075658,0.000000,0.000000,0.000000
highres_imu,3,1511023774439566080.000000,0.000000,-0.000003,0.000000,-0.000003,0.000311,0.002682,-0.001572,0.000000,0.000000,-0.300822,-0.079130,0.023241,0.109219,0,0,0,0,0.021306,0.027287,-0.075658,0.000000,0.000000,0.000000
highres_imu,3,1511023774442433024.000000,0.000000,-0.000003,0.000000,-0.000003,-0.001288,0.001833,0.000027,0.000000,0.000000,-0.300822,-0.079130,0.023241,0.109219,0,0,0,0,0.021306,0.027287,-0.075658,0.000000,0.000000,0.000000
attitude,3,1511023774443783424.000000,0.000000,-0.000003,0.000000,-0.000003,-0.001288,0.001833,0.000027,0.000000,0.000000,-0.300822,-0.079138,0.023236,0.109216,0,0,0,0,0.021306,0.027287,-0.075658,0.000000,0.000000,0.000000
highres_imu,3,1511023774448135168.000000,0.000000,-0.000003,0.000000,-0.000003,0.000635,0.001833,-0.000937,0.000000,0.000000,-0.300822,-0.079138,0.023236,0.109216,0,0,0,0,0.021306,0.027287,-0.075658,0.000000,0.000000,0.000000
highres_imu,3,1511023774453146368.000000,0.000000,-0.000003,0.000000,-0.000003,0.001061,0.002578,-0.002532,0.000000,0.000000,-0.300822,-0.079138,0.023236,0.109216,0,0,0,0,0.021306,0.027287,-0.075658,0.000000,0.000000,0.000000
attitude,3,1511023774454541312.000000,0.000000,-0.000003,0.000000,-0.000003,0.001061,0.002578,-0.002532,0.000000,0.000000,-0.300822,-0.079136,0.023231,0.109205,0,0,0,0,0.021306,0.027287,-0.075658,0.000000,0.000000,0.000000
highres_imu,3,1511023774458577920.000000,0.000000,-0.000003,0.000000,-0.000003,-0.000211,0.001833,-0.000507,0.000000,0.000000,-0.300822,-0.079136,0.023231,0.109205,0,0,0,0,0.021306,0.027287,-0.075658,0.000000,0.000000,0.000000
highres_imu,3,1511023774461492992.000000,0.000000,-0.000003,0.000000,-0.000003,0.001058,0.003748,-0.001681,0.000000,0.000000,-0.300822,-0.079136,0.023231,0.109205,0,0,0,0,0.021306,0.027287,-0.075658,0.000000,0.000000,0.000000
attitude,3,1511023774462855424.000000,0.000000,-0.000003,0.000000,-0.000003,0.001058,0.003748,-0.001681,0.000000,0.000000,-0.300822,-0.079133,0.023230,0.109199,0,0,0,0,0.021306,0.027287,-0.075658,0.000000,0.000000,0.000000
highres_imu,3,1511023774466991872.000000,0.000000,-0.000003,0.000000,-0.000003,0.000417,0.002897,-0.001144,0.000000,0.000000,-0.300822,-0.079133,0.023230,0.109199,0,0,0,0,0.021306,0.027287,-0.075658,0.000000,0.000000,0.000000
highres_imu,3,1511023774471252224.000000,0.000000,-0.000003,0.000000,-0.000003,0.000305,0.002897,-0.003172,0.000000,0.000000,-0.300822,-0.079133,0.023230,0.109199,0,0,0,0,0.021306,0.027287,-0.075658,0.000000,0.000000,0.000000
attitude,3,1511023774473028864.000000,0.000000,-0.000003,0.000000,-0.000003,0.000305,0.002897,-0.003172,0.000000,0.000000,-0.300822,-0.079140,0.023230,0.109185,0,0,0,0,0.021306,0.027287,-0.075658,0.000000,0.000000,0.000000
highres_imu,3,1511023774477491456.000000,0.000000,-0.000003,0.000000,-0.000003,-0.001495,0.002897,-0.000711,0.000000,0.000000,-0.300822,-0.079140,0.023230,0.109185,0,0,0,0,0.021306,0.027287,-0.075658,0.000000,0.000000,0.000000
highres_imu,3,1511023774480350976.000000,0.000000,-0.000003,0.000000,-0.000003,0.000207,0.002897,-0.000929,0.000000,0.000000,-0.300822,-0.079140,0.023230,0.109185,0,0,0,0,0.021306,0.027287,-0.075658,0.000000,0.000000,0.000000
attitude,3,1511023774481754112.000000,0.000000,-0.000003,0.000000,-0.000003,0.000207,0.002897,-0.000929,0.000000,0.000000,-0.300822,-0.079150,0.023230,0.109182,0,0,0,0,0.021306,0.027287,-0.075658,0.000000,0.000000,0.000000
highres_imu,3,1511023774486139904.000000,0.000000,-0.000003,0.000000,-0.000003,-0.000000,0.002897,-0.002851,0.000000,0.000000,-0.300822,-0.079150,0.023230,0.109182,0,0,0,0,0.021306,0.027287,-0.075658,0.000000,0.000000,0.000000
highres_imu,4,1511023774599523584.000000,0.000000,-0.000003,0.000000,-0.000003,0.000207,0.001833,-0.000829,0.000000,0.000000,-0.300822,-0.079150,0.023230,0.109182,0,0,0,0,0.021306,0.027287,-0.075658,0.000000,0.000000,0.000000
highres_imu,4,1511023774619065856.000000,0.000000,-0.000003,0.000000,-0.000003,-0.000531,0.002255,0.000560,0.000000,0.000000,-0.300822,-0.079150,0.023230,0.109182,0,0,0,0,0.021306,0.027287,-0.075658,0.000000,0.000000,0.000000
attitude,4,1511023774620745728.000000,0.000000,-0.000003,0.000000,-0.000003,-0.000531,0.002255,0.000560,0.000000,0.000000,-0.300822,-0.079174,0.023209,0.109160,0,0,0,0,0.021306,0.027287,-0.075658,0.000000,0.000000,0.000000
attitude,5,1511023774628597760.000000,0.000000,-0.000003,0.000000,-0.000003,-0.000531,0.002255,0.000560,0.000000,0.000000,-0.300822,-0.079169,0.023214,0.109168,0,0,0,0,0.021306,0.027287,-0.075658,0.000000,0.000000,0.000000
highres_imu,5,1511023774633459456.000000,0.000000,-0.000003,0.000000,-0.000003,0.001803,0.002790,-0.000936,0.000000,0.000000,-0.300822,-0.079169,0.023214,0.109168,0,0,0,0,0.021306,0.027287,-0.075658,0.000000,0.000000,0.000000
highres_imu,5,1511023774636388352.000000,0.000000,-0.000003,0.000000,-0.000003,0.000727,0.002255,-0.002634,0.000000,0.000000,-0.300822,-0.079169,0.023214,0.109168,0,0,0,0,0.021306,0.027287,-0.075658,0.000000,0.000000,0.000000
attitude,5,1511023774638000128.000000,0.000000,-0.000003,0.000000,-0.000003,0.000727,0.002255,-0.002634,0.000000,0.000000,-0.300822,-0.079163,0.023211,0.109162,0,0,0,0,0.021306,0.027287,-0.075658,0.000000,0.000000,0.000000
highres_imu,5,1511023774642642944.000000,0.000000,-0.000003,0.000000,-0.000003,-0.000538,0.001940,-0.000824,0.000000,0.000000,-0.300822,-0.079163,0.023211,0.109162,0,0,0,0,0.021306,0.027287,-0.075658,0.000000,0.000000,0.000000
highres_imu,5,1511023774647145472.000000,0.000000,-0.000003,0.000000,-0.000003,0.000419,0.003749,-0.001680,0.000000,0.000000,-0.300822,-0.079163,0.023211,0.109162,0,0,0,0,0.021306,0.027287,-0.075658,0.000000,0.000000,0.000000
attitude,5,1511023774648928768.000000,0.000000,-0.000003,0.000000,-0.000003,0.000419,0.003749,-0.001680,0.000000,0.000000,-0.300822,-0.079170,0.023213,0.109160,0,0,0,0,0.021306,0.027287,-0.075658,0.000000,0.000000,0.000000
highres_imu,5,1511023774653490944.000000,0.000000,-0.000003,0.000000,-0.000003,-0.000538,0.002897,0.000874,0.000000,0.000000,-0.300822,-0.079170,0.023213,0.109160,0,0,0,0,0.021306,0.027287,-0.075658,0.000000,0.000000,0.000000
highres_imu,5,1511023774656427776.000000,0.000000,-0.000003,0.000000,-0.000003,0.001163,0.002684,0.000342,0.000000,0.000000,-0.300822,-0.079170,0.023213,0.109160,0,0,0,0,0.021306,0.027287,-0.075658,0.000000,0.000000,0.000000
highres_imu,5,1511023774659550976.000000,0.000000,-0.000003,0.000000,-0.000003,0.001378,0.003854,-0.002425,0.000000,0.000000,-0.300822,-0.079170,0.023213,0.109160,0,0,0,0,0.021306,0.027287,-0.075658,0.000000,0.000000,0.000000
attitude,5,1511023774660881152.000000,0.000000,-0.000003,0.000000,-0.000003,0.001378,0.003854,-0.002425,0.000000,0.000000,-0.300822,-0.079169,0.023217,0.109166,0,0,0,0,0.021306,0.027287,-0.075658,0.000000,0.000000,0.000000
highres_imu,5,1511023774666893056.000000,0.000000,-0.000003,0.000000,-0.000003,0.000526,0.002257,-0.000939,0.000000,0.000000,-0.300822,-0.079169,0.023217,0.109166,0,0,0,0,0.021306,0.027287,-0.075658,0.000000,0.000000,0.000000
attitude,5,1511023774668220672.000000,0.000000,-0.000003,0.000000,-0.000003,0.000526,0.002257,-0.000939,0.000000,0.000000,-0.300822,-0.079168,0.023212,0.109168,0,0,0,0,0.021306,0.027287,-0.075658,0.000000,0.000000,0.000000
highres_imu,5,1511023774672407040.000000,0.000000,-0.000003,0.000000,-0.000003,0.001590,0.002790,-0.003809,0.000000,0.000000,-0.300822,-0.079168,0.023212,0.109168,0,0,0,0,0.021306,0.027287,-0.075658,0.000000,0.000000,0.000000
highres_imu,5,1511023774675217920.000000,0.000000,-0.000003,0.000000,-0.000003,0.000420,0.001620,-0.002000,0.000000,0.000000,-0.300822,-0.079168,0.023212,0.109168,0,0,0,0,0.021306,0.027287,-0.075658,0.000000,0.000000,0.000000
attitude,5,1511023774676662016.000000,0.000000,-0.000003,0.000000,-0.000003,0.000420,0.001620,-0.002000,0.000000,0.000000,-0.300822,-0.079165,0.023206,0.109153,0,0,0,0,0.021306,0.027287,-0.075658,0.000000,0.000000,0.000000
highres_imu,5,1511023774681262592.000000,0.000000,-0.000003,0.000000,-0.000003,0.001480,0.001833,-0.000829,0.000000,0.000000,-0.300822,-0.079165,0.023206,0.109153,0,0,0,0,0.021306,0.027287,-0.075658,0.000000,0.000000,0.000000
highres_imu,5,1511023774685480192.000000,0.000000,-0.000003,0.000000,-0.000003,0.002341,0.002791,-0.001787,0.000000,0.000000,-0.300822,-0.079165,0.023206,0.109153,0,0,0,0,0.021306,0.027287,-0.075658,0.000000,0.000000,0.000000
attitude,5,1511023774687059712.000000,0.000000,-0.000003,0.000000,-0.000003,0.002341,0.002791,-0.001787,0.000000,0.000000,-0.300822,-0.079154,0.023202,0.109151,0,0,0,0,0.021306,0.027287,-0.075658,0.000000,0.000000,0.000000
highres_imu,5,1511023774691204608.000000,0.000000,-0.000003,0.000000,-0.000003,0.000202,0.002466,0.000457,0.000000,0.000000,-0.300822,-0.079154,0.023202,0.109151,0,0,0,0,0.021306,0.027287,-0.075658,0.000000,0.000000,0.000000
highres_imu,5,1511023774693887232.000000,0.000000,-0.000003,0.000000,-0.000003,0.000845,0.002897,-0.001681,0.000000,0.000000,-0.300822,-0.079154,0.023202,0.109151,0,0,0,0,0.021306,0.027287,-0.075658,0.000000,0.000000,0.000000
attitude,5,1511023774695257856.000000,0.000000,-0.000003,0.000000,-0.000003,0.000845,0.002897,-0.001681,0.000000,0.000000,-0.300822,-0.079154,0.023198,0.109157,0,0,0,0,0.021306,0.027287,-0.075658,0.000000,0.000000,0.000000
highres_imu,6,1511023774803478784.000000,0.000000,-0.000003,0.000000,-0.000003,0.000526,0.002578,-0.000511,0.000000,0.000000,-0.300822,-0.079154,0.023198,0.109157,0,0,0,0,0.021306,0.027287,-0.075658,0.000000,0.000000,0.000000
local_position_ned,6,1511023774809725952.000000,0.000000,-0.000003,0.000000,-0.000003,0.000526,0.002578,-0.000511,0.000000,0.000000,-0.303600,-0.079154,0.023198,0.109157,0,0,0,0,0.022182,0.026143,-0.080398,0.000000,0.000000,0.000000
highres_imu,6,1511023774822857984.000000,0.000000,-0.000003,0.000000,-0.000003,-0.000644,0.001833,0.000661,0.000000,0.000000,-0.303600,-0.079154,0.023198,0.109157,0,0,0,0,0.022182,0.026143,-0.080398,0.000000,0.000000,0.000000
highres_imu,7,1511023774826032896.000000,0.000000,-0.000003,0.000000,-0.000003,-0.000643,0.002366,0.000765,0.000000,0.000000,-0.303600,-0.079154,0.023198,0.109157,0,0,0,0,0.022182,0.026143,-0.080398,0.000000,0.000000,0.000000
attitude,7,1511023774827550720.000000,0.000000,-0.000003,0.000000,-0.000003,-0.000643,0.002366,0.000765,0.000000,0.000000,-0.303600,-0.079167,0.023192,0.109121,0,0,0,0,0.022182,0.026143,-0.080398,0.000000,0.000000,0.000000
highres_imu,7,1511023774835236352.000000,0.000000,-0.000003,0.000000,-0.000003,0.000845,0.002365,-0.000616,0.000000,0.000000,-0.303600,-0.079167,0.023192,0.109121,0,0,0,0,0.022182,0.026143,-0.080398,0.000000,0.000000,0.000000
attitude,7,1511023774836727552.000000,0.000000,-0.000003,0.000000,-0.000003,0.000845,0.002365,-0.000616,0.000000,0.000000,-0.303600,-0.079173,0.023191,0.109125,0,0,0,0,0.022182,0.026143,-0.080398,0.000000,0.000000,0.000000
highres_imu,7,1511023774841435136.000000,0.000000,-0.000003,0.000000,-0.000003,0.000739,0.002897,-0.002747,0.000000,0.000000,-0.303600,-0.079173,0.023191,0.109125,0,0,0,0,0.022182,0.026143,-0.080398,0.000000,0.000000,0.000000
highres_imu,7,1511023774844608000.000000,0.000000,-0.000003,0.000000,-0.000003,-0.000006,0.001939,-0.000935,0.000000,0.000000,-0.303600,-0.079173,0.023191,0.109125,0,0,0,0,0.022182,0.026143,-0.080398,0.000000,0.000000,0.000000
highres_imu,7,1511023774847817984.000000,0.000000,-0.000003,0.000000,-0.000003,0.000308,0.001728,-0.000505,0.000000,0.000000,-0.303600,-0.079173,0.023191,0.109125,0,0,0,0,0.022182,0.026143,-0.080398,0.000000,0.000000,0.000000
attitude,7,1511023774849596160.000000,0.000000,-0.000003,0.000000,-0.000003,0.000308,0.001728,-0.000505,0.000000,0.000000,-0.303600,-0.079176,0.023183,0.109120,0,0,0,0,0.022182,0.026143,-0.080398,0.000000,0.000000,0.000000
highres_imu,7,1511023774855763456.000000,0.000000,-0.000003,0.000000,-0.000003,0.001678,0.002897,-0.001787,0.000000,0.000000,-0.303600,-0.079176,0.023183,0.109120,0,0,0,0,0.022182,0.026143,-0.080398,0.000000,0.000000,0.000000
attitude,7,1511023774857108224.000000,0.000000,-0.000003,0.000000,-0.000003,0.001678,0.002897,-0.001787,0.000000,0.000000,-0.303600,-0.079169,0.023182,0.109118,0,0,0,0,0.022182,0.026143,-0.080398,0.000000,0.000000,0.000000
highres_imu,7,1511023774862130432.000000,0.000000,-0.000003,0.000000,-0.000003,0.000739,0.002152,-0.000510,0.000000,0.000000,-0.303600,-0.079169,0.023182,0.109118,0,0,0,0,0.022182,0.026143,-0.080398,0.000000,0.000000,0.000000
highres_imu,7,1511023774872172288.000000,0.000000,-0.000003,0.000000,-0.000003,0.000420,0.002897,-0.002319,0.000000,0.000000,-0.303600,-0.079169,0.023182,0.109118,0,0,0,0,0.022182,0.026143,-0.080398,0.000000,0.000000,0.000000
attitude,7,1511023774873586432.000000,0.000000,-0.000003,0.000000,-0.000003,0.000420,0.002897,-0.002319,0.000000,0.000000,-0.303600,-0.079165,0.023180,0.109112,0,0,0,0,0.022182,0.026143,-0.080398,0.000000,0.000000,0.000000
highres_imu,7,1511023774877615872.000000,0.000000,-0.000003,0.000000,-0.000003,-0.000538,0.002897,0.000967,0.000000,0.000000,-0.303600,-0.079165,0.023180,0.109112,0,0,0,0,0.022182,0.026143,-0.080398,0.000000,0.000000,0.000000
attitude,7,1511023774883095040.000000,0.000000,-0.000003,0.000000,-0.000003,-0.000538,0.002897,0.000967,0.000000,0.000000,-0.303600,-0.079177,0.023178,0.109126,0,0,0,0,0.022182,0.026143,-0.080398,0.000000,0.000000,0.000000
highres_imu,7,1511023774887250688.000000,0.000000,-0.000003,0.000000,-0.000003,0.000101,0.002471,-0.001787,0.000000,0.000000,-0.303600,-0.079177,0.023178,0.109126,0,0,0,0,0.022182,0.026143,-0.080398,0.000000,0.000000,0.000000
highres_imu,7,1511023774891417088.000000,0.000000,-0.000003,0.000000,-0.000003,-0.001176,0.001833,-0.000613,0.000000,0.000000,-0.303600,-0.079177,0.023178,0.109126,0,0,0,0,0.022182,0.026143,-0.080398,0.000000,0.000000,0.000000
attitude,7,1511023774892851456.000000,0.000000,-0.000003,0.000000,-0.000003,-0.001176,0.001833,-0.000613,0.000000,0.000000,-0.303600,-0.079188,0.023174,0.109128,0,0,0,0,0.022182,0.026143,-0.080398,0.000000,0.000000,0.000000
highres_imu,7,1511023774895732992.000000,0.000000,-0.000003,0.000000,-0.000003,-0.000645,0.002260,-0.000193,0.000000,0.000000,-0.303600,-0.079188,0.023174,0.109128,0,0,0,0,0.022182,0.026143,-0.080398,0.000000,0.000000,0.000000
highres_imu,7,1511023774899918592.000000,0.000000,-0.000003,0.000000,-0.000003,-0.000538,0.001833,-0.000506,0.000000,0.000000,-0.303600,-0.079188,0.023174,0.109128,0,0,0,0,0.022182,0.026143,-0.080398,0.000000,0.000000,0.000000
attitude,7,1511023774901253632.000000,0.000000,-0.000003,0.000000,-0.000003,-0.000538,0.001833,-0.000506,0.000000,0.000000,-0.303600,-0.079203,0.023167,0.109130,0,0,0,0,0.022182,0.026143,-0.080398,0.000000,0.000000,0.000000
highres_imu,7,1511023774908915200.000000,0.000000,-0.000003,0.000000,-0.000003,0.000421,0.002792,0.000547,0.000000,0.000000,-0.303600,-0.079203,0.023167,0.109130,0,0,0,0,0.022182,0.026143,-0.080398,0.000000,0.000000,0.000000
highres_imu,7,1511023774914073088.000000,0.000000,-0.000003,0.000000,-0.000003,0.000202,0.002787,-0.001686,0.000000,0.000000,-0.303600,-0.079203,0.023167,0.109130,0,0,0,0,0.022182,0.026143,-0.080398,0.000000,0.000000,0.000000
attitude,7,1511023774915624960.000000,0.000000,-0.000003,0.000000,-0.000003,0.000202,0.002787,-0.001686,0.000000,0.000000,-0.303600,-0.079205,0.023167,0.109135,0,0,0,0,0.022182,0.026143,-0.080398,0.000000,0.000000,0.000000
highres_imu,8,1511023774926737664.000000,0.000000,-0.000003,0.000000,-0.000003,0.000526,0.001514,0.000867,0.000000,0.000000,-0.303600,-0.079205,0.023167,0.109135,0,0,0,0,0.022182,0.026143,-0.080398,0.000000,0.000000,0.000000
highres_imu,8,1511023774931402752.000000,0.000000,-0.000003,0.000000,-0.000003,0.000526,0.002790,0.000448,0.000000,0.000000,-0.303600,-0.079205,0.023167,0.109135,0,0,0,0,0.022182,0.026143,-0.080398,0.000000,0.000000,0.000000
attitude,8,1511023774932735232.000000,0.000000,-0.000003,0.000000,-0.000003,0.000526,0.002790,0.000448,0.000000,0.000000,-0.303600,-0.079173,0.023140,0.109184,0,0,0,0,0.022182,0.026143,-0.080398,0.000000,0.000000,0.000000
highres_imu,8,1511023774937200640.000000,0.000000,-0.000003,0.000000,-0.000003,-0.000538,0.001939,0.001196,0.000000,0.000000,-0.303600,-0.079173,0.023140,0.109184,0,0,0,0,0.022182,0.026143,-0.080398,0.000000,0.000000,0.000000
highres_imu,8,1511023774940077056.000000,0.000000,-0.000003,0.000000,-0.000003,0.000102,0.002792,-0.000090,0.000000,0.000000,-0.303600,-0.079173,0.023140,0.109184,0,0,0,0,0.022182,0.026143,-0.080398,0.000000,0.000000,0.000000
attitude,8,1511023774941443840.000000,0.000000,-0.000003,0.000000,-0.000003,0.000102,0.002792,-0.000090,0.000000,0.000000,-0.303600,-0.079179,0.023137,0.109202,0,0,0,0,0.022182,0.026143,-0.080398,0.000000,0.000000,0.000000
highres_imu,8,1511023774945647360.000000,0.000000,-0.000003,0.000000,-0.000003,0.000526,0.003748,-0.002106,0.000000,0.000000,-0.303600,-0.079179,0.023137,0.109202,0,0,0,0,0.022182,0.026143,-0.080398,0.000000,0.000000,0.000000
highres_imu,8,1511023774949771520.000000,0.000000,-0.000003,0.000000,-0.000003,0.000526,0.002897,-0.001468,0.000000,0.000000,-0.303600,-0.079179,0.023137,0.109202,0,0,0,0,0.022182,0.026143,-0.080398,0.000000,0.000000,0.000000
attitude,8,1511023774951260416.000000,0.000000,-0.000003,0.000000,-0.000003,0.000526,0.002897,-0.001468,0.000000,0.000000,-0.303600,-0.079179,0.023141,0.109201,0,0,0,0,0.022182,0.026143,-0.080398,0.000000,0.000000,0.000000
highres_imu,8,1511023774955592704.000000,0.000000,-0.000003,0.000000,-0.000003,0.000310,0.003318,-0.002635,0.000000,0.000000,-0.303600,-0.079179,0.023141,0.109201,0,0,0,0,0.022182,0.026143,-0.080398,0.000000,0.000000,0.000000
highres_imu,8,1511023774958396672.000000,0.000000,-0.000003,0.000000,-0.000003,-0.000538,0.002897,0.000457,0.000000,0.000000,-0.303600,-0.079179,0.023141,0.109201,0,0,0,0,0.022182,0.026143,-0.080398,0.000000,0.000000,0.000000
attitude,8,1511023774959838208.000000,0.000000,-0.000003,0.000000,-0.000003,-0.000538,0.002897,0.000457,0.000000,0.000000,-0.303600,-0.079186,0.023144,0.109207,0,0,0,0,0.022182,0.026143,-0.080398,0.000000,0.000000,0.000000
highres_imu,8,1511023774963848704.000000,0.000000,-0.000003,0.000000,-0.000003,-0.000009,0.003002,0.000037,0.000000,0.000000,-0.303600,-0.079186,0.023144,0.109207,0,0,0,0,0.022182,0.026143,-0.080398,0.000000,0.000000,0.000000
highres_imu,9,1511023775069080064.000000,0.000000,-0.000003,0.000000,-0.000003,-0.000538,0.003323,-0.003064,0.000000,0.000000,-0.303600,-0.079186,0.023144,0.109207,0,0,0,0,0.022182,0.026143,-0.080398,0.000000,0.000000,0.000000
attitude,9,1511023775070671872.000000,0.000000,-0.000003,0.000000,-0.000003,-0.000538,0.003323,-0.003064,0.000000,0.000000,-0.303600,-0.079193,0.023146,0.109208,0,0,0,0,0.022182,0.026143,-0.080398,0.000000,0.000000,0.000000
highres_imu,9,1511023775075212544.000000,0.000000,-0.000003,0.000000,-0.000003,-0.000538,0.001939,-0.000510,0.000000,0.000000,-0.303600,-0.079193,0.023146,0.109208,0,0,0,0,0.022182,0.026143,-0.080398,0.000000,0.000000,0.000000
highres_imu,9,1511023775078152448.000000,0.000000,-0.000003,0.000000,-0.000003,0.000524,0.002897,-0.003385,0.000000,0.000000,-0.303600,-0.079193,0.023146,0.109208,0,0,0,0,0.022182,0.026143,-0.080398,0.000000,0.000000,0.000000
attitude,9,1511023775079810048.000000,0.000000,-0.000003,0.000000,-0.000003,0.000524,0.002897,-0.003385,0.000000,0.000000,-0.303600,-0.079197,0.023138,0.109211,0,0,0,0,0.022182,0.026143,-0.080398,0.000000,0.000000,0.000000
highres_imu,9,1511023775084247552.000000,0.000000,-0.000003,0.000000,-0.000003,-0.001071,0.002259,-0.000833,0.000000,0.000000,-0.303600,-0.079197,0.023138,0.109211,0,0,0,0,0.022182,0.026143,-0.080398,0.000000,0.000000,0.000000
highres_imu,9,1511023775088880896.000000,0.000000,-0.000003,0.000000,-0.000003,-0.000006,0.002365,0.001301,0.000000,0.000000,-0.303600,-0.079197,0.023138,0.109211,0,0,0,0,0.022182,0.026143,-0.080398,0.000000,0.000000,0.000000
attitude,9,1511023775090523904.000000,0.000000,-0.000003,0.000000,-0.000003,-0.000006,0.002365,0.001301,0.000000,0.000000,-0.303600,-0.079204,0.023137,0.109230,0,0,0,0,0.022182,0.026143,-0.080398,0.000000,0.000000,0.000000
highres_imu,9,1511023775094929152.000000,0.000000,-0.000003,0.000000,-0.000003,0.000945,0.003316,-0.001030,0.000000,0.000000,-0.303600,-0.079204,0.023137,0.109230,0,0,0,0,0.022182,0.026143,-0.080398,0.000000,0.000000,0.000000
highres_imu,9,1511023775098071296.000000,0.000000,-0.000003,0.000000,-0.000003,0.000526,0.001830,0.000234,0.000000,0.000000,-0.303600,-0.079204,0.023137,0.109230,0,0,0,0,0.022182,0.026143,-0.080398,0.000000,0.000000,0.000000
attitude,9,1511023775099779072.000000,0.000000,-0.000003,0.000000,-0.000003,0.000526,0.001830,0.000234,0.000000,0.000000,-0.303600,-0.079204,0.023131,0.109239,0,0,0,0,0.022182,0.026143,-0.080398,0.000000,0.000000,0.000000
highres_imu,9,1511023775107453696.000000,0.000000,-0.000003,0.000000,-0.000003,0.001058,0.003216,-0.002106,0.000000,0.000000,-0.303600,-0.079204,0.023131,0.109239,0,0,0,0,0.022182,0.026143,-0.080398,0.000000,0.000000,0.000000
highres_imu,9,1511023775112573184.000000,0.000000,-0.000003,0.000000,-0.000003,0.001059,0.002578,-0.001575,0.000000,0.000000,-0.303600,-0.079204,0.023131,0.109239,0,0,0,0,0.022182,0.026143,-0.080398,0.000000,0.000000,0.000000
attitude,9,1511023775114560768.000000,0.000000,-0.000003,0.000000,-0.000003,0.001059,0.002578,-0.001575,0.000000,0.000000,-0.303600,-0.079200,0.023131,0.109238,0,0,0,0,0.022182,0.026143,-0.080398,0.000000,0.000000,0.000000
local_position_ned,9,1511023775120679680.000000,0.000000,-0.000003,0.000000,-0.000003,0.001059,0.002578,-0.001575,0.000000,0.000000,-0.315154,-0.079200,0.023131,0.109238,0,0,0,0,0.021863,0.024533,-0.081796,0.000000,0.000000,0.000000
highres_imu,10,1511023775136547328.000000,0.000000,-0.000003,0.000000,-0.000003,0.001590,0.001718,-0.001347,0.000000,0.000000,-0.315154,-0.079200,0.023131,0.109238,0,0,0,0,0.021863,0.024533,-0.081796,0.000000,0.000000,0.000000
highres_imu,10,1511023775139652352.000000,0.000000,-0.000003,0.000000,-0.000003,-0.000003,0.002897,-0.000090,0.000000,0.000000,-0.315154,-0.079200,0.023131,0.109238,0,0,0,0,0.021863,0.024533,-0.081796,0.000000,0.000000,0.000000
attitude,10,1511023775141146624.000000,0.000000,-0.000003,0.000000,-0.000003,-0.000003,0.002897,-0.000090,0.000000,0.000000,-0.315154,-0.079188,0.023111,0.109329,0,0,0,0,0.021863,0.024533,-0.081796,0.000000,0.000000,0.000000
highres_imu,10,1511023775146984192.000000,0.000000,-0.000003,0.000000,-0.000003,0.001058,0.002897,-0.002106,0.000000,0.000000,-0.315154,-0.079188,0.023111,0.109329,0,0,0,0,0.021863,0.024533,-0.081796,0.000000,0.000000,0.000000
attitude,10,1511023775148490240.000000,0.000000,-0.000003,0.000000,-0.000003,0.001058,0.002897,-0.002106,0.000000,0.000000,-0.315154,-0.079183,0.023110,0.109334,0,0,0,0,0.021863,0.024533,-0.081796,0.000000,0.000000,0.000000
highres_imu,10,1511023775153183488.000000,0.000000,-0.000003,0.000000,-0.000003,0.000526,0.003109,-0.000298,0.000000,0.000000,-0.315154,-0.079183,0.023110,0.109334,0,0,0,0,0.021863,0.024533,-0.081796,0.000000,0.000000,0.000000
highres_imu,10,1511023775156200448.000000,0.000000,-0.000003,0.000000,-0.000003,0.001271,0.003216,-0.001148,0.000000,0.000000,-0.315154,-0.079183,0.023110,0.109334,0,0,0,0,0.021863,0.024533,-0.081796,0.000000,0.000000,0.000000
attitude,10,1511023775157601536.000000,0.000000,-0.000003,0.000000,-0.000003,0.001271,0.003216,-0.001148,0.000000,0.000000,-0.315154,-0.079178,0.023115,0.109345,0,0,0,0,0.021863,0.024533,-0.081796,0.000000,0.000000,0.000000
highres_imu,10,1511023775161825024.000000,0.000000,-0.000003,0.000000,-0.000003,-0.000968,0.002897,-0.000097,0.000000,0.000000,-0.315154,-0.079178,0.023115,0.109345,0,0,0,0,0.021863,0.024533,-0.081796,0.000000,0.000000,0.000000
highres_imu,10,1511023775165907968.000000,0.000000,-0.000003,0.000000,-0.000003,0.000420,0.003110,-0.000084,0.000000,0.000000,-0.315154,-0.079178,0.023115,0.109345,0,0,0,0,0.021863,0.024533,-0.081796,0.000000,0.000000,0.000000
attitude,10,1511023775167348480.000000,0.000000,-0.000003,0.000000,-0.000003,0.000420,0.003110,-0.000084,0.000000,0.000000,-0.315154,-0.079184,0.023116,0.109363,0,0,0,0,0.021863,0.024533,-0.081796,0.000000,0.000000,0.000000
highres_imu,10,1511023775171727872.000000,0.000000,-0.000003,0.000000,-0.000003,-0.000002,0.003433,-0.002323,0.000000,0.000000,-0.315154,-0.079184,0.023116,0.109363,0,0,0,0,0.021863,0.024533,-0.081796,0.000000,0.000000,0.000000
highres_imu,10,1511023775174734080.000000,0.000000,-0.000003,0.000000,-0.000003,0.000204,0.003429,-0.000404,0.000000,0.000000,-0.315154,-0.079184,0.023116,0.109363,0,0,0,0,0.021863,0.024533,-0.081796,0.000000,0.000000,0.000000
attitude,10,1511023775176091648.000000,0.000000,-0.000003,0.000000,-0.000003,0.000204,0.003429,-0.000404,0.000000,0.000000,-0.315154,-0.079191,0.023121,0.109379,0,0,0,0,0.021863,0.024533,-0.081796,0.000000,0.000000,0.000000
highres_imu,10,1511023775180147200.000000,0.000000,-0.000003,0.000000,-0.000003,0.000526,0.003428,-0.002744,0.000000,0.000000,-0.315154,-0.079191,0.023121,0.109379,0,0,0,0,0.021863,0.024533,-0.081796,0.000000,0.000000,0.000000
highres_imu,11,1511023775284947968.000000,0.000000,-0.000003,0.000000,-0.000003,-0.000113,0.001938,-0.001358,0.000000,0.000000,-0.315154,-0.079191,0.023121,0.109379,0,0,0,0,0.021863,0.024533,-0.081796,0.000000,0.000000,0.000000
attitude,11,1511023775286623744.000000,0.000000,-0.000003,0.000000,-0.000003,-0.000113,0.001938,-0.001358,0.000000,0.000000,-0.315154,-0.079193,0.023119,0.109382,0,0,0,0,0.021863,0.024533,-0.081796,0.000000,0.000000,0.000000
highres_imu,11,1511023775291273984.000000,0.000000,-0.000003,0.000000,-0.000003,-0.000012,0.001833,-0.000723,0.000000,0.000000,-0.315154,-0.079193,0.023119,0.109382,0,0,0,0,0.021863,0.024533,-0.081796,0.000000,0.000000,0.000000
highres_imu,11,1511023775294265344.000000,0.000000,-0.000003,0.000000,-0.000003,0.000313,0.002576,-0.002213,0.000000,0.000000,-0.315154,-0.079193,0.023119,0.109382,0,0,0,0,0.021863,0.024533,-0.081796,0.000000,0.000000,0.000000
attitude,11,1511023775296022784.000000,0.000000,-0.000003,0.000000,-0.000003,0.000313,0.002576,-0.002213,0.000000,0.000000,-0.315154,-0.079199,0.023109,0.109395,0,0,0,0,0.021863,0.024533,-0.081796,0.000000,0.000000,0.000000
highres_imu,11,1511023775300378880.000000,0.000000,-0.000003,0.000000,-0.000003,0.000746,0.001833,0.000654,0.000000,0.000000,-0.315154,-0.079199,0.023109,0.109395,0,0,0,0,0.021863,0.024533,-0.081796,0.000000,0.000000,0.000000
highres_imu,11,1511023775305592832.000000,0.000000,-0.000003,0.000000,-0.000003,0.000093,0.001833,-0.002220,0.000000,0.000000,-0.315154,-0.079199,0.023109,0.109395,0,0,0,0,0.021863,0.024533,-0.081796,0.000000,0.000000,0.000000
attitude,11,1511023775307052032.000000,0.000000,-0.000003,0.000000,-0.000003,0.000093,0.001833,-0.002220,0.000000,0.000000,-0.315154,-0.079200,0.023101,0.109408,0,0,0,0,0.021863,0.024533,-0.081796,0.000000,0.000000,0.000000
highres_imu,11,1511023775311655168.000000,0.000000,-0.000003,0.000000,-0.000003,0.000526,0.001833,-0.001896,0.000000,0.000000,-0.315154,-0.079200,0.023101,0.109408,0,0,0,0,0.021863,0.024533,-0.081796,0.000000,0.000000,0.000000
highres_imu,11,1511023775314662656.000000,0.000000,-0.000003,0.000000,-0.000003,0.001484,0.001833,-0.000507,0.000000,0.000000,-0.315154,-0.079200,0.023101,0.109408,0,0,0,0,0.021863,0.024533,-0.081796,0.000000,0.000000,0.000000
attitude,11,1511023775316270848.000000,0.000000,-0.000003,0.000000,-0.000003,0.001484,0.001833,-0.000507,0.000000,0.000000,-0.315154,-0.079195,0.023093,0.109416,0,0,0,0,0.021863,0.024533,-0.081796,0.000000,0.000000,0.000000
highres_imu,11,1511023775324879104.000000,0.000000,-0.000003,0.000000,-0.000003,-0.000220,0.001939,-0.000614,0.000000,0.000000,-0.315154,-0.079195,0.023093,0.109416,0,0,0,0,0.021863,0.024533,-0.081796,0.000000,0.000000,0.000000
highres_imu,12,1511023775333035520.000000,0.000000,-0.000003,0.000000,-0.000003,-0.000432,0.001620,-0.000829,0.000000,0.000000,-0.315154,-0.079195,0.023093,0.109416,0,0,0,0,0.021863,0.024533,-0.081796,0.000000,0.000000,0.000000
highres_imu,12,1511023775353233664.000000,0.000000,-0.000003,0.000000,-0.000003,-0.000645,0.001405,0.000246,0.000000,0.000000,-0.315154,-0.079195,0.023093,0.109416,0,0,0,0,0.021863,0.024533,-0.081796,0.000000,0.000000,0.000000
attitude,12,1511023775354719744.000000,0.000000,-0.000003,0.000000,-0.000003,-0.000645,0.001405,0.000246,0.000000,0.000000,-0.315154,-0.079202,0.023095,0.109530,0,0,0,0,0.021863,0.024533,-0.081796,0.000000,0.000000,0.000000
highres_imu,12,1511023775358939392.000000,0.000000,-0.000003,0.000000,-0.000003,0.000095,0.002897,-0.002541,0.000000,0.000000,-0.315154,-0.079202,0.023095,0.109530,0,0,0,0,0.021863,0.024533,-0.081796,0.000000,0.000000,0.000000
attitude,12,1511023775360319744.000000,0.000000,-0.000003,0.000000,-0.000003,0.000095,0.002897,-0.002541,0.000000,0.000000,-0.315154,-0.079205,0.023094,0.109532,0,0,0,0,0.021863,0.024533,-0.081796,0.000000,0.000000,0.000000
highres_imu,12,1511023775364640256.000000,0.000000,-0.000003,0.000000,-0.000003,-0.000113,0.002154,-0.000406,0.000000,0.000000,-0.315154,-0.079205,0.023094,0.109532,0,0,0,0,0.021863,0.024533,-0.081796,0.000000,0.000000,0.000000
highres_imu,12,1511023775368760576.000000,0.000000,-0.000003,0.000000,-0.000003,0.001484,0.003540,-0.001681,0.000000,0.000000,-0.315154,-0.079205,0.023094,0.109532,0,0,0,0,0.021863,0.024533,-0.081796,0.000000,0.000000,0.000000
attitude,12,1511023775370142720.000000,0.000000,-0.000003,0.000000,-0.000003,0.001484,0.003540,-0.001681,0.000000,0.000000,-0.315154,-0.079201,0.023093,0.109540,0,0,0,0,0.021863,0.024533,-0.081796,0.000000,0.000000,0.000000
highres_imu,12,1511023775374389760.000000,0.000000,-0.000003,0.000000,-0.000003,0.000526,0.002259,-0.000084,0.000000,0.000000,-0.315154,-0.079201,0.023093,0.109540,0,0,0,0,0.021863,0.024533,-0.081796,0.000000,0.000000,0.000000
highres_imu,12,1511023775377230848.000000,0.000000,-0.000003,0.000000,-0.000003,0.002018,0.002045,-0.000405,0.000000,0.000000,-0.315154,-0.079201,0.023093,0.109540,0,0,0,0,0.021863,0.024533,-0.081796,0.000000,0.000000,0.000000
attitude,12,1511023775378566912.000000,0.000000,-0.000003,0.000000,-0.000003,0.002018,0.002045,-0.000405,0.000000,0.000000,-0.315154,-0.079194,0.023095,0.109548,0,0,0,0,0.021863,0.024533,-0.081796,0.000000,0.000000,0.000000
highres_imu,12,1511023775384002048.000000,0.000000,-0.000003,0.000000,-0.000003,-0.000431,0.003323,-0.000510,0.000000,0.000000,-0.315154,-0.079194,0.023095,0.109548,0,0,0,0,0.021863,0.024533,-0.081796,0.000000,0.000000,0.000000
highres_imu,13,1511023775494405120.000000,0.000000,-0.000003,0.000000,-0.000003,0.000739,0.002258,0.000341,0.000000,0.000000,-0.315154,-0.079194,0.023095,0.109548,0,0,0,0,0.021863,0.024533,-0.081796,0.000000,0.000000,0.000000
attitude,13,1511023775495918592.000000,0.000000,-0.000003,0.000000,-0.000003,0.000739,0.002258,0.000341,0.000000,0.000000,-0.315154,-0.079196,0.023095,0.109560,0,0,0,0,0.021863,0.024533,-0.081796,0.000000,0.000000,0.000000
highres_imu,13,1511023775500369152.000000,0.000000,-0.000003,0.000000,-0.000003,0.001165,0.003536,-0.001255,0.000000,0.000000,-0.315154,-0.079196,0.023095,0.109560,0,0,0,0,0.021863,0.024533,-0.081796,0.000000,0.000000,0.000000
highres_imu,13,1511023775503231744.000000,0.000000,-0.000003,0.000000,-0.000003,-0.000422,0.003647,-0.000408,0.000000,0.000000,-0.315154,-0.079196,0.023095,0.109560,0,0,0,0,0.021863,0.024533,-0.081796,0.000000,0.000000,0.000000
attitude,13,1511023775504811264.000000,0.000000,-0.000003,0.000000,-0.000003,-0.000422,0.003647,-0.000408,0.000000,0.000000,-0.315154,-0.079198,0.023102,0.109565,0,0,0,0,0.021863,0.024533,-0.081796,0.000000,0.000000,0.000000
highres_imu,13,1511023775509529600.000000,0.000000,-0.000003,0.000000,-0.000003,0.000845,0.003748,-0.002000,0.000000,0.000000,-0.315154,-0.079198,0.023102,0.109565,0,0,0,0,0.021863,0.024533,-0.081796,0.000000,0.000000,0.000000
highres_imu,13,1511023775514465792.000000,0.000000,-0.000003,0.000000,-0.000003,-0.000112,0.002578,-0.001893,0.000000,0.000000,-0.315154,-0.079198,0.023102,0.109565,0,0,0,0,0.021863,0.024533,-0.081796,0.000000,0.000000,0.000000
attitude,13,1511023775516000256.000000,0.000000,-0.000003,0.000000,-0.000003,-0.000112,0.002578,-0.001893,0.000000,0.000000,-0.315154,-0.079203,0.023104,0.109572,0,0,0,0,0.021863,0.024533,-0.081796,0.000000,0.000000,0.000000
highres_imu,13,1511023775520667136.000000,0.000000,-0.000003,0.000000,-0.000003,0.000207,0.001939,-0.000723,0.000000,0.000000,-0.315154,-0.079203,0.023104,0.109572,0,0,0,0,0.021863,0.024533,-0.081796,0.000000,0.000000,0.000000
highres_imu,13,1511023775523891200.000000,0.000000,-0.000003,0.000000,-0.000003,-0.000112,0.000875,-0.000842,0.000000,0.000000,-0.315154,-0.079203,0.023104,0.109572,0,0,0,0,0.021863,0.024533,-0.081796,0.000000,0.000000,0.000000
attitude,13,1511023775526110976.000000,0.000000,-0.000003,0.000000,-0.000003,-0.000112,0.000875,-0.000842,0.000000,0.000000,-0.315154,-0.079204,0.023091,0.109576,0,0,0,0,0.021863,0.024533,-0.081796,0.000000,0.000000,0.000000
local_position_ned,14,1511023775537101056.000000,0.000000,-0.000003,0.000000,-0.000003,-0.000112,0.000875,-0.000842,0.000000,0.000000,-0.321912,-0.079204,0.023091,0.109576,0,0,0,0,0.022352,0.022009,-0.082894,0.000000,0.000000,0.000000
highres_imu,14,1511023775563407616.000000,0.000000,-0.000003,0.000000,-0.000003,0.000308,0.002684,0.000028,0.000000,0.000000,-0.321912,-0.079204,0.023091,0.109576,0,0,0,0,0.022352,0.022009,-0.082894,0.000000,0.000000,0.000000
attitude,14,1511023775564794112.000000,0.000000,-0.000003,0.000000,-0.000003,0.000308,0.002684,0.000028,0.000000,0.000000,-0.321912,-0.079221,0.023103,0.109635,0,0,0,0,0.022352,0.022009,-0.082894,0.000000,0.000000,0.000000
highres_imu,14,1511023775569407744.000000,0.000000,-0.000003,0.000000,-0.000003,0.001590,0.003748,-0.001787,0.000000,0.000000,-0.321912,-0.079221,0.023103,0.109635,0,0,0,0,0.022352,0.022009,-0.082894,0.000000,0.000000,0.000000
highres_imu,14,1511023775572051968.000000,0.000000,-0.000003,0.000000,-0.000003,0.001062,0.002584,-0.000939,0.000000,0.000000,-0.321912,-0.079221,0.023103,0.109635,0,0,0,0,0.022352,0.022009,-0.082894,0.000000,0.000000,0.000000
attitude,14,1511023775573407744.000000,0.000000,-0.000003,0.000000,-0.000003,0.001062,0.002584,-0.000939,0.000000,0.000000,-0.321912,-0.079212,0.023108,0.109638,0,0,0,0,0.022352,0.022009,-0.082894,0.000000,0.000000,0.000000
highres_imu,14,1511023775577855232.000000,0.000000,-0.000003,0.000000,-0.000003,0.002016,0.004706,-0.001255,0.000000,0.000000,-0.321912,-0.079212,0.023108,0.109638,0,0,0,0,0.022352,0.022009,-0.082894,0.000000,0.000000,0.000000
highres_imu,14,1511023775582200576.000000,0.000000,-0.000003,0.000000,-0.000003,0.000313,0.003429,-0.000937,0.000000,0.000000,-0.321912,-0.079212,0.023108,0.109638,0,0,0,0,0.022352,0.022009,-0.082894,0.000000,0.000000,0.000000
attitude,14,1511023775583540480.000000,0.000000,-0.000003,0.000000,-0.000003,0.000313,0.003429,-0.000937,0.000000,0.000000,-0.321912,-0.079207,0.023118,0.109636,0,0,0,0,0.022352,0.022009,-0.082894,0.000000,0.000000,0.000000
highres_imu,14,1511023775587730176.000000,0.000000,-0.000003,0.000000,-0.000003,0.001273,0.003427,-0.001892,0.000000,0.000000,-0.321912,-0.079207,0.023118,0.109636,0,0,0,0,0.022352,0.022009,-0.082894,0.000000,0.000000,0.000000
attitude,14,1511023775589317120.000000,0.000000,-0.000003,0.000000,-0.000003,0.001273,0.003427,-0.001892,0.000000,0.000000,-0.321912,-0.079202,0.023120,0.109634,0,0,0,0,0.022352,0.022009,-0.082894,0.000000,0.000000,0.000000
highres_imu,14,1511023775593323520.000000,0.000000,-0.000003,0.000000,-0.000003,-0.000758,0.001939,-0.000081,0.000000,0.000000,-0.321912,-0.079202,0.023120,0.109634,0,0,0,0,0.022352,0.022009,-0.082894,0.000000,0.000000,0.000000
highres_imu,14,1511023775599804160.000000,0.000000,-0.000003,0.000000,-0.000003,0.000096,0.001940,0.000027,0.000000,0.000000,-0.321912,-0.079202,0.023120,0.109634,0,0,0,0,0.022352,0.022009,-0.082894,0.000000,0.000000,0.000000
attitude,14,1511023775601279232.000000,0.000000,-0.000003,0.000000,-0.000003,0.000096,0.001940,0.000027,0.000000,0.000000,-0.321912,-0.079216,0.023114,0.109629,0,0,0,0,0.022352,0.022009,-0.082894,0.000000,0.000000,0.000000
highres_imu,14,1511023775605803520.000000,0.000000,-0.000003,0.000000,-0.000003,0.000632,0.002683,-0.001039,0.000000,0.000000,-0.321912,-0.079216,0.023114,0.109629,0,0,0,0,0.022352,0.022009,-0.082894,0.000000,0.000000,0.000000
highres_imu,14,1511023775610086400.000000,0.000000,-0.000003,0.000000,-0.000003,0.001324,0.002453,-0.000099,0.000000,0.000000,-0.321912,-0.079216,0.023114,0.109629,0,0,0,0,0.022352,0.022009,-0.082894,0.000000,0.000000,0.000000
attitude,14,1511023775611875328.000000,0.000000,-0.000003,0.000000,-0.000003,0.001324,0.002453,-0.000099,0.000000,0.000000,-0.321912,-0.079207,0.023113,0.109626,0,0,0,0,0.022352,0.022009,-0.082894,0.000000,0.000000,0.000000
highres_imu,14,1511023775616414976.000000,0.000000,-0.000003,0.000000,-0.000003,0.001165,0.002897,-0.002106,0.000000,0.000000,-0.321912,-0.079207,0.023113,0.109626,0,0,0,0,0.022352,0.022009,-0.082894,0.000000,0.000000,0.000000
highres_imu,14,1511023775619280128.000000,0.000000,-0.000003,0.000000,-0.000003,-0.000217,0.002153,-0.000619,0.000000,0.000000,-0.321912,-0.079207,0.023113,0.109626,0,0,0,0,0.022352,0.022009,-0.082894,0.000000,0.000000,0.000000
attitude,14,1511023775621010176.000000,0.000000,-0.000003,0.000000,-0.000003,-0.000217,0.002153,-0.000619,0.000000,0.000000,-0.321912,-0.079210,0.023107,0.109627,0,0,0,0,0.022352,0.022009,-0.082894,0.000000,0.000000,0.000000
highres_imu,15,1511023775628727808.000000,0.000000,-0.000003,0.000000,-0.000003,0.000100,0.002577,-0.002318,0.000000,0.000000,-0.321912,-0.079210,0.023107,0.109627,0,0,0,0,0.022352,0.022009,-0.082894,0.000000,0.000000,0.000000
local_position_ned,15,1511023775634435328.000000,0.000000,-0.000003,0.000000,-0.000003,0.000100,0.002577,-0.002318,0.000000,0.000000,-0.332745,-0.079210,0.023107,0.109627,0,0,0,0,0.023715,0.022044,-0.084121,0.000000,0.000000,0.000000
highres_imu,15,1511023775637104128.000000,0.000000,-0.000003,0.000000,-0.000003,-0.000538,0.002897,-0.000403,0.000000,0.000000,-0.332745,-0.079210,0.023107,0.109627,0,0,0,0,0.023715,0.022044,-0.084121,0.000000,0.000000,0.000000
attitude,15,1511023775638671616.000000,0.000000,-0.000003,0.000000,-0.000003,-0.000538,0.002897,-0.000403,0.000000,0.000000,-0.332745,-0.079216,0.023106,0.109623,0,0,0,0,0.023715,0.022044,-0.084121,0.000000,0.000000,0.000000
attitude,15,1511023775654563072.000000,0.000000,-0.000003,0.000000,-0.000003,-0.000538,0.002897,-0.000403,0.000000,0.000000,-0.332745,-0.079205,0.023103,0.109581,0,0,0,0,0.023715,0.022044,-0.084121,0.000000,0.000000,0.000000
highres_imu,15,1511023775667118592.000000,0.000000,-0.000003,0.000000,-0.000003,-0.000857,0.002790,0.000129,0.000000,0.000000,-0.332745,-0.079205,0.023103,0.109581,0,0,0,0,0.023715,0.022044,-0.084121,0.000000,0.000000,0.000000
attitude,15,1511023775674203392.000000,0.000000,-0.000003,0.000000,-0.000003,-0.000857,0.002790,0.000129,0.000000,0.000000,-0.332745,-0.079209,0.023111,0.109572,0,0,0,0,0.023715,0.022044,-0.084121,0.000000,0.000000,0.000000
highres_imu,15,1511023775678491136.000000,0.000000,-0.000003,0.000000,-0.000003,-0.000432,0.002364,-0.000722,0.000000,0.000000,-0.332745,-0.079209,0.023111,0.109572,0,0,0,0,0.023715,0.022044,-0.084121,0.000000,0.000000,0.000000
highres_imu,15,1511023775681180928.000000,0.000000,-0.000003,0.000000,-0.000003,0.000526,0.003854,-0.001680,0.000000,0.000000,-0.332745,-0.079209,0.023111,0.109572,0,0,0,0,0.023715,0.022044,-0.084121,0.000000,0.000000,0.000000
attitude,15,1511023775682739712.000000,0.000000,-0.000003,0.000000,-0.000003,0.000526,0.003854,-0.001680,0.000000,0.000000,-0.332745,-0.079212,0.023111,0.109567,0,0,0,0,0.023715,0.022044,-0.084121,0.000000,0.000000,0.000000
highres_imu,15,1511023775686985216.000000,0.000000,-0.000003,0.000000,-0.000003,0.000526,0.003009,0.000106,0.000000,0.000000,-0.332745,-0.079212,0.023111,0.109567,0,0,0,0,0.023715,0.022044,-0.084121,0.000000,0.000000,0.000000
highres_imu,15,1511023775691336448.000000,0.000000,-0.000003,0.000000,-0.000003,0.001165,0.003003,0.000980,0.000000,0.000000,-0.332745,-0.079212,0.023111,0.109567,0,0,0,0,0.023715,0.022044,-0.084121,0.000000,0.000000,0.000000
highres_imu,15,1511023775693948928.000000,0.000000,-0.000003,0.000000,-0.000003,0.001482,0.003853,-0.002212,0.000000,0.000000,-0.332745,-0.079212,0.023111,0.109567,0,0,0,0,0.023715,0.022044,-0.084121,0.000000,0.000000,0.000000
attitude,15,1511023775695559424.000000,0.000000,-0.000003,0.000000,-0.000003,0.001482,0.003853,-0.002212,0.000000,0.000000,-0.332745,-0.079205,0.023118,0.109567,0,0,0,0,0.023715,0.022044,-0.084121,0.000000,0.000000,0.000000
highres_imu,15,1511023775699580416.000000,0.000000,-0.000003,0.000000,-0.000003,0.000414,0.002146,-0.000073,0.000000,0.000000,-0.332745,-0.079205,0.023118,0.109567,0,0,0,0,0.023715,0.022044,-0.084121,0.000000,0.000000,0.000000
attitude,15,1511023775701159168.000000,0.000000,-0.000003,0.000000,-0.000003,0.000414,0.002146,-0.000073,0.000000,0.000000,-0.332745,-0.079209,0.023114,0.109567,0,0,0,0,0.023715,0.022044,-0.084121,0.000000,0.000000,0.000000
highres_imu,16,1511023775806124288.000000,0.000000,-0.000003,0.000000,-0.000003,0.001484,0.002897,-0.002634,0.000000,0.000000,-0.332745,-0.079209,0.023114,0.109567,0,0,0,0,0.023715,0.022044,-0.084121,0.000000,0.000000,0.000000
highres_imu,16,1511023775810844416.000000,0.000000,-0.000003,0.000000,-0.000003,-0.000751,0.002574,-0.000824,0.000000,0.000000,-0.332745,-0.079209,0.023114,0.109567,0,0,0,0,0.023715,0.022044,-0.084121,0.000000,0.000000,0.000000
attitude,16,1511023775812475136.000000,0.000000,-0.000003,0.000000,-0.000003,-0.000751,0.002574,-0.000824,0.000000,0.000000,-0.332745,-0.079210,0.023113,0.109556,0,0,0,0,0.023715,0.022044,-0.084121,0.000000,0.000000,0.000000
highres_imu,16,1511023775816897792.000000,0.000000,-0.000003,0.000000,-0.000003,0.000424,0.002792,-0.000727,0.000000,0.000000,-0.332745,-0.079210,0.023113,0.109556,0,0,0,0,0.023715,0.022044,-0.084121,0.000000,0.000000,0.000000
highres_imu,16,1511023775819894528.000000,0.000000,-0.000003,0.000000,-0.000003,0.001265,0.003856,-0.003382,0.000000,0.000000,-0.332745,-0.079210,0.023113,0.109556,0,0,0,0,0.023715,0.022044,-0.084121,0.000000,0.000000,0.000000
attitude,16,1511023775821379328.000000,0.000000,-0.000003,0.000000,-0.000003,0.001265,0.003856,-0.003382,0.000000,0.000000,-0.332745,-0.079208,0.023117,0.109542,0,0,0,0,0.023715,0.022044,-0.084121,0.000000,0.000000,0.000000
highres_imu,16,1511023775826145536.000000,0.000000,-0.000003,0.000000,-0.000003,-0.000219,0.002897,-0.000723,0.000000,0.000000,-0.332745,-0.079208,0.023117,0.109542,0,0,0,0,0.023715,0.022044,-0.084121,0.000000,0.000000,0.000000
highres_imu,17,1511023775832952832.000000,0.000000,-0.000003,0.000000,-0.000003,0.001170,0.001938,-0.001051,0.000000,0.000000,-0.332745,-0.079208,0.023117,0.109542,0,0,0,0,0.023715,0.022044,-0.084121,0.000000,0.000000,0.000000
attitude,17,1511023775834663424.000000,0.000000,-0.000003,0.000000,-0.000003,0.001170,0.001938,-0.001051,0.000000,0.000000,-0.332745,-0.079211,0.023115,0.109532,0,0,0,0,0.023715,0.022044,-0.084121,0.000000,0.000000,0.000000
highres_imu,17,1511023775839286784.000000,0.000000,-0.000003,0.000000,-0.000003,0.000944,0.001617,-0.000818,0.000000,0.000000,-0.332745,-0.079211,0.023115,0.109532,0,0,0,0,0.023715,0.022044,-0.084121,0.000000,0.000000,0.000000
highres_imu,17,1511023775842438656.000000,0.000000,-0.000003,0.000000,-0.000003,0.000633,0.002255,0.000876,0.000000,0.000000,-0.332745,-0.079211,0.023115,0.109532,0,0,0,0,0.023715,0.022044,-0.084121,0.000000,0.000000,0.000000
attitude,17,1511023775844199424.000000,0.000000,-0.000003,0.000000,-0.000003,0.000633,0.002255,0.000876,0.000000,0.000000,-0.332745,-0.079208,0.023109,0.109538,0,0,0,0,0.023715,0.022044,-0.084121,0.000000,0.000000,0.000000
highres_imu,17,1511023775848741376.000000,0.000000,-0.000003,0.000000,-0.000003,0.001806,0.003961,-0.001786,0.000000,0.000000,-0.332745,-0.079208,0.023109,0.109538,0,0,0,0,0.023715,0.022044,-0.084121,0.000000,0.000000,0.000000
local_position_ned,17,1511023775858062848.000000,0.000000,-0.000003,0.000000,-0.000003,0.001806,0.003961,-0.001786,0.000000,0.000000,-0.344170,-0.079208,0.023109,0.109538,0,0,0,0,0.024341,0.021978,-0.086879,0.000000,0.000000,0.000000
highres_imu,17,1511023775869667328.000000,0.000000,-0.000003,0.000000,-0.000003,-0.000538,0.002579,-0.000834,0.000000,0.000000,-0.344170,-0.079208,0.023109,0.109538,0,0,0,0,0.024341,0.021978,-0.086879,0.000000,0.000000,0.000000
attitude,17,1511023775871019264.000000,0.000000,-0.000003,0.000000,-0.000003,-0.000538,0.002579,-0.000834,0.000000,0.000000,-0.344170,-0.079194,0.023126,0.109449,0,0,0,0,0.024341,0.021978,-0.086879,0.000000,0.000000,0.000000
highres_imu,17,1511023775879120384.000000,0.000000,-0.000003,0.000000,-0.000003,0.001160,0.003426,-0.000085,0.000000,0.000000,-0.344170,-0.079194,0.023126,0.109449,0,0,0,0,0.024341,0.021978,-0.086879,0.000000,0.000000,0.000000
attitude,17,1511023775880773632.000000,0.000000,-0.000003,0.000000,-0.000003,0.001160,0.003426,-0.000085,0.000000,0.000000,-0.344170,-0.079193,0.023128,0.109434,0,0,0,0,0.024341,0.021978,-0.086879,0.000000,0.000000,0.000000
highres_imu,17,1511023775885193216.000000,0.000000,-0.000003,0.000000,-0.000003,0.002327,0.002779,-0.002215,0.000000,0.000000,-0.344170,-0.079193,0.023128,0.109434,0,0,0,0,0.024341,0.021978,-0.086879,0.000000,0.000000,0.000000
attitude,17,1511023775886539520.000000,0.000000,-0.000003,0.000000,-0.000003,0.002327,0.002779,-0.002215,0.000000,0.000000,-0.344170,-0.079183,0.023124,0.109424,0,0,0,0,0.024341,0.021978,-0.086879,0.000000,0.000000,0.000000
highres_imu,17,1511023775890702848.000000,0.000000,-0.000003,0.000000,-0.000003,0.000738,0.002364,0.000130,0.000000,0.000000,-0.344170,-0.079183,0.023124,0.109424,0,0,0,0,0.024341,0.021978,-0.086879,0.000000,0.000000,0.000000
highres_imu,17,1511023775895022080.000000,0.000000,-0.000003,0.000000,-0.000003,0.001058,0.003110,-0.001681,0.000000,0.000000,-0.344170,-0.079183,0.023124,0.109424,0,0,0,0,0.024341,0.021978,-0.086879,0.000000,0.000000,0.000000
attitude,17,1511023775896361216.000000,0.000000,-0.000003,0.000000,-0.000003,0.001058,0.003110,-0.001681,0.000000,0.000000,-0.344170,-0.079180,0.023123,0.109419,0,0,0,0,0.024341,0.021978,-0.086879,0.000000,0.000000,0.000000
highres_imu,17,1511023775900411904.000000,0.000000,-0.000003,0.000000,-0.000003,-0.000215,0.003961,-0.001042,0.000000,0.000000,-0.344170,-0.079180,0.023123,0.109419,0,0,0,0,0.024341,0.021978,-0.086879,0.000000,0.000000,0.000000
highres_imu,17,1511023775903170560.000000,0.000000,-0.000003,0.000000,-0.000003,0.000420,0.003429,-0.000404,0.000000,0.000000,-0.344170,-0.079180,0.023123,0.109419,0,0,0,0,0.024341,0.021978,-0.086879,0.000000,0.000000,0.000000
attitude,17,1511023775904620032.000000,0.000000,-0.000003,0.000000,-0.000003,0.000420,0.003429,-0.000404,0.000000,0.000000,-0.344170,-0.079183,0.023130,0.109413,0,0,0,0,0.024341,0.021978,-0.086879,0.000000,0.000000,0.000000
highres_imu,17,1511023775908982016.000000,0.000000,-0.000003,0.000000,-0.000003,-0.000327,0.001939,-0.001365,0.000000,0.000000,-0.344170,-0.079183,0.023130,0.109413,0,0,0,0,0.024341,0.021978,-0.086879,0.000000,0.000000,0.000000
highres_imu,18,1511023776014369792.000000,0.000000,-0.000003,0.000000,-0.000003,0.001484,0.002364,-0.000403,0.000000,0.000000,-0.344170,-0.079183,0.023130,0.109413,0,0,0,0,0.024341,0.021978,-0.086879,0.000000,0.000000,0.000000
attitude,18,1511023776015904512.000000,0.000000,-0.000003,0.000000,-0.000003,0.001484,0.002364,-0.000403,0.000000,0.000000,-0.344170,-0.079185,0.023128,0.109398,0,0,0,0,0.024341,0.021978,-0.086879,0.000000,0.000000,0.000000
highres_imu,18,1511023776020298496.000000,0.000000,-0.000003,0.000000,-0.000003,0.002442,0.003429,-0.003271,0.000000,0.000000,-0.344170,-0.079185,0.023128,0.109398,0,0,0,0,0.024341,0.021978,-0.086879,0.000000,0.000000,0.000000
highres_imu,18,1511023776023253504.000000,0.000000,-0.000003,0.000000,-0.000003,0.000100,0.003002,-0.001466,0.000000,0.000000,-0.344170,-0.079185,0.023128,0.109398,0,0,0,0,0.024341,0.021978,-0.086879,0.000000,0.000000,0.000000
attitude,18,1511023776024752640.000000,0.000000,-0.000003,0.000000,-0.000003,0.000100,0.003002,-0.001466,0.000000,0.000000,-0.344170,-0.079179,0.023131,0.109380,0,0,0,0,0.024341,0.021978,-0.086879,0.000000,0.000000,0.000000
highres_imu,18,1511023776029367296.000000,0.000000,-0.000003,0.000000,-0.000003,-0.000005,0.002046,0.000128,0.000000,0.000000,-0.344170,-0.079179,0.023131,0.109380,0,0,0,0,0.024341,0.021978,-0.086879,0.000000,0.000000,0.000000
highres_imu,19,1511023776034286336.000000,0.000000,-0.000003,0.000000,-0.000003,0.000101,0.002897,-0.001574,0.000000,0.000000,-0.344170,-0.079179,0.023131,0.109380,0,0,0,0,0.024341,0.021978,-0.086879,0.000000,0.000000,0.000000
attitude,19,1511023776036055040.000000,0.000000,-0.000003,0.000000,-0.000003,0.000101,0.002897,-0.001574,0.000000,0.000000,-0.344170,-0.079180,0.023128,0.109369,0,0,0,0,0.024341,0.021978,-0.086879,0.000000,0.000000,0.000000
highres_imu,19,1511023776040726528.000000,0.000000,-0.000003,0.000000,-0.000003,0.000737,0.002897,-0.000723,0.000000,0.000000,-0.344170,-0.079180,0.023128,0.109369,0,0,0,0,0.024341,0.021978,-0.086879,0.000000,0.000000,0.000000
highres_imu,19,1511023776043794432.000000,0.000000,-0.000003,0.000000,-0.000003,-0.000008,0.003747,-0.001573,0.000000,0.000000,-0.344170,-0.079180,0.023128,0.109369,0,0,0,0,0.024341,0.021978,-0.086879,0.000000,0.000000,0.000000
attitude,19,1511023776045509632.000000,0.000000,-0.000003,0.000000,-0.000003,-0.000008,0.003747,-0.001573,0.000000,0.000000,-0.344170,-0.079178,0.023135,0.109355,0,0,0,0,0.024341,0.021978,-0.086879,0.000000,0.000000,0.000000
highres_imu,19,1511023776053537792.000000,0.000000,-0.000003,0.000000,-0.000003,-0.000538,0.002897,0.000767,0.000000,0.000000,-0.344170,-0.079178,0.023135,0.109355,0,0,0,0,0.024341,0.021978,-0.086879,0.000000,0.000000,0.000000
highres_imu,19,1511023776063406336.000000,0.000000,-0.000003,0.000000,-0.000003,0.000524,0.002681,0.000238,0.000000,0.000000,-0.344170,-0.079178,0.023135,0.109355,0,0,0,0,0.024341,0.021978,-0.086879,0.000000,0.000000,0.000000
highres_imu,19,1511023776072377856.000000,0.000000,-0.000003,0.000000,-0.000003,0.000314,0.002578,0.000235,0.000000,0.000000,-0.344170,-0.079178,0.023135,0.109355,0,0,0,0,0.024341,0.021978,-0.086879,0.000000,0.000000,0.000000
attitude,19,1511023776073710336.000000,0.000000,-0.000003,0.000000,-0.000003,0.000314,0.002578,0.000235,0.000000,0.000000,-0.344170,-0.079180,0.023108,0.109295,0,0,0,0,0.024341,0.021978,-0.086879,0.000000,0.000000,0.000000
highres_imu,19,1511023776077799424.000000,0.000000,-0.000003,0.000000,-0.000003,-0.000325,0.002152,-0.000935,0.000000,0.000000,-0.344170,-0.079180,0.023108,0.109295,0,0,0,0,0.024341,0.021978,-0.086879,0.000000,0.000000,0.000000
highres_imu,19,1511023776081857024.000000,0.000000,-0.000003,0.000000,-0.000003,0.000526,0.001833,-0.000191,0.000000,0.000000,-0.344170,-0.079180,0.023108,0.109295,0,0,0,0,0.024341,0.021978,-0.086879,0.000000,0.000000,0.000000
