Pose,FrameNo,timestamp(ns),timeboot(ms),xgyro,xyyro,zgyro,xacc,yacc,zacc,x,y,z,roll,pitch,yaw,hdop,lat,lon,alt,vx,vy,vz,gpsxacc,gpsyacc,gpszacc
highres_imu,0,1511429253168279296.000000,0.000000,-0.000003,0.000000,-0.000003,0.001484,0.002365,-0.001574,0.000000,0.000000,0.738074,-0.084726,0.033377,0.020412,0,0,0,0,-0.004790,-0.005322,0.005912,0.000000,0.000000,0.000000
highres_imu,0,1511429253187027968.000000,0.000000,-0.000003,0.000000,-0.000003,0.001907,0.001516,-0.002646,0.000000,0.000000,0.738074,-0.084726,0.033377,0.020412,0,0,0,0,-0.004790,-0.005322,0.005912,0.000000,0.000000,0.000000
highres_imu,0,1511429253196909568.000000,0.000000,-0.000003,0.000000,-0.000003,0.002016,0.001303,-0.001044,0.000000,0.000000,0.738074,-0.084726,0.033377,0.020412,0,0,0,0,-0.004790,-0.005322,0.005912,0.000000,0.000000,0.000000
attitude,0,1511429253202415104.000000,0.000000,-0.000003,0.000000,-0.000003,0.002016,0.001303,-0.001044,0.000000,0.000000,0.738074,-0.084725,0.033382,0.020438,0,0,0,0,-0.004790,-0.005322,0.005912,0.000000,0.000000,0.000000
highres_imu,0,1511429253236089600.000000,0.000000,-0.000003,0.000000,-0.000003,0.003187,0.001726,-0.000616,0.000000,0.000000,0.738074,-0.084725,0.033382,0.020438,0,0,0,0,-0.004790,-0.005322,0.005912,0.000000,0.000000,0.000000
attitude,0,1511429253241279232.000000,0.000000,-0.000003,0.000000,-0.000003,0.003187,0.001726,-0.000616,0.000000,0.000000,0.738074,-0.084725,0.033392,0.020465,0,0,0,0,-0.004790,-0.005322,0.005912,0.000000,0.000000,0.000000
attitude,1,1511429253252138240.000000,0.000000,-0.000003,0.000000,-0.000003,0.003187,0.001726,-0.000616,0.000000,0.000000,0.738074,-0.084721,0.033371,0.020454,0,0,0,0,-0.004790,-0.005322,0.005912,0.000000,0.000000,0.000000
highres_imu,1,1511429253267604480.000000,0.000000,-0.000003,0.000000,-0.000003,0.003399,0.001833,0.000554,0.000000,0.000000,0.738074,-0.084721,0.033371,0.020454,0,0,0,0,-0.004790,-0.005322,0.005912,0.000000,0.000000,0.000000
highres_imu,1,1511429253303060992.000000,0.000000,-0.000003,0.000000,-0.000003,0.002333,0.001833,-0.002641,0.000000,0.000000,0.738074,-0.084721,0.033371,0.020454,0,0,0,0,-0.004790,-0.005322,0.005912,0.000000,0.000000,0.000000
attitude,1,1511429253308295680.000000,0.000000,-0.000003,0.000000,-0.000003,0.002333,0.001833,-0.002641,0.000000,0.000000,0.738074,-0.084718,0.033349,0.020449,0,0,0,0,-0.004790,-0.005322,0.005912,0.000000,0.000000,0.000000
highres_imu,1,1511429253342937088.000000,0.000000,-0.000003,0.000000,-0.000003,0.004038,0.001620,0.000448,0.000000,0.000000,0.738074,-0.084718,0.033349,0.020449,0,0,0,0,-0.004790,-0.005322,0.005912,0.000000,0.000000,0.000000
highres_imu,2,1511429253387711232.000000,0.000000,-0.000003,0.000000,-0.000003,0.000844,0.002147,-0.003380,0.000000,0.000000,0.738074,-0.084718,0.033349,0.020449,0,0,0,0,-0.004790,-0.005322,0.005912,0.000000,0.000000,0.000000
attitude,2,1511429253392820736.000000,0.000000,-0.000003,0.000000,-0.000003,0.000844,0.002147,-0.003380,0.000000,0.000000,0.738074,-0.084704,0.033354,0.020436,0,0,0,0,-0.004790,-0.005322,0.005912,0.000000,0.000000,0.000000
highres_imu,2,1511429253407609856.000000,0.000000,-0.000003,0.000000,-0.000003,0.002230,0.002366,-0.002848,0.000000,0.000000,0.738074,-0.084704,0.033354,0.020436,0,0,0,0,-0.004790,-0.005322,0.005912,0.000000,0.000000,0.000000
highres_imu,2,1511429253417652480.000000,0.000000,-0.000003,0.000000,-0.000003,0.000850,0.001833,-0.002643,0.000000,0.000000,0.738074,-0.084704,0.033354,0.020436,0,0,0,0,-0.004790,-0.005322,0.005912,0.000000,0.000000,0.000000
attitude,2,1511429253422984448.000000,0.000000,-0.000003,0.000000,-0.000003,0.000850,0.001833,-0.002643,0.000000,0.000000,0.738074,-0.084688,0.033377,0.020404,0,0,0,0,-0.004790,-0.005322,0.005912,0.000000,0.000000,0.000000
highres_imu,3,1511429253462056960.000000,0.000000,-0.000003,0.000000,-0.000003,0.003400,0.002790,-0.000084,0.000000,0.000000,0.738074,-0.084688,0.033377,0.020404,0,0,0,0,-0.004790,-0.005322,0.005912,0.000000,0.000000,0.000000
attitude,3,1511429253467359744.000000,0.000000,-0.000003,0.000000,-0.000003,0.003400,0.002790,-0.000084,0.000000,0.000000,0.738074,-0.084687,0.033379,0.020388,0,0,0,0,-0.004790,-0.005322,0.005912,0.000000,0.000000,0.000000
local_position_ned,3,1511429253483027456.000000,0.000000,-0.000003,0.000000,-0.000003,0.003400,0.002790,-0.000084,0.000000,0.000000,0.725197,-0.084687,0.033379,0.020388,0,0,0,0,-0.005234,-0.003557,0.002994,0.000000,0.000000,0.000000
highres_imu,3,1511429253524466432.000000,0.000000,-0.000003,0.000000,-0.000003,0.001590,0.001833,-0.002530,0.000000,0.000000,0.725197,-0.084687,0.033379,0.020388,0,0,0,0,-0.005234,-0.003557,0.002994,0.000000,0.000000,0.000000
highres_imu,3,1511429253534615040.000000,0.000000,-0.000003,0.000000,-0.000003,0.002333,0.002250,0.000020,0.000000,0.000000,0.725197,-0.084687,0.033379,0.020388,0,0,0,0,-0.005234,-0.003557,0.002994,0.000000,0.000000,0.000000
highres_imu,4,1511429253564874752.000000,0.000000,-0.000003,0.000000,-0.000003,0.002125,0.001833,-0.001357,0.000000,0.000000,0.725197,-0.084687,0.033379,0.020388,0,0,0,0,-0.005234,-0.003557,0.002994,0.000000,0.000000,0.000000
attitude,4,1511429253570085632.000000,0.000000,-0.000003,0.000000,-0.000003,0.002125,0.001833,-0.001357,0.000000,0.000000,0.725197,-0.084669,0.033351,0.020207,0,0,0,0,-0.005234,-0.003557,0.002994,0.000000,0.000000,0.000000
highres_imu,4,1511429253585532160.000000,0.000000,-0.000003,0.000000,-0.000003,0.001809,0.003216,-0.001675,0.000000,0.000000,0.725197,-0.084669,0.033351,0.020207,0,0,0,0,-0.005234,-0.003557,0.002994,0.000000,0.000000,0.000000
highres_imu,4,1511429253613926912.000000,0.000000,-0.000003,0.000000,-0.000003,0.001803,0.001833,-0.004448,0.000000,0.000000,0.725197,-0.084669,0.033351,0.020207,0,0,0,0,-0.005234,-0.003557,0.002994,0.000000,0.000000,0.000000
attitude,4,1511429253619383296.000000,0.000000,-0.000003,0.000000,-0.000003,0.001803,0.001833,-0.004448,0.000000,0.000000,0.725197,-0.084665,0.033359,0.020173,0,0,0,0,-0.005234,-0.003557,0.002994,0.000000,0.000000,0.000000
attitude,4,1511429253637268736.000000,0.000000,-0.000003,0.000000,-0.000003,0.001803,0.001833,-0.004448,0.000000,0.000000,0.725197,-0.084669,0.033352,0.020154,0,0,0,0,-0.005234,-0.003557,0.002994,0.000000,0.000000,0.000000
highres_imu,4,1511429253647308800.000000,0.000000,-0.000003,0.000000,-0.000003,0.001590,0.000768,-0.001890,0.000000,0.000000,0.725197,-0.084669,0.033352,0.020154,0,0,0,0,-0.005234,-0.003557,0.002994,0.000000,0.000000,0.000000
highres_imu,5,1511429253673978368.000000,0.000000,-0.000003,0.000000,-0.000003,0.001320,0.001833,-0.001795,0.000000,0.000000,0.725197,-0.084669,0.033352,0.020154,0,0,0,0,-0.005234,-0.003557,0.002994,0.000000,0.000000,0.000000
attitude,5,1511429253679083008.000000,0.000000,-0.000003,0.000000,-0.000003,0.001320,0.001833,-0.001795,0.000000,0.000000,0.725197,-0.084694,0.033348,0.020126,0,0,0,0,-0.005234,-0.003557,0.002994,0.000000,0.000000,0.000000
highres_imu,5,1511429253688973312.000000,0.000000,-0.000003,0.000000,-0.000003,0.002655,0.002152,0.000235,0.000000,0.000000,0.725197,-0.084694,0.033348,0.020126,0,0,0,0,-0.005234,-0.003557,0.002994,0.000000,0.000000,0.000000
highres_imu,5,1511429253704356352.000000,0.000000,-0.000003,0.000000,-0.000003,0.002540,0.002149,-0.001590,0.000000,0.000000,0.725197,-0.084694,0.033348,0.020126,0,0,0,0,-0.005234,-0.003557,0.002994,0.000000,0.000000,0.000000
attitude,5,1511429253709640960.000000,0.000000,-0.000003,0.000000,-0.000003,0.002540,0.002149,-0.001590,0.000000,0.000000,0.725197,-0.084699,0.033353,0.020110,0,0,0,0,-0.005234,-0.003557,0.002994,0.000000,0.000000,0.000000
highres_imu,5,1511429253730685184.000000,0.000000,-0.000003,0.000000,-0.000003,0.001058,0.001726,-0.003808,0.000000,0.000000,0.725197,-0.084699,0.033353,0.020110,0,0,0,0,-0.005234,-0.003557,0.002994,0.000000,0.000000,0.000000
highres_imu,5,1511429253740957696.000000,0.000000,-0.000003,0.000000,-0.000003,0.002334,0.001833,-0.003808,0.000000,0.000000,0.725197,-0.084699,0.033353,0.020110,0,0,0,0,-0.005234,-0.003557,0.002994,0.000000,0.000000,0.000000
highres_imu,6,1511429253756495872.000000,0.000000,-0.000003,0.000000,-0.000003,0.002655,0.001833,-0.000302,0.000000,0.000000,0.725197,-0.084699,0.033353,0.020110,0,0,0,0,-0.005234,-0.003557,0.002994,0.000000,0.000000,0.000000
attitude,6,1511429253761921280.000000,0.000000,-0.000003,0.000000,-0.000003,0.002655,0.001833,-0.000302,0.000000,0.000000,0.725197,-0.084697,0.033348,0.020093,0,0,0,0,-0.005234,-0.003557,0.002994,0.000000,0.000000,0.000000
highres_imu,6,1511429253784938240.000000,0.000000,-0.000003,0.000000,-0.000003,0.002655,0.000878,-0.003064,0.000000,0.000000,0.725197,-0.084697,0.033348,0.020093,0,0,0,0,-0.005234,-0.003557,0.002994,0.000000,0.000000,0.000000
highres_imu,6,1511429253834148608.000000,0.000000,-0.000003,0.000000,-0.000003,0.002327,0.001722,-0.003715,0.000000,0.000000,0.725197,-0.084697,0.033348,0.020093,0,0,0,0,-0.005234,-0.003557,0.002994,0.000000,0.000000,0.000000
highres_imu,7,1511429253946896384.000000,0.000000,-0.000003,0.000000,-0.000003,0.002549,0.000876,-0.002202,0.000000,0.000000,0.725197,-0.084697,0.033348,0.020093,0,0,0,0,-0.005234,-0.003557,0.002994,0.000000,0.000000,0.000000
highres_imu,8,1511429254014860032.000000,0.000000,-0.000003,0.000000,-0.000003,0.001698,0.001623,-0.000611,0.000000,0.000000,0.725197,-0.084697,0.033348,0.020093,0,0,0,0,-0.005234,-0.003557,0.002994,0.000000,0.000000,0.000000
attitude,8,1511429254020042240.000000,0.000000,-0.000003,0.000000,-0.000003,0.001698,0.001623,-0.000611,0.000000,0.000000,0.725197,-0.084684,0.033297,0.020148,0,0,0,0,-0.005234,-0.003557,0.002994,0.000000,0.000000,0.000000
attitude,8,1511429254038932480.000000,0.000000,-0.000003,0.000000,-0.000003,0.001698,0.001623,-0.000611,0.000000,0.000000,0.725197,-0.084681,0.033297,0.020170,0,0,0,0,-0.005234,-0.003557,0.002994,0.000000,0.000000,0.000000
highres_imu,9,1511429254054504192.000000,0.000000,-0.000003,0.000000,-0.000003,0.002655,0.001726,-0.000191,0.000000,0.000000,0.725197,-0.084681,0.033297,0.020170,0,0,0,0,-0.005234,-0.003557,0.002994,0.000000,0.000000,0.000000
highres_imu,9,1511429254089619200.000000,0.000000,-0.000003,0.000000,-0.000003,0.002972,0.001833,0.000340,0.000000,0.000000,0.725197,-0.084681,0.033297,0.020170,0,0,0,0,-0.005234,-0.003557,0.002994,0.000000,0.000000,0.000000
attitude,9,1511429254094926336.000000,0.000000,-0.000003,0.000000,-0.000003,0.002972,0.001833,0.000340,0.000000,0.000000,0.725197,-0.084680,0.033299,0.020237,0,0,0,0,-0.005234,-0.003557,0.002994,0.000000,0.000000,0.000000
highres_imu,9,1511429254105047040.000000,0.000000,-0.000003,0.000000,-0.000003,0.003300,0.001833,0.000143,0.000000,0.000000,0.725197,-0.084680,0.033299,0.020237,0,0,0,0,-0.005234,-0.003557,0.002994,0.000000,0.000000,0.000000
highres_imu,9,1511429254115110912.000000,0.000000,-0.000003,0.000000,-0.000003,0.003612,0.002145,0.001199,0.000000,0.000000,0.725197,-0.084680,0.033299,0.020237,0,0,0,0,-0.005234,-0.003557,0.002994,0.000000,0.000000,0.000000
attitude,9,1511429254120267264.000000,0.000000,-0.000003,0.000000,-0.000003,0.003612,0.002145,0.001199,0.000000,0.000000,0.725197,-0.084666,0.033304,0.020245,0,0,0,0,-0.005234,-0.003557,0.002994,0.000000,0.000000,0.000000
local_position_ned,9,1511429254140375296.000000,0.000000,-0.000003,0.000000,-0.000003,0.003612,0.002145,0.001199,0.000000,0.000000,0.706268,-0.084666,0.033304,0.020245,0,0,0,0,-0.006430,-0.002724,-0.003326,0.000000,0.000000,0.000000
attitude,10,1511429254156216064.000000,0.000000,-0.000003,0.000000,-0.000003,0.003612,0.002145,0.001199,0.000000,0.000000,0.706268,-0.084667,0.033307,0.020260,0,0,0,0,-0.006430,-0.002724,-0.003326,0.000000,0.000000,0.000000
highres_imu,10,1511429254171920896.000000,0.000000,-0.000003,0.000000,-0.000003,0.002337,0.002260,-0.002633,0.000000,0.000000,0.706268,-0.084667,0.033307,0.020260,0,0,0,0,-0.006430,-0.002724,-0.003326,0.000000,0.000000,0.000000
highres_imu,10,1511429254199314176.000000,0.000000,-0.000003,0.000000,-0.000003,0.002541,0.001833,-0.000194,0.000000,0.000000,0.706268,-0.084667,0.033307,0.020260,0,0,0,0,-0.006430,-0.002724,-0.003326,0.000000,0.000000,0.000000
attitude,10,1511429254204624384.000000,0.000000,-0.000003,0.000000,-0.000003,0.002541,0.001833,-0.000194,0.000000,0.000000,0.706268,-0.084650,0.033319,0.020281,0,0,0,0,-0.006430,-0.002724,-0.003326,0.000000,0.000000,0.000000
highres_imu,10,1511429254244312832.000000,0.000000,-0.000003,0.000000,-0.000003,0.002126,0.001833,-0.004015,0.000000,0.000000,0.706268,-0.084650,0.033319,0.020281,0,0,0,0,-0.006430,-0.002724,-0.003326,0.000000,0.000000,0.000000
attitude,10,1511429254249667584.000000,0.000000,-0.000003,0.000000,-0.000003,0.002126,0.001833,-0.004015,0.000000,0.000000,0.706268,-0.084639,0.033305,0.020275,0,0,0,0,-0.006430,-0.002724,-0.003326,0.000000,0.000000,0.000000
highres_imu,11,1511429254259778048.000000,0.000000,-0.000003,0.000000,-0.000003,0.003399,0.001833,0.000445,0.000000,0.000000,0.706268,-0.084639,0.033305,0.020275,0,0,0,0,-0.006430,-0.002724,-0.003326,0.000000,0.000000,0.000000
highres_imu,11,1511429254269879296.000000,0.000000,-0.000003,0.000000,-0.000003,0.002655,0.001833,-0.002423,0.000000,0.000000,0.706268,-0.084639,0.033305,0.020275,0,0,0,0,-0.006430,-0.002724,-0.003326,0.000000,0.000000,0.000000
highres_imu,11,1511429254314590464.000000,0.000000,-0.000003,0.000000,-0.000003,0.002119,0.000233,-0.001690,0.000000,0.000000,0.706268,-0.084639,0.033305,0.020275,0,0,0,0,-0.006430,-0.002724,-0.003326,0.000000,0.000000,0.000000
attitude,11,1511429254319713792.000000,0.000000,-0.000003,0.000000,-0.000003,0.002119,0.000233,-0.001690,0.000000,0.000000,0.706268,-0.084615,0.033283,0.020293,0,0,0,0,-0.006430,-0.002724,-0.003326,0.000000,0.000000,0.000000
highres_imu,12,1511429254353730816.000000,0.000000,-0.000003,0.000000,-0.000003,0.003612,0.002045,-0.000505,0.000000,0.000000,0.706268,-0.084615,0.033283,0.020293,0,0,0,0,-0.006430,-0.002724,-0.003326,0.000000,0.000000,0.000000
highres_imu,12,1511429254384155136.000000,0.000000,-0.000003,0.000000,-0.000003,0.000738,0.002576,-0.002847,0.000000,0.000000,0.706268,-0.084615,0.033283,0.020293,0,0,0,0,-0.006430,-0.002724,-0.003326,0.000000,0.000000,0.000000
attitude,12,1511429254389310720.000000,0.000000,-0.000003,0.000000,-0.000003,0.000738,0.002576,-0.002847,0.000000,0.000000,0.706268,-0.084602,0.033251,0.020307,0,0,0,0,-0.006430,-0.002724,-0.003326,0.000000,0.000000,0.000000
highres_imu,12,1511429254399386624.000000,0.000000,-0.000003,0.000000,-0.000003,0.002341,0.001833,-0.002307,0.000000,0.000000,0.706268,-0.084602,0.033251,0.020307,0,0,0,0,-0.006430,-0.002724,-0.003326,0.000000,0.000000,0.000000
attitude,12,1511429254410544896.000000,0.000000,-0.000003,0.000000,-0.000003,0.002341,0.001833,-0.002307,0.000000,0.000000,0.706268,-0.084606,0.033246,0.020320,0,0,0,0,-0.006430,-0.002724,-0.003326,0.000000,0.000000,0.000000
highres_imu,12,1511429254420558336.000000,0.000000,-0.000003,0.000000,-0.000003,0.001697,0.001833,-0.003384,0.000000,0.000000,0.706268,-0.084606,0.033246,0.020320,0,0,0,0,-0.006430,-0.002724,-0.003326,0.000000,0.000000,0.000000
attitude,13,1511429254456772096.000000,0.000000,-0.000003,0.000000,-0.000003,0.001697,0.001833,-0.003384,0.000000,0.000000,0.706268,-0.084590,0.033265,0.020325,0,0,0,0,-0.006430,-0.002724,-0.003326,0.000000,0.000000,0.000000
highres_imu,13,1511429254472479232.000000,0.000000,-0.000003,0.000000,-0.000003,0.002755,0.000768,-0.001054,0.000000,0.000000,0.706268,-0.084590,0.033265,0.020325,0,0,0,0,-0.006430,-0.002724,-0.003326,0.000000,0.000000,0.000000
highres_imu,13,1511429254498806784.000000,0.000000,-0.000003,0.000000,-0.000003,0.001590,0.002578,-0.003596,0.000000,0.000000,0.706268,-0.084590,0.033265,0.020325,0,0,0,0,-0.006430,-0.002724,-0.003326,0.000000,0.000000,0.000000
highres_imu,13,1511429254514777856.000000,0.000000,-0.000003,0.000000,-0.000003,0.002761,0.001939,-0.001148,0.000000,0.000000,0.706268,-0.084590,0.033265,0.020325,0,0,0,0,-0.006430,-0.002724,-0.003326,0.000000,0.000000,0.000000
attitude,14,1511429254563559424.000000,0.000000,-0.000003,0.000000,-0.000003,0.002761,0.001939,-0.001148,0.000000,0.000000,0.706268,-0.084582,0.033296,0.020344,0,0,0,0,-0.006430,-0.002724,-0.003326,0.000000,0.000000,0.000000
highres_imu,14,1511429254579264512.000000,0.000000,-0.000003,0.000000,-0.000003,0.002548,0.001939,-0.000190,0.000000,0.000000,0.706268,-0.084582,0.033296,0.020344,0,0,0,0,-0.006430,-0.002724,-0.003326,0.000000,0.000000,0.000000
highres_imu,14,1511429254623641344.000000,0.000000,-0.000003,0.000000,-0.000003,0.001698,0.001084,-0.002316,0.000000,0.000000,0.706268,-0.084582,0.033296,0.020344,0,0,0,0,-0.006430,-0.002724,-0.003326,0.000000,0.000000,0.000000
attitude,14,1511429254628942592.000000,0.000000,-0.000003,0.000000,-0.000003,0.001698,0.001084,-0.002316,0.000000,0.000000,0.706268,-0.084597,0.033289,0.020367,0,0,0,0,-0.006430,-0.002724,-0.003326,0.000000,0.000000,0.000000
highres_imu,15,1511429254658605056.000000,0.000000,-0.000003,0.000000,-0.000003,0.002227,0.001938,-0.001897,0.000000,0.000000,0.706268,-0.084597,0.033289,0.020367,0,0,0,0,-0.006430,-0.002724,-0.003326,0.000000,0.000000,0.000000
highres_imu,15,1511429254668454400.000000,0.000000,-0.000003,0.000000,-0.000003,0.001697,0.000768,-0.002651,0.000000,0.000000,0.706268,-0.084597,0.033289,0.020367,0,0,0,0,-0.006430,-0.002724,-0.003326,0.000000,0.000000,0.000000
attitude,15,1511429254686340096.000000,0.000000,-0.000003,0.000000,-0.000003,0.001697,0.000768,-0.002651,0.000000,0.000000,0.706268,-0.084596,0.033285,0.020375,0,0,0,0,-0.006430,-0.002724,-0.003326,0.000000,0.000000,0.000000
highres_imu,15,1511429254707380480.000000,0.000000,-0.000003,0.000000,-0.000003,0.002239,0.001833,0.000564,0.000000,0.000000,0.706268,-0.084596,0.033285,0.020375,0,0,0,0,-0.006430,-0.002724,-0.003326,0.000000,0.000000,0.000000
highres_imu,15,1511429254717223680.000000,0.000000,-0.000003,0.000000,-0.000003,0.002760,0.001833,0.000025,0.000000,0.000000,0.706268,-0.084596,0.033285,0.020375,0,0,0,0,-0.006430,-0.002724,-0.003326,0.000000,0.000000,0.000000
attitude,15,1511429254722366976.000000,0.000000,-0.000003,0.000000,-0.000003,0.002760,0.001833,0.000025,0.000000,0.000000,0.706268,-0.084609,0.033290,0.020400,0,0,0,0,-0.006430,-0.002724,-0.003326,0.000000,0.000000,0.000000
highres_imu,15,1511429254732183552.000000,0.000000,-0.000003,0.000000,-0.000003,0.002335,0.001726,-0.002851,0.000000,0.000000,0.706268,-0.084609,0.033290,0.020400,0,0,0,0,-0.006430,-0.002724,-0.003326,0.000000,0.000000,0.000000
highres_imu,17,1511429254877412864.000000,0.000000,-0.000003,0.000000,-0.000003,0.001911,0.002897,-0.000934,0.000000,0.000000,0.706268,-0.084609,0.033290,0.020400,0,0,0,0,-0.006430,-0.002724,-0.003326,0.000000,0.000000,0.000000
highres_imu,17,1511429254902192384.000000,0.000000,-0.000003,0.000000,-0.000003,0.003719,0.001940,0.000554,0.000000,0.000000,0.706268,-0.084609,0.033290,0.020400,0,0,0,0,-0.006430,-0.002724,-0.003326,0.000000,0.000000,0.000000
attitude,17,1511429254907294976.000000,0.000000,-0.000003,0.000000,-0.000003,0.003719,0.001940,0.000554,0.000000,0.000000,0.706268,-0.084598,0.033290,0.020419,0,0,0,0,-0.006430,-0.002724,-0.003326,0.000000,0.000000,0.000000
highres_imu,17,1511429254947230976.000000,0.000000,-0.000003,0.000000,-0.000003,0.002336,0.001299,-0.002957,0.000000,0.000000,0.706268,-0.084598,0.033290,0.020419,0,0,0,0,-0.006430,-0.002724,-0.003326,0.000000,0.000000,0.000000
attitude,18,1511429254967444992.000000,0.000000,-0.000003,0.000000,-0.000003,0.002336,0.001299,-0.002957,0.000000,0.000000,0.706268,-0.084595,0.033280,0.020418,0,0,0,0,-0.006430,-0.002724,-0.003326,0.000000,0.000000,0.000000
highres_imu,18,1511429254977373440.000000,0.000000,-0.000003,0.000000,-0.000003,0.002001,0.001310,-0.000845,0.000000,0.000000,0.706268,-0.084595,0.033280,0.020418,0,0,0,0,-0.006430,-0.002724,-0.003326,0.000000,0.000000,0.000000
highres_imu,18,1511429254987318272.000000,0.000000,-0.000003,0.000000,-0.000003,0.000526,0.000978,-0.002323,0.000000,0.000000,0.706268,-0.084595,0.033280,0.020418,0,0,0,0,-0.006430,-0.002724,-0.003326,0.000000,0.000000,0.000000
highres_imu,18,1511429255016370688.000000,0.000000,-0.000003,0.000000,-0.000003,0.003074,0.002045,0.001918,0.000000,0.000000,0.706268,-0.084595,0.033280,0.020418,0,0,0,0,-0.006430,-0.002724,-0.003326,0.000000,0.000000,0.000000
attitude,18,1511429255021463296.000000,0.000000,-0.000003,0.000000,-0.000003,0.003074,0.002045,0.001918,0.000000,0.000000,0.706268,-0.084595,0.033273,0.020424,0,0,0,0,-0.006430,-0.002724,-0.003326,0.000000,0.000000,0.000000
highres_imu,18,1511429255046663168.000000,0.000000,-0.000003,0.000000,-0.000003,0.003193,0.002897,-0.000498,0.000000,0.000000,0.706268,-0.084595,0.033273,0.020424,0,0,0,0,-0.006430,-0.002724,-0.003326,0.000000,0.000000,0.000000
attitude,18,1511429255051815168.000000,0.000000,-0.000003,0.000000,-0.000003,0.003193,0.002897,-0.000498,0.000000,0.000000,0.706268,-0.084596,0.033287,0.020418,0,0,0,0,-0.006430,-0.002724,-0.003326,0.000000,0.000000,0.000000
highres_imu,19,1511429255086822912.000000,0.000000,-0.000003,0.000000,-0.000003,0.002655,0.002573,-0.000948,0.000000,0.000000,0.706268,-0.084596,0.033287,0.020418,0,0,0,0,-0.006430,-0.002724,-0.003326,0.000000,0.000000,0.000000
attitude,19,1511429255092116480.000000,0.000000,-0.000003,0.000000,-0.000003,0.002655,0.002573,-0.000948,0.000000,0.000000,0.706268,-0.084573,0.033294,0.020404,0,0,0,0,-0.006430,-0.002724,-0.003326,0.000000,0.000000,0.000000
highres_imu,19,1511429255107731200.000000,0.000000,-0.000003,0.000000,-0.000003,0.003719,0.003222,-0.000820,0.000000,0.000000,0.706268,-0.084573,0.033294,0.020404,0,0,0,0,-0.006430,-0.002724,-0.003326,0.000000,0.000000,0.000000
attitude,19,1511429255122878976.000000,0.000000,-0.000003,0.000000,-0.000003,0.003719,0.003222,-0.000820,0.000000,0.000000,0.706268,-0.084554,0.033324,0.020410,0,0,0,0,-0.006430,-0.002724,-0.003326,0.000000,0.000000,0.000000
highres_imu,19,1511429255139070976.000000,0.000000,-0.000003,0.000000,-0.000003,0.003078,0.002256,-0.000087,0.000000,0.000000,0.706268,-0.084554,0.033324,0.020410,0,0,0,0,-0.006430,-0.002724,-0.003326,0.000000,0.000000,0.000000
highres_imu,19,1511429255154741248.000000,0.000000,-0.000003,0.000000,-0.000003,0.003393,0.001833,0.000973,0.000000,0.000000,0.706268,-0.084554,0.033324,0.020410,0,0,0,0,-0.006430,-0.002724,-0.003326,0.000000,0.000000,0.000000
highres_imu,20,1511429255165127424.000000,0.000000,-0.000003,0.000000,-0.000003,0.002973,0.001833,-0.001789,0.000000,0.000000,0.706268,-0.084554,0.033324,0.020410,0,0,0,0,-0.006430,-0.002724,-0.003326,0.000000,0.000000,0.000000
attitude,20,1511429255170454272.000000,0.000000,-0.000003,0.000000,-0.000003,0.002973,0.001833,-0.001789,0.000000,0.000000,0.706268,-0.084543,0.033326,0.020405,0,0,0,0,-0.006430,-0.002724,-0.003326,0.000000,0.000000,0.000000
highres_imu,20,1511429255204632064.000000,0.000000,-0.000003,0.000000,-0.000003,0.001484,0.001833,-0.002107,0.000000,0.000000,0.706268,-0.084543,0.033326,0.020405,0,0,0,0,-0.006430,-0.002724,-0.003326,0.000000,0.000000,0.000000
attitude,20,1511429255209774336.000000,0.000000,-0.000003,0.000000,-0.000003,0.001484,0.001833,-0.002107,0.000000,0.000000,0.706268,-0.084547,0.033339,0.020403,0,0,0,0,-0.006430,-0.002724,-0.003326,0.000000,0.000000,0.000000
highres_imu,20,1511429255243054080.000000,0.000000,-0.000003,0.000000,-0.000003,0.002229,0.001513,-0.001149,0.000000,0.000000,0.706268,-0.084547,0.033339,0.020403,0,0,0,0,-0.006430,-0.002724,-0.003326,0.000000,0.000000,0.000000
attitude,20,1511429255248197376.000000,0.000000,-0.000003,0.000000,-0.000003,0.002229,0.001513,-0.001149,0.000000,0.000000,0.706268,-0.084548,0.033338,0.020409,0,0,0,0,-0.006430,-0.002724,-0.003326,0.000000,0.000000,0.000000
highres_imu,21,1511429255264155648.000000,0.000000,-0.000003,0.000000,-0.000003,0.002655,0.001833,0.000872,0.000000,0.000000,0.706268,-0.084548,0.033338,0.020409,0,0,0,0,-0.006430,-0.002724,-0.003326,0.000000,0.000000,0.000000
highres_imu,21,1511429255279886592.000000,0.000000,-0.000003,0.000000,-0.000003,0.002655,0.002467,-0.000608,0.000000,0.000000,0.706268,-0.084548,0.033338,0.020409,0,0,0,0,-0.006430,-0.002724,-0.003326,0.000000,0.000000,0.000000
attitude,21,1511429255285228800.000000,0.000000,-0.000003,0.000000,-0.000003,0.002655,0.002467,-0.000608,0.000000,0.000000,0.706268,-0.084560,0.033336,0.020421,0,0,0,0,-0.006430,-0.002724,-0.003326,0.000000,0.000000,0.000000
highres_imu,22,1511429255414288640.000000,0.000000,-0.000003,0.000000,-0.000003,0.002655,0.002790,0.001193,0.000000,0.000000,0.706268,-0.084560,0.033336,0.020421,0,0,0,0,-0.006430,-0.002724,-0.003326,0.000000,0.000000,0.000000
highres_imu,23,1511429255457915392.000000,0.000000,-0.000003,0.000000,-0.000003,0.001800,0.001833,-0.003706,0.000000,0.000000,0.706268,-0.084560,0.033336,0.020421,0,0,0,0,-0.006430,-0.002724,-0.003326,0.000000,0.000000,0.000000
attitude,23,1511429255463243520.000000,0.000000,-0.000003,0.000000,-0.000003,0.001800,0.001833,-0.003706,0.000000,0.000000,0.706268,-0.084554,0.033363,0.020424,0,0,0,0,-0.006430,-0.002724,-0.003326,0.000000,0.000000,0.000000
highres_imu,23,1511429255473499904.000000,0.000000,-0.000003,0.000000,-0.000003,0.003609,0.002684,-0.000300,0.000000,0.000000,0.706268,-0.084554,0.033363,0.020424,0,0,0,0,-0.006430,-0.002724,-0.003326,0.000000,0.000000,0.000000
highres_imu,23,1511429255483329024.000000,0.000000,-0.000003,0.000000,-0.000003,0.004677,0.002897,0.000673,0.000000,0.000000,0.706268,-0.084554,0.033363,0.020424,0,0,0,0,-0.006430,-0.002724,-0.003326,0.000000,0.000000,0.000000
highres_imu,23,1511429255498995712.000000,0.000000,-0.000003,0.000000,-0.000003,0.002765,0.002049,-0.003163,0.000000,0.000000,0.706268,-0.084554,0.033363,0.020424,0,0,0,0,-0.006430,-0.002724,-0.003326,0.000000,0.000000,0.000000
highres_imu,23,1511429255519440896.000000,0.000000,-0.000003,0.000000,-0.000003,0.002439,0.001833,-0.003269,0.000000,0.000000,0.706268,-0.084554,0.033363,0.020424,0,0,0,0,-0.006430,-0.002724,-0.003326,0.000000,0.000000,0.000000
attitude,23,1511429255524543232.000000,0.000000,-0.000003,0.000000,-0.000003,0.002439,0.001833,-0.003269,0.000000,0.000000,0.706268,-0.084515,0.033386,0.020446,0,0,0,0,-0.006430,-0.002724,-0.003326,0.000000,0.000000,0.000000
highres_imu,23,1511429255556922880.000000,0.000000,-0.000003,0.000000,-0.000003,0.002546,0.001508,0.001621,0.000000,0.000000,0.706268,-0.084515,0.033386,0.020446,0,0,0,0,-0.006430,-0.002724,-0.003326,0.000000,0.000000,0.000000
attitude,24,1511429255562221056.000000,0.000000,-0.000003,0.000000,-0.000003,0.002546,0.001508,0.001621,0.000000,0.000000,0.706268,-0.084518,0.033377,0.020461,0,0,0,0,-0.006430,-0.002724,-0.003326,0.000000,0.000000,0.000000
local_position_ned,24,1511429255572226816.000000,0.000000,-0.000003,0.000000,-0.000003,0.002546,0.001508,0.001621,0.000000,0.000000,0.683647,-0.084518,0.033377,0.020461,0,0,0,0,-0.002975,-0.000124,-0.009539,0.000000,0.000000,0.000000
attitude,24,1511429255594132736.000000,0.000000,-0.000003,0.000000,-0.000003,0.002546,0.001508,0.001621,0.000000,0.000000,0.683647,-0.084519,0.033365,0.020469,0,0,0,0,-0.002975,-0.000124,-0.009539,0.000000,0.000000,0.000000
highres_imu,24,1511429255604528128.000000,0.000000,-0.000003,0.000000,-0.000003,0.002548,0.001088,-0.002426,0.000000,0.000000,0.683647,-0.084519,0.033365,0.020469,0,0,0,0,-0.002975,-0.000124,-0.009539,0.000000,0.000000,0.000000
highres_imu,24,1511429255620757760.000000,0.000000,-0.000003,0.000000,-0.000003,0.002439,0.001833,-0.001688,0.000000,0.000000,0.683647,-0.084519,0.033365,0.020469,0,0,0,0,-0.002975,-0.000124,-0.009539,0.000000,0.000000,0.000000
attitude,24,1511429255626176512.000000,0.000000,-0.000003,0.000000,-0.000003,0.002439,0.001833,-0.001688,0.000000,0.000000,0.683647,-0.084523,0.033353,0.020480,0,0,0,0,-0.002975,-0.000124,-0.009539,0.000000,0.000000,0.000000
highres_imu,24,1511429255646530048.000000,0.000000,-0.000003,0.000000,-0.000003,0.003293,0.001726,0.000660,0.000000,0.000000,0.683647,-0.084523,0.033353,0.020480,0,0,0,0,-0.002975,-0.000124,-0.009539,0.000000,0.000000,0.000000
highres_imu,24,1511429255656739072.000000,0.000000,-0.000003,0.000000,-0.000003,0.002974,0.001621,0.000025,0.000000,0.000000,0.683647,-0.084523,0.033353,0.020480,0,0,0,0,-0.002975,-0.000124,-0.009539,0.000000,0.000000,0.000000
local_position_ned,25,1511429255674369792.000000,0.000000,-0.000003,0.000000,-0.000003,0.002974,0.001621,0.000025,0.000000,0.000000,0.683143,-0.084523,0.033353,0.020480,0,0,0,0,-0.003715,0.000014,-0.008941,0.000000,0.000000,0.000000
attitude,25,1511429255711111168.000000,0.000000,-0.000003,0.000000,-0.000003,0.002974,0.001621,0.000025,0.000000,0.000000,0.683143,-0.084540,0.033337,0.020471,0,0,0,0,-0.003715,0.000014,-0.008941,0.000000,0.000000,0.000000
highres_imu,25,1511429255727134976.000000,0.000000,-0.000003,0.000000,-0.000003,0.001590,0.002577,-0.000191,0.000000,0.000000,0.683143,-0.084540,0.033337,0.020471,0,0,0,0,-0.003715,0.000014,-0.008941,0.000000,0.000000,0.000000
highres_imu,25,1511429255753032192.000000,0.000000,-0.000003,0.000000,-0.000003,0.001276,0.001092,-0.004443,0.000000,0.000000,0.683143,-0.084540,0.033337,0.020471,0,0,0,0,-0.003715,0.000014,-0.008941,0.000000,0.000000,0.000000
attitude,26,1511429255789565184.000000,0.000000,-0.000003,0.000000,-0.000003,0.001276,0.001092,-0.004443,0.000000,0.000000,0.683143,-0.084560,0.033331,0.020434,0,0,0,0,-0.003715,0.000014,-0.008941,0.000000,0.000000,0.000000
highres_imu,27,1511429255910797056.000000,0.000000,-0.000003,0.000000,-0.000003,0.003293,0.003108,-0.000721,0.000000,0.000000,0.683143,-0.084560,0.033331,0.020434,0,0,0,0,-0.003715,0.000014,-0.008941,0.000000,0.000000,0.000000
highres_imu,27,1511429255921937920.000000,0.000000,-0.000003,0.000000,-0.000003,0.001911,0.001941,-0.001998,0.000000,0.000000,0.683143,-0.084560,0.033331,0.020434,0,0,0,0,-0.003715,0.000014,-0.008941,0.000000,0.000000,0.000000
attitude,27,1511429255927532800.000000,0.000000,-0.000003,0.000000,-0.000003,0.001911,0.001941,-0.001998,0.000000,0.000000,0.683143,-0.084568,0.033352,0.020438,0,0,0,0,-0.003715,0.000014,-0.008941,0.000000,0.000000,0.000000
highres_imu,27,1511429255944778752.000000,0.000000,-0.000003,0.000000,-0.000003,0.000633,0.002357,-0.001688,0.000000,0.000000,0.683143,-0.084568,0.033352,0.020438,0,0,0,0,-0.003715,0.000014,-0.008941,0.000000,0.000000,0.000000
highres_imu,28,1511429255961772800.000000,0.000000,-0.000003,0.000000,-0.000003,0.002966,0.003003,-0.000829,0.000000,0.000000,0.683143,-0.084568,0.033352,0.020438,0,0,0,0,-0.003715,0.000014,-0.008941,0.000000,0.000000,0.000000
highres_imu,28,1511429255985138432.000000,0.000000,-0.000003,0.000000,-0.000003,0.002336,0.003323,-0.003702,0.000000,0.000000,0.683143,-0.084568,0.033352,0.020438,0,0,0,0,-0.003715,0.000014,-0.008941,0.000000,0.000000,0.000000
attitude,28,1511429255991100160.000000,0.000000,-0.000003,0.000000,-0.000003,0.002336,0.003323,-0.003702,0.000000,0.000000,0.683143,-0.084572,0.033359,0.020424,0,0,0,0,-0.003715,0.000014,-0.008941,0.000000,0.000000,0.000000
highres_imu,28,1511429256003722496.000000,0.000000,-0.000003,0.000000,-0.000003,0.002764,0.001621,0.000451,0.000000,0.000000,0.683143,-0.084572,0.033359,0.020424,0,0,0,0,-0.003715,0.000014,-0.008941,0.000000,0.000000,0.000000
attitude,28,1511429256008741120.000000,0.000000,-0.000003,0.000000,-0.000003,0.002764,0.001621,0.000451,0.000000,0.000000,0.683143,-0.084573,0.033365,0.020412,0,0,0,0,-0.003715,0.000014,-0.008941,0.000000,0.000000,0.000000
highres_imu,28,1511429256018810368.000000,0.000000,-0.000003,0.000000,-0.000003,0.003830,0.002364,0.000136,0.000000,0.000000,0.683143,-0.084573,0.033365,0.020412,0,0,0,0,-0.003715,0.000014,-0.008941,0.000000,0.000000,0.000000
highres_imu,28,1511429256053562368.000000,0.000000,-0.000003,0.000000,-0.000003,0.002974,0.001833,0.000129,0.000000,0.000000,0.683143,-0.084573,0.033365,0.020412,0,0,0,0,-0.003715,0.000014,-0.008941,0.000000,0.000000,0.000000
attitude,28,1511429256058785024.000000,0.000000,-0.000003,0.000000,-0.000003,0.002974,0.001833,0.000129,0.000000,0.000000,0.683143,-0.084562,0.033356,0.020399,0,0,0,0,-0.003715,0.000014,-0.008941,0.000000,0.000000,0.000000
highres_imu,28,1511429256085259264.000000,0.000000,-0.000003,0.000000,-0.000003,0.001590,0.001726,-0.001672,0.000000,0.000000,0.683143,-0.084562,0.033356,0.020399,0,0,0,0,-0.003715,0.000014,-0.008941,0.000000,0.000000,0.000000
highres_imu,29,1511429256096112640.000000,0.000000,-0.000003,0.000000,-0.000003,0.001909,0.000237,-0.003491,0.000000,0.000000,0.683143,-0.084562,0.033356,0.020399,0,0,0,0,-0.003715,0.000014,-0.008941,0.000000,0.000000,0.000000
highres_imu,29,1511429256123798528.000000,0.000000,-0.000003,0.000000,-0.000003,0.002548,0.000768,-0.001148,0.000000,0.000000,0.683143,-0.084562,0.033356,0.020399,0,0,0,0,-0.003715,0.000014,-0.008941,0.000000,0.000000,0.000000
attitude,29,1511429256134677504.000000,0.000000,-0.000003,0.000000,-0.000003,0.002548,0.000768,-0.001148,0.000000,0.000000,0.683143,-0.084571,0.033346,0.020372,0,0,0,0,-0.003715,0.000014,-0.008941,0.000000,0.000000,0.000000
highres_imu,29,1511429256144819712.000000,0.000000,-0.000003,0.000000,-0.000003,0.001696,0.001833,-0.002641,0.000000,0.000000,0.683143,-0.084571,0.033346,0.020372,0,0,0,0,-0.003715,0.000014,-0.008941,0.000000,0.000000,0.000000
highres_imu,29,1511429256178700032.000000,0.000000,-0.000003,0.000000,-0.000003,0.002446,0.001833,-0.000075,0.000000,0.000000,0.683143,-0.084571,0.033346,0.020372,0,0,0,0,-0.003715,0.000014,-0.008941,0.000000,0.000000,0.000000
attitude,29,1511429256184236800.000000,0.000000,-0.000003,0.000000,-0.000003,0.002446,0.001833,-0.000075,0.000000,0.000000,0.683143,-0.084576,0.033346,0.020375,0,0,0,0,-0.003715,0.000014,-0.008941,0.000000,0.000000,0.000000
highres_imu,29,1511429256217791232.000000,0.000000,-0.000003,0.000000,-0.000003,0.002655,0.001289,0.000997,0.000000,0.000000,0.683143,-0.084576,0.033346,0.020375,0,0,0,0,-0.003715,0.000014,-0.008941,0.000000,0.000000,0.000000
local_position_ned,29,1511429256228443392.000000,0.000000,-0.000003,0.000000,-0.000003,0.002655,0.001289,0.000997,0.000000,0.000000,0.672571,-0.084576,0.033346,0.020375,0,0,0,0,-0.004426,0.000655,-0.009088,0.000000,0.000000,0.000000
highres_imu,30,1511429256251479296.000000,0.000000,-0.000003,0.000000,-0.000003,0.002329,0.001613,-0.001694,0.000000,0.000000,0.672571,-0.084576,0.033346,0.020375,0,0,0,0,-0.004426,0.000655,-0.009088,0.000000,0.000000,0.000000
attitude,30,1511429256256860672.000000,0.000000,-0.000003,0.000000,-0.000003,0.002329,0.001613,-0.001694,0.000000,0.000000,0.672571,-0.084588,0.033347,0.020379,0,0,0,0,-0.004426,0.000655,-0.009088,0.000000,0.000000,0.000000
highres_imu,30,1511429256266844928.000000,0.000000,-0.000003,0.000000,-0.000003,0.002866,0.002790,0.000658,0.000000,0.000000,0.672571,-0.084588,0.033347,0.020379,0,0,0,0,-0.004426,0.000655,-0.009088,0.000000,0.000000,0.000000
attitude,30,1511429256322005504.000000,0.000000,-0.000003,0.000000,-0.000003,0.002866,0.002790,0.000658,0.000000,0.000000,0.672571,-0.084609,0.033328,0.020367,0,0,0,0,-0.004426,0.000655,-0.009088,0.000000,0.000000,0.000000
highres_imu,30,1511429256343094784.000000,0.000000,-0.000003,0.000000,-0.000003,0.003612,0.001726,-0.000938,0.000000,0.000000,0.672571,-0.084609,0.033328,0.020367,0,0,0,0,-0.004426,0.000655,-0.009088,0.000000,0.000000,0.000000
highres_imu,31,1511429256363978496.000000,0.000000,-0.000003,0.000000,-0.000003,0.001697,0.001833,-0.002638,0.000000,0.000000,0.672571,-0.084609,0.033328,0.020367,0,0,0,0,-0.004426,0.000655,-0.009088,0.000000,0.000000,0.000000
attitude,31,1511429256401454848.000000,0.000000,-0.000003,0.000000,-0.000003,0.001697,0.001833,-0.002638,0.000000,0.000000,0.672571,-0.084619,0.033324,0.020388,0,0,0,0,-0.004426,0.000655,-0.009088,0.000000,0.000000,0.000000
highres_imu,31,1511429256426866176.000000,0.000000,-0.000003,0.000000,-0.000003,0.002655,0.001726,-0.002745,0.000000,0.000000,0.672571,-0.084619,0.033324,0.020388,0,0,0,0,-0.004426,0.000655,-0.009088,0.000000,0.000000,0.000000
attitude,31,1511429256437133056.000000,0.000000,-0.000003,0.000000,-0.000003,0.002655,0.001726,-0.002745,0.000000,0.000000,0.672571,-0.084633,0.033323,0.020377,0,0,0,0,-0.004426,0.000655,-0.009088,0.000000,0.000000,0.000000
highres_imu,31,1511429256447268096.000000,0.000000,-0.000003,0.000000,-0.000003,0.003400,0.002151,0.000981,0.000000,0.000000,0.672571,-0.084633,0.033323,0.020377,0,0,0,0,-0.004426,0.000655,-0.009088,0.000000,0.000000,0.000000
highres_imu,31,1511429256484470016.000000,0.000000,-0.000003,0.000000,-0.000003,0.002119,0.002256,-0.001154,0.000000,0.000000,0.672571,-0.084633,0.033323,0.020377,0,0,0,0,-0.004426,0.000655,-0.009088,0.000000,0.000000,0.000000
attitude,31,1511429256489824768.000000,0.000000,-0.000003,0.000000,-0.000003,0.002119,0.002256,-0.001154,0.000000,0.000000,0.672571,-0.084572,0.033349,0.020407,0,0,0,0,-0.004426,0.000655,-0.009088,0.000000,0.000000,0.000000
highres_imu,32,1511429256526021120.000000,0.000000,-0.000003,0.000000,-0.000003,0.002870,0.001298,0.001299,0.000000,0.000000,0.672571,-0.084572,0.033349,0.020407,0,0,0,0,-0.004426,0.000655,-0.009088,0.000000,0.000000,0.000000
highres_imu,32,1511429256536517120.000000,0.000000,-0.000003,0.000000,-0.000003,0.002121,0.001833,-0.001576,0.000000,0.000000,0.672571,-0.084572,0.033349,0.020407,0,0,0,0,-0.004426,0.000655,-0.009088,0.000000,0.000000,0.000000
highres_imu,32,1511429256552375040.000000,0.000000,-0.000003,0.000000,-0.000003,0.003400,0.002049,0.000661,0.000000,0.000000,0.672571,-0.084572,0.033349,0.020407,0,0,0,0,-0.004426,0.000655,-0.009088,0.000000,0.000000,0.000000
highres_imu,32,1511429256562532608.000000,0.000000,-0.000003,0.000000,-0.000003,0.002425,0.002358,-0.001915,0.000000,0.000000,0.672571,-0.084572,0.033349,0.020407,0,0,0,0,-0.004426,0.000655,-0.009088,0.000000,0.000000,0.000000
attitude,32,1511429256573547264.000000,0.000000,-0.000003,0.000000,-0.000003,0.002425,0.002358,-0.001915,0.000000,0.000000,0.672571,-0.084607,0.033336,0.020406,0,0,0,0,-0.004426,0.000655,-0.009088,0.000000,0.000000,0.000000
attitude,32,1511429256594514432.000000,0.000000,-0.000003,0.000000,-0.000003,0.002425,0.002358,-0.001915,0.000000,0.000000,0.672571,-0.084611,0.033338,0.020423,0,0,0,0,-0.004426,0.000655,-0.009088,0.000000,0.000000,0.000000
highres_imu,32,1511429256615994880.000000,0.000000,-0.000003,0.000000,-0.000003,0.003186,0.000875,0.000235,0.000000,0.000000,0.672571,-0.084611,0.033338,0.020423,0,0,0,0,-0.004426,0.000655,-0.009088,0.000000,0.000000,0.000000
attitude,32,1511429256621892352.000000,0.000000,-0.000003,0.000000,-0.000003,0.003186,0.000875,0.000235,0.000000,0.000000,0.672571,-0.084617,0.033327,0.020440,0,0,0,0,-0.004426,0.000655,-0.009088,0.000000,0.000000,0.000000
local_position_ned,33,1511429256637654784.000000,0.000000,-0.000003,0.000000,-0.000003,0.003186,0.000875,0.000235,0.000000,0.000000,0.685641,-0.084617,0.033327,0.020440,0,0,0,0,-0.004867,0.000371,-0.005676,0.000000,0.000000,0.000000
highres_imu,33,1511429256683385600.000000,0.000000,-0.000003,0.000000,-0.000003,0.002767,0.001833,-0.001881,0.000000,0.000000,0.685641,-0.084617,0.033327,0.020440,0,0,0,0,-0.004867,0.000371,-0.005676,0.000000,0.000000,0.000000
attitude,33,1511429256688479488.000000,0.000000,-0.000003,0.000000,-0.000003,0.002767,0.001833,-0.001881,0.000000,0.000000,0.685641,-0.084605,0.033325,0.020449,0,0,0,0,-0.004867,0.000371,-0.005676,0.000000,0.000000,0.000000
attitude,33,1511429256714413056.000000,0.000000,-0.000003,0.000000,-0.000003,0.002767,0.001833,-0.001881,0.000000,0.000000,0.685641,-0.084630,0.033308,0.020463,0,0,0,0,-0.004867,0.000371,-0.005676,0.000000,0.000000,0.000000
highres_imu,33,1511429256724675584.000000,0.000000,-0.000003,0.000000,-0.000003,0.002016,0.002365,0.000235,0.000000,0.000000,0.685641,-0.084630,0.033308,0.020463,0,0,0,0,-0.004867,0.000371,-0.005676,0.000000,0.000000,0.000000
highres_imu,34,1511429256772465152.000000,0.000000,-0.000003,0.000000,-0.000003,0.002655,0.001833,-0.003164,0.000000,0.000000,0.685641,-0.084630,0.033308,0.020463,0,0,0,0,-0.004867,0.000371,-0.005676,0.000000,0.000000,0.000000
attitude,34,1511429256823943168.000000,0.000000,-0.000003,0.000000,-0.000003,0.002655,0.001833,-0.003164,0.000000,0.000000,0.685641,-0.084647,0.033307,0.020503,0,0,0,0,-0.004867,0.000371,-0.005676,0.000000,0.000000,0.000000
highres_imu,34,1511429256839561472.000000,0.000000,-0.000003,0.000000,-0.000003,0.002327,0.002359,-0.002769,0.000000,0.000000,0.685641,-0.084647,0.033307,0.020503,0,0,0,0,-0.004867,0.000371,-0.005676,0.000000,0.000000,0.000000
highres_imu,34,1511429256855365120.000000,0.000000,-0.000003,0.000000,-0.000003,0.002117,0.001396,-0.000074,0.000000,0.000000,0.685641,-0.084647,0.033307,0.020503,0,0,0,0,-0.004867,0.000371,-0.005676,0.000000,0.000000,0.000000
attitude,34,1511429256860490240.000000,0.000000,-0.000003,0.000000,-0.000003,0.002117,0.001396,-0.000074,0.000000,0.000000,0.685641,-0.084663,0.033297,0.020515,0,0,0,0,-0.004867,0.000371,-0.005676,0.000000,0.000000,0.000000
highres_imu,34,1511429256870558208.000000,0.000000,-0.000003,0.000000,-0.000003,0.002123,0.002365,-0.002638,0.000000,0.000000,0.685641,-0.084663,0.033297,0.020515,0,0,0,0,-0.004867,0.000371,-0.005676,0.000000,0.000000,0.000000
highres_imu,35,1511429256892891392.000000,0.000000,-0.000003,0.000000,-0.000003,0.001910,0.001621,-0.000083,0.000000,0.000000,0.685641,-0.084663,0.033297,0.020515,0,0,0,0,-0.004867,0.000371,-0.005676,0.000000,0.000000,0.000000
attitude,35,1511429256898569984.000000,0.000000,-0.000003,0.000000,-0.000003,0.001910,0.001621,-0.000083,0.000000,0.000000,0.685641,-0.084670,0.033294,0.020535,0,0,0,0,-0.004867,0.000371,-0.005676,0.000000,0.000000,0.000000
highres_imu,35,1511429256914690816.000000,0.000000,-0.000003,0.000000,-0.000003,0.003187,0.002897,0.000129,0.000000,0.000000,0.685641,-0.084670,0.033294,0.020535,0,0,0,0,-0.004867,0.000371,-0.005676,0.000000,0.000000,0.000000
highres_imu,35,1511429256945675008.000000,0.000000,-0.000003,0.000000,-0.000003,0.001590,0.001833,-0.003278,0.000000,0.000000,0.685641,-0.084670,0.033294,0.020535,0,0,0,0,-0.004867,0.000371,-0.005676,0.000000,0.000000,0.000000
highres_imu,35,1511429256955703296.000000,0.000000,-0.000003,0.000000,-0.000003,0.003823,0.002045,0.000445,0.000000,0.000000,0.685641,-0.084670,0.033294,0.020535,0,0,0,0,-0.004867,0.000371,-0.005676,0.000000,0.000000,0.000000
highres_imu,35,1511429256977045760.000000,0.000000,-0.000003,0.000000,-0.000003,0.002441,0.001833,0.000128,0.000000,0.000000,0.685641,-0.084670,0.033294,0.020535,0,0,0,0,-0.004867,0.000371,-0.005676,0.000000,0.000000,0.000000
highres_imu,35,1511429256999844096.000000,0.000000,-0.000003,0.000000,-0.000003,0.002335,0.001833,-0.001574,0.000000,0.000000,0.685641,-0.084670,0.033294,0.020535,0,0,0,0,-0.004867,0.000371,-0.005676,0.000000,0.000000,0.000000
attitude,35,1511429257009298432.000000,0.000000,-0.000003,0.000000,-0.000003,0.002335,0.001833,-0.001574,0.000000,0.000000,0.685641,-0.084673,0.033309,0.020575,0,0,0,0,-0.004867,0.000371,-0.005676,0.000000,0.000000,0.000000
highres_imu,36,1511429257019462912.000000,0.000000,-0.000003,0.000000,-0.000003,0.002019,0.000768,0.000132,0.000000,0.000000,0.685641,-0.084673,0.033309,0.020575,0,0,0,0,-0.004867,0.000371,-0.005676,0.000000,0.000000,0.000000
attitude,36,1511429257024864768.000000,0.000000,-0.000003,0.000000,-0.000003,0.002019,0.000768,0.000132,0.000000,0.000000,0.685641,-0.084676,0.033314,0.020582,0,0,0,0,-0.004867,0.000371,-0.005676,0.000000,0.000000,0.000000
highres_imu,36,1511429257035112960.000000,0.000000,-0.000003,0.000000,-0.000003,0.002970,0.001303,0.000443,0.000000,0.000000,0.685641,-0.084676,0.033314,0.020582,0,0,0,0,-0.004867,0.000371,-0.005676,0.000000,0.000000,0.000000
highres_imu,36,1511429257061771520.000000,0.000000,-0.000003,0.000000,-0.000003,0.001697,0.001093,-0.003070,0.000000,0.000000,0.685641,-0.084676,0.033314,0.020582,0,0,0,0,-0.004867,0.000371,-0.005676,0.000000,0.000000,0.000000
highres_imu,37,1511429257213617408.000000,0.000000,-0.000003,0.000000,-0.000003,0.003718,0.001087,-0.001469,0.000000,0.000000,0.685641,-0.084676,0.033314,0.020582,0,0,0,0,-0.004867,0.000371,-0.005676,0.000000,0.000000,0.000000
highres_imu,37,1511429257223824640.000000,0.000000,-0.000003,0.000000,-0.000003,0.002655,0.001088,-0.003289,0.000000,0.000000,0.685641,-0.084676,0.033314,0.020582,0,0,0,0,-0.004867,0.000371,-0.005676,0.000000,0.000000,0.000000
highres_imu,37,1511429257249179136.000000,0.000000,-0.000003,0.000000,-0.000003,0.003400,0.002260,0.000979,0.000000,0.000000,0.685641,-0.084676,0.033314,0.020582,0,0,0,0,-0.004867,0.000371,-0.005676,0.000000,0.000000,0.000000
attitude,37,1511429257254776576.000000,0.000000,-0.000003,0.000000,-0.000003,0.003400,0.002260,0.000979,0.000000,0.000000,0.685641,-0.084670,0.033283,0.020614,0,0,0,0,-0.004867,0.000371,-0.005676,0.000000,0.000000,0.000000
highres_imu,38,1511429257299950336.000000,0.000000,-0.000003,0.000000,-0.000003,0.001799,0.002894,-0.003709,0.000000,0.000000,0.685641,-0.084670,0.033283,0.020614,0,0,0,0,-0.004867,0.000371,-0.005676,0.000000,0.000000,0.000000
attitude,38,1511429257324740096.000000,0.000000,-0.000003,0.000000,-0.000003,0.001799,0.002894,-0.003709,0.000000,0.000000,0.685641,-0.084692,0.033287,0.020567,0,0,0,0,-0.004867,0.000371,-0.005676,0.000000,0.000000,0.000000
highres_imu,38,1511429257340436480.000000,0.000000,-0.000003,0.000000,-0.000003,0.001590,0.001833,-0.003383,0.000000,0.000000,0.685641,-0.084692,0.033287,0.020567,0,0,0,0,-0.004867,0.000371,-0.005676,0.000000,0.000000,0.000000
attitude,38,1511429257345631232.000000,0.000000,-0.000003,0.000000,-0.000003,0.001590,0.001833,-0.003383,0.000000,0.000000,0.685641,-0.084718,0.033289,0.020553,0,0,0,0,-0.004867,0.000371,-0.005676,0.000000,0.000000,0.000000
highres_imu,38,1511429257361483264.000000,0.000000,-0.000003,0.000000,-0.000003,0.003183,0.001514,0.000872,0.000000,0.000000,0.685641,-0.084718,0.033289,0.020553,0,0,0,0,-0.004867,0.000371,-0.005676,0.000000,0.000000,0.000000
highres_imu,38,1511429257371223552.000000,0.000000,-0.000003,0.000000,-0.000003,0.003087,0.000768,-0.001355,0.000000,0.000000,0.685641,-0.084718,0.033289,0.020553,0,0,0,0,-0.004867,0.000371,-0.005676,0.000000,0.000000,0.000000
highres_imu,38,1511429257390001152.000000,0.000000,-0.000003,0.000000,-0.000003,0.002123,0.002793,-0.003703,0.000000,0.000000,0.685641,-0.084718,0.033289,0.020553,0,0,0,0,-0.004867,0.000371,-0.005676,0.000000,0.000000,0.000000
highres_imu,38,1511429257399976704.000000,0.000000,-0.000003,0.000000,-0.000003,0.002031,0.001833,-0.002937,0.000000,0.000000,0.685641,-0.084718,0.033289,0.020553,0,0,0,0,-0.004867,0.000371,-0.005676,0.000000,0.000000,0.000000
attitude,38,1511429257405109504.000000,0.000000,-0.000003,0.000000,-0.000003,0.002031,0.001833,-0.002937,0.000000,0.000000,0.685641,-0.084719,0.033283,0.020545,0,0,0,0,-0.004867,0.000371,-0.005676,0.000000,0.000000,0.000000
highres_imu,39,1511429257445917440.000000,0.000000,-0.000003,0.000000,-0.000003,0.004994,0.002790,-0.000620,0.000000,0.000000,0.685641,-0.084719,0.033283,0.020545,0,0,0,0,-0.004867,0.000371,-0.005676,0.000000,0.000000,0.000000
attitude,39,1511429257461002496.000000,0.000000,-0.000003,0.000000,-0.000003,0.004994,0.002790,-0.000620,0.000000,0.000000,0.685641,-0.084700,0.033288,0.020517,0,0,0,0,-0.004867,0.000371,-0.005676,0.000000,0.000000,0.000000
highres_imu,39,1511429257470682368.000000,0.000000,-0.000003,0.000000,-0.000003,0.002226,0.000768,-0.002431,0.000000,0.000000,0.685641,-0.084700,0.033288,0.020517,0,0,0,0,-0.004867,0.000371,-0.005676,0.000000,0.000000,0.000000
attitude,39,1511429257475823872.000000,0.000000,-0.000003,0.000000,-0.000003,0.002226,0.000768,-0.002431,0.000000,0.000000,0.685641,-0.084701,0.033285,0.020478,0,0,0,0,-0.004867,0.000371,-0.005676,0.000000,0.000000,0.000000
highres_imu,39,1511429257485553152.000000,0.000000,-0.000003,0.000000,-0.000003,0.003617,0.001620,0.000661,0.000000,0.000000,0.685641,-0.084701,0.033285,0.020478,0,0,0,0,-0.004867,0.000371,-0.005676,0.000000,0.000000,0.000000
highres_imu,39,1511429257522723584.000000,0.000000,-0.000003,0.000000,-0.000003,0.002655,0.000768,-0.000194,0.000000,0.000000,0.685641,-0.084701,0.033285,0.020478,0,0,0,0,-0.004867,0.000371,-0.005676,0.000000,0.000000,0.000000
attitude,39,1511429257528015104.000000,0.000000,-0.000003,0.000000,-0.000003,0.002655,0.000768,-0.000194,0.000000,0.000000,0.685641,-0.084707,0.033277,0.020472,0,0,0,0,-0.004867,0.000371,-0.005676,0.000000,0.000000,0.000000
attitude,40,1511429257542539264.000000,0.000000,-0.000003,0.000000,-0.000003,0.002655,0.000768,-0.000194,0.000000,0.000000,0.685641,-0.084715,0.033265,0.020456,0,0,0,0,-0.004867,0.000371,-0.005676,0.000000,0.000000,0.000000
attitude,41,1511429257730273792.000000,0.000000,-0.000003,0.000000,-0.000003,0.002655,0.000768,-0.000194,0.000000,0.000000,0.685641,-0.084740,0.033263,0.020373,0,0,0,0,-0.004867,0.000371,-0.005676,0.000000,0.000000,0.000000
highres_imu,41,1511429257744679424.000000,0.000000,-0.000003,0.000000,-0.000003,0.003506,0.001939,0.001299,0.000000,0.000000,0.685641,-0.084740,0.033263,0.020373,0,0,0,0,-0.004867,0.000371,-0.005676,0.000000,0.000000,0.000000
highres_imu,41,1511429257760439296.000000,0.000000,-0.000003,0.000000,-0.000003,0.003719,0.002258,-0.000298,0.000000,0.000000,0.685641,-0.084740,0.033263,0.020373,0,0,0,0,-0.004867,0.000371,-0.005676,0.000000,0.000000,0.000000
highres_imu,41,1511429257770711040.000000,0.000000,-0.000003,0.000000,-0.000003,0.002871,0.001726,-0.002635,0.000000,0.000000,0.685641,-0.084740,0.033263,0.020373,0,0,0,0,-0.004867,0.000371,-0.005676,0.000000,0.000000,0.000000
attitude,41,1511429257775794944.000000,0.000000,-0.000003,0.000000,-0.000003,0.002871,0.001726,-0.002635,0.000000,0.000000,0.685641,-0.084741,0.033263,0.020343,0,0,0,0,-0.004867,0.000371,-0.005676,0.000000,0.000000,0.000000
highres_imu,42,1511429257804743936.000000,0.000000,-0.000003,0.000000,-0.000003,0.001692,0.000870,-0.000839,0.000000,0.000000,0.685641,-0.084741,0.033263,0.020343,0,0,0,0,-0.004867,0.000371,-0.005676,0.000000,0.000000,0.000000
attitude,42,1511429257810074624.000000,0.000000,-0.000003,0.000000,-0.000003,0.001692,0.000870,-0.000839,0.000000,0.000000,0.685641,-0.084745,0.033253,0.020323,0,0,0,0,-0.004867,0.000371,-0.005676,0.000000,0.000000,0.000000
attitude,42,1511429257850635520.000000,0.000000,-0.000003,0.000000,-0.000003,0.001692,0.000870,-0.000839,0.000000,0.000000,0.685641,-0.084742,0.033251,0.020322,0,0,0,0,-0.004867,0.000371,-0.005676,0.000000,0.000000,0.000000
highres_imu,42,1511429257866190592.000000,0.000000,-0.000003,0.000000,-0.000003,0.002980,0.001833,-0.001017,0.000000,0.000000,0.685641,-0.084742,0.033251,0.020322,0,0,0,0,-0.004867,0.000371,-0.005676,0.000000,0.000000,0.000000
attitude,42,1511429257871277568.000000,0.000000,-0.000003,0.000000,-0.000003,0.002980,0.001833,-0.001017,0.000000,0.000000,0.685641,-0.084727,0.033244,0.020312,0,0,0,0,-0.004867,0.000371,-0.005676,0.000000,0.000000,0.000000
highres_imu,42,1511429257886390528.000000,0.000000,-0.000003,0.000000,-0.000003,0.001590,0.001833,-0.002967,0.000000,0.000000,0.685641,-0.084727,0.033244,0.020312,0,0,0,0,-0.004867,0.000371,-0.005676,0.000000,0.000000,0.000000
highres_imu,42,1511429257926560768.000000,0.000000,-0.000003,0.000000,-0.000003,0.000952,0.001620,-0.001467,0.000000,0.000000,0.685641,-0.084727,0.033244,0.020312,0,0,0,0,-0.004867,0.000371,-0.005676,0.000000,0.000000,0.000000
highres_imu,43,1511429257959952640.000000,0.000000,-0.000003,0.000000,-0.000003,0.001697,0.000875,-0.003707,0.000000,0.000000,0.685641,-0.084727,0.033244,0.020312,0,0,0,0,-0.004867,0.000371,-0.005676,0.000000,0.000000,0.000000
attitude,43,1511429257965320960.000000,0.000000,-0.000003,0.000000,-0.000003,0.001697,0.000875,-0.003707,0.000000,0.000000,0.685641,-0.084725,0.033243,0.020288,0,0,0,0,-0.004867,0.000371,-0.005676,0.000000,0.000000,0.000000
highres_imu,43,1511429257985168640.000000,0.000000,-0.000003,0.000000,-0.000003,0.002754,0.000768,-0.000731,0.000000,0.000000,0.685641,-0.084725,0.033243,0.020288,0,0,0,0,-0.004867,0.000371,-0.005676,0.000000,0.000000,0.000000
highres_imu,43,1511429257994855424.000000,0.000000,-0.000003,0.000000,-0.000003,0.002974,0.001301,0.000554,0.000000,0.000000,0.685641,-0.084725,0.033243,0.020288,0,0,0,0,-0.004867,0.000371,-0.005676,0.000000,0.000000,0.000000
attitude,43,1511429257999651584.000000,0.000000,-0.000003,0.000000,-0.000003,0.002974,0.001301,0.000554,0.000000,0.000000,0.685641,-0.084725,0.033235,0.020274,0,0,0,0,-0.004867,0.000371,-0.005676,0.000000,0.000000,0.000000
highres_imu,43,1511429258008904192.000000,0.000000,-0.000003,0.000000,-0.000003,0.002655,0.002471,-0.001782,0.000000,0.000000,0.685641,-0.084725,0.033235,0.020274,0,0,0,0,-0.004867,0.000371,-0.005676,0.000000,0.000000,0.000000
highres_imu,43,1511429258048392192.000000,0.000000,-0.000003,0.000000,-0.000003,0.001697,0.001833,-0.001682,0.000000,0.000000,0.685641,-0.084725,0.033235,0.020274,0,0,0,0,-0.004867,0.000371,-0.005676,0.000000,0.000000,0.000000
attitude,43,1511429258053616128.000000,0.000000,-0.000003,0.000000,-0.000003,0.001697,0.001833,-0.001682,0.000000,0.000000,0.685641,-0.084713,0.033225,0.020274,0,0,0,0,-0.004867,0.000371,-0.005676,0.000000,0.000000,0.000000
highres_imu,44,1511429258075085056.000000,0.000000,-0.000003,0.000000,-0.000003,0.002123,0.001194,-0.003171,0.000000,0.000000,0.685641,-0.084713,0.033225,0.020274,0,0,0,0,-0.004867,0.000371,-0.005676,0.000000,0.000000,0.000000
attitude,45,1511429258227602688.000000,0.000000,-0.000003,0.000000,-0.000003,0.002123,0.001194,-0.003171,0.000000,0.000000,0.685641,-0.084727,0.033222,0.020303,0,0,0,0,-0.004867,0.000371,-0.005676,0.000000,0.000000,0.000000
highres_imu,45,1511429258255343616.000000,0.000000,-0.000003,0.000000,-0.000003,0.002020,0.002262,-0.002426,0.000000,0.000000,0.685641,-0.084727,0.033222,0.020303,0,0,0,0,-0.004867,0.000371,-0.005676,0.000000,0.000000,0.000000
attitude,45,1511429258260490240.000000,0.000000,-0.000003,0.000000,-0.000003,0.002020,0.002262,-0.002426,0.000000,0.000000,0.685641,-0.084736,0.033236,0.020326,0,0,0,0,-0.004867,0.000371,-0.005676,0.000000,0.000000,0.000000
highres_imu,45,1511429258275958272.000000,0.000000,-0.000003,0.000000,-0.000003,0.003398,0.002258,-0.000726,0.000000,0.000000,0.685641,-0.084736,0.033236,0.020326,0,0,0,0,-0.004867,0.000371,-0.005676,0.000000,0.000000,0.000000
highres_imu,45,1511429258305185792.000000,0.000000,-0.000003,0.000000,-0.000003,0.003187,0.002258,-0.002106,0.000000,0.000000,0.685641,-0.084736,0.033236,0.020326,0,0,0,0,-0.004867,0.000371,-0.005676,0.000000,0.000000,0.000000
attitude,45,1511429258310399488.000000,0.000000,-0.000003,0.000000,-0.000003,0.003187,0.002258,-0.002106,0.000000,0.000000,0.685641,-0.084719,0.033239,0.020347,0,0,0,0,-0.004867,0.000371,-0.005676,0.000000,0.000000,0.000000
highres_imu,46,1511429258348751872.000000,0.000000,-0.000003,0.000000,-0.000003,0.002655,0.001194,-0.000616,0.000000,0.000000,0.685641,-0.084719,0.033239,0.020347,0,0,0,0,-0.004867,0.000371,-0.005676,0.000000,0.000000,0.000000
attitude,46,1511429258354235392.000000,0.000000,-0.000003,0.000000,-0.000003,0.002655,0.001194,-0.000616,0.000000,0.000000,0.685641,-0.084709,0.033236,0.020375,0,0,0,0,-0.004867,0.000371,-0.005676,0.000000,0.000000,0.000000
local_position_ned,46,1511429258364233984.000000,0.000000,-0.000003,0.000000,-0.000003,0.002655,0.001194,-0.000616,0.000000,0.000000,0.695491,-0.084709,0.033236,0.020375,0,0,0,0,-0.003682,-0.000927,-0.003356,0.000000,0.000000,0.000000
highres_imu,46,1511429258390599680.000000,0.000000,-0.000003,0.000000,-0.000003,0.003187,0.001620,-0.000191,0.000000,0.000000,0.695491,-0.084709,0.033236,0.020375,0,0,0,0,-0.003682,-0.000927,-0.003356,0.000000,0.000000,0.000000
attitude,46,1511429258395937280.000000,0.000000,-0.000003,0.000000,-0.000003,0.003187,0.001620,-0.000191,0.000000,0.000000,0.695491,-0.084695,0.033235,0.020411,0,0,0,0,-0.003682,-0.000927,-0.003356,0.000000,0.000000,0.000000
attitude,46,1511429258417828352.000000,0.000000,-0.000003,0.000000,-0.000003,0.003187,0.001620,-0.000191,0.000000,0.000000,0.695491,-0.084684,0.033227,0.020437,0,0,0,0,-0.003682,-0.000927,-0.003356,0.000000,0.000000,0.000000
highres_imu,46,1511429258428332032.000000,0.000000,-0.000003,0.000000,-0.000003,0.002125,0.000768,-0.001791,0.000000,0.000000,0.695491,-0.084684,0.033227,0.020437,0,0,0,0,-0.003682,-0.000927,-0.003356,0.000000,0.000000,0.000000
attitude,46,1511429258439711232.000000,0.000000,-0.000003,0.000000,-0.000003,0.002125,0.000768,-0.001791,0.000000,0.000000,0.695491,-0.084688,0.033219,0.020437,0,0,0,0,-0.003682,-0.000927,-0.003356,0.000000,0.000000,0.000000
highres_imu,47,1511429258461020160.000000,0.000000,-0.000003,0.000000,-0.000003,0.002548,0.001301,-0.001678,0.000000,0.000000,0.695491,-0.084688,0.033219,0.020437,0,0,0,0,-0.003682,-0.000927,-0.003356,0.000000,0.000000,0.000000
attitude,47,1511429258467274752.000000,0.000000,-0.000003,0.000000,-0.000003,0.002548,0.001301,-0.001678,0.000000,0.000000,0.695491,-0.084670,0.033218,0.020494,0,0,0,0,-0.003682,-0.000927,-0.003356,0.000000,0.000000,0.000000
highres_imu,47,1511429258519103232.000000,0.000000,-0.000003,0.000000,-0.000003,0.002762,0.002792,-0.001146,0.000000,0.000000,0.695491,-0.084670,0.033218,0.020494,0,0,0,0,-0.003682,-0.000927,-0.003356,0.000000,0.000000,0.000000
attitude,47,1511429258524294144.000000,0.000000,-0.000003,0.000000,-0.000003,0.002762,0.002792,-0.001146,0.000000,0.000000,0.695491,-0.084668,0.033238,0.020629,0,0,0,0,-0.003682,-0.000927,-0.003356,0.000000,0.000000,0.000000
highres_imu,47,1511429258545737984.000000,0.000000,-0.000003,0.000000,-0.000003,0.002548,0.001521,-0.000283,0.000000,0.000000,0.695491,-0.084668,0.033238,0.020629,0,0,0,0,-0.003682,-0.000927,-0.003356,0.000000,0.000000,0.000000
attitude,47,1511429258577672704.000000,0.000000,-0.000003,0.000000,-0.000003,0.002548,0.001521,-0.000283,0.000000,0.000000,0.695491,-0.084664,0.033244,0.020680,0,0,0,0,-0.003682,-0.000927,-0.003356,0.000000,0.000000,0.000000
highres_imu,48,1511429258593454080.000000,0.000000,-0.000003,0.000000,-0.000003,0.001909,0.001833,-0.003597,0.000000,0.000000,0.695491,-0.084664,0.033244,0.020680,0,0,0,0,-0.003682,-0.000927,-0.003356,0.000000,0.000000,0.000000
attitude,48,1511429258605994240.000000,0.000000,-0.000003,0.000000,-0.000003,0.001909,0.001833,-0.003597,0.000000,0.000000,0.695491,-0.084654,0.033240,0.020711,0,0,0,0,-0.003682,-0.000927,-0.003356,0.000000,0.000000,0.000000
highres_imu,48,1511429258616228096.000000,0.000000,-0.000003,0.000000,-0.000003,0.002867,0.001726,0.000129,0.000000,0.000000,0.695491,-0.084654,0.033240,0.020711,0,0,0,0,-0.003682,-0.000927,-0.003356,0.000000,0.000000,0.000000
highres_imu,48,1511429258632222976.000000,0.000000,-0.000003,0.000000,-0.000003,0.001586,0.002897,-0.002648,0.000000,0.000000,0.695491,-0.084654,0.033240,0.020711,0,0,0,0,-0.003682,-0.000927,-0.003356,0.000000,0.000000,0.000000
highres_imu,48,1511429258676240384.000000,0.000000,-0.000003,0.000000,-0.000003,0.001590,0.001300,-0.002638,0.000000,0.000000,0.695491,-0.084654,0.033240,0.020711,0,0,0,0,-0.003682,-0.000927,-0.003356,0.000000,0.000000,0.000000
highres_imu,48,1511429258711998464.000000,0.000000,-0.000003,0.000000,-0.000003,0.002655,0.001083,-0.000090,0.000000,0.000000,0.695491,-0.084654,0.033240,0.020711,0,0,0,0,-0.003682,-0.000927,-0.003356,0.000000,0.000000,0.000000
attitude,49,1511429258734077440.000000,0.000000,-0.000003,0.000000,-0.000003,0.002655,0.001083,-0.000090,0.000000,0.000000,0.695491,-0.084649,0.033230,0.020709,0,0,0,0,-0.003682,-0.000927,-0.003356,0.000000,0.000000,0.000000
highres_imu,49,1511429258749964032.000000,0.000000,-0.000003,0.000000,-0.000003,0.003080,0.001939,0.000554,0.000000,0.000000,0.695491,-0.084649,0.033230,0.020709,0,0,0,0,-0.003682,-0.000927,-0.003356,0.000000,0.000000,0.000000
highres_imu,49,1511429258782456064.000000,0.000000,-0.000003,0.000000,-0.000003,0.002442,0.001833,-0.000616,0.000000,0.000000,0.695491,-0.084649,0.033230,0.020709,0,0,0,0,-0.003682,-0.000927,-0.003356,0.000000,0.000000,0.000000
