Pose,FrameNo,timestamp(ns),timeboot(ms),xgyro,xyyro,zgyro,xacc,yacc,zacc,x,y,z,roll,pitch,yaw,hdop,lat,lon,alt,vx,vy,vz,gpsxacc,gpsyacc,gpszacc
highres_imu,0,1511452083806770432.000000,0.000000,-0.000003,0.000000,-0.000003,0.003505,0.001833,-0.004236,0.000000,0.000000,-0.738452,-0.082873,-0.044913,0.104671,0,0,0,0,0.004311,-0.003582,-0.007365,0.000000,0.000000,0.000000
highres_imu,0,1511452083831971072.000000,0.000000,-0.000003,0.000000,-0.000003,0.001375,0.002897,-0.000619,0.000000,0.000000,-0.738452,-0.082873,-0.044913,0.104671,0,0,0,0,0.004311,-0.003582,-0.007365,0.000000,0.000000,0.000000
attitude,0,1511452083843401984.000000,0.000000,-0.000003,0.000000,-0.000003,0.001375,0.002897,-0.000619,0.000000,0.000000,-0.738452,-0.082885,-0.044912,0.104657,0,0,0,0,0.004311,-0.003582,-0.007365,0.000000,0.000000,0.000000
attitude,0,1511452083865831168.000000,0.000000,-0.000003,0.000000,-0.000003,0.001375,0.002897,-0.000619,0.000000,0.000000,-0.738452,-0.082881,-0.044904,0.104658,0,0,0,0,0.004311,-0.003582,-0.007365,0.000000,0.000000,0.000000
highres_imu,0,1511452083886758912.000000,0.000000,-0.000003,0.000000,-0.000003,0.003284,0.001305,0.000759,0.000000,0.000000,-0.738452,-0.082881,-0.044904,0.104658,0,0,0,0,0.004311,-0.003582,-0.007365,0.000000,0.000000,0.000000
attitude,0,1511452083901892608.000000,0.000000,-0.000003,0.000000,-0.000003,0.003284,0.001305,0.000759,0.000000,0.000000,-0.738452,-0.082878,-0.044904,0.104706,0,0,0,0,0.004311,-0.003582,-0.007365,0.000000,0.000000,0.000000
highres_imu,1,1511452083923509504.000000,0.000000,-0.000003,0.000000,-0.000003,0.000847,0.001833,-0.002651,0.000000,0.000000,-0.738452,-0.082878,-0.044904,0.104706,0,0,0,0,0.004311,-0.003582,-0.007365,0.000000,0.000000,0.000000
highres_imu,1,1511452083933738240.000000,0.000000,-0.000003,0.000000,-0.000003,0.004024,0.001833,-0.004881,0.000000,0.000000,-0.738452,-0.082878,-0.044904,0.104706,0,0,0,0,0.004311,-0.003582,-0.007365,0.000000,0.000000,0.000000
attitude,1,1511452083939319808.000000,0.000000,-0.000003,0.000000,-0.000003,0.004024,0.001833,-0.004881,0.000000,0.000000,-0.738452,-0.082875,-0.044911,0.104689,0,0,0,0,0.004311,-0.003582,-0.007365,0.000000,0.000000,0.000000
highres_imu,1,1511452083949264128.000000,0.000000,-0.000003,0.000000,-0.000003,0.003614,0.001833,-0.000512,0.000000,0.000000,-0.738452,-0.082875,-0.044911,0.104689,0,0,0,0,0.004311,-0.003582,-0.007365,0.000000,0.000000,0.000000
highres_imu,1,1511452083958958080.000000,0.000000,-0.000003,0.000000,-0.000003,0.001701,0.002362,-0.001241,0.000000,0.000000,-0.738452,-0.082875,-0.044911,0.104689,0,0,0,0,0.004311,-0.003582,-0.007365,0.000000,0.000000,0.000000
attitude,1,1511452083974071808.000000,0.000000,-0.000003,0.000000,-0.000003,0.001701,0.002362,-0.001241,0.000000,0.000000,-0.738452,-0.082874,-0.044898,0.104695,0,0,0,0,0.004311,-0.003582,-0.007365,0.000000,0.000000,0.000000
highres_imu,1,1511452083989028096.000000,0.000000,-0.000003,0.000000,-0.000003,0.005319,0.001833,-0.001380,0.000000,0.000000,-0.738452,-0.082874,-0.044898,0.104695,0,0,0,0,0.004311,-0.003582,-0.007365,0.000000,0.000000,0.000000
highres_imu,1,1511452084014104832.000000,0.000000,-0.000003,0.000000,-0.000003,0.002432,0.001201,0.000768,0.000000,0.000000,-0.738452,-0.082874,-0.044898,0.104695,0,0,0,0,0.004311,-0.003582,-0.007365,0.000000,0.000000,0.000000
attitude,1,1511452084019574016.000000,0.000000,-0.000003,0.000000,-0.000003,0.002432,0.001201,0.000768,0.000000,0.000000,-0.738452,-0.082844,-0.044883,0.104742,0,0,0,0,0.004311,-0.003582,-0.007365,0.000000,0.000000,0.000000
highres_imu,3,1511452084189683712.000000,0.000000,-0.000003,0.000000,-0.000003,0.001697,0.001833,-0.001467,0.000000,0.000000,-0.738452,-0.082844,-0.044883,0.104742,0,0,0,0,0.004311,-0.003582,-0.007365,0.000000,0.000000,0.000000
highres_imu,3,1511452084199857920.000000,0.000000,-0.000003,0.000000,-0.000003,0.002335,0.001833,-0.005618,0.000000,0.000000,-0.738452,-0.082844,-0.044883,0.104742,0,0,0,0,0.004311,-0.003582,-0.007365,0.000000,0.000000,0.000000
attitude,3,1511452084204996864.000000,0.000000,-0.000003,0.000000,-0.000003,0.002335,0.001833,-0.005618,0.000000,0.000000,-0.738452,-0.082808,-0.044878,0.104731,0,0,0,0,0.004311,-0.003582,-0.007365,0.000000,0.000000,0.000000
highres_imu,3,1511452084236130816.000000,0.000000,-0.000003,0.000000,-0.000003,0.002656,0.001941,0.000127,0.000000,0.000000,-0.738452,-0.082808,-0.044878,0.104731,0,0,0,0,0.004311,-0.003582,-0.007365,0.000000,0.000000,0.000000
attitude,3,1511452084240961792.000000,0.000000,-0.000003,0.000000,-0.000003,0.002656,0.001941,0.000127,0.000000,0.000000,-0.738452,-0.082794,-0.044878,0.104726,0,0,0,0,0.004311,-0.003582,-0.007365,0.000000,0.000000,0.000000
attitude,3,1511452084269826048.000000,0.000000,-0.000003,0.000000,-0.000003,0.002656,0.001941,0.000127,0.000000,0.000000,-0.738452,-0.082799,-0.044861,0.104719,0,0,0,0,0.004311,-0.003582,-0.007365,0.000000,0.000000,0.000000
highres_imu,3,1511452084279838720.000000,0.000000,-0.000003,0.000000,-0.000003,0.003289,0.002682,-0.004448,0.000000,0.000000,-0.738452,-0.082799,-0.044861,0.104719,0,0,0,0,0.004311,-0.003582,-0.007365,0.000000,0.000000,0.000000
attitude,4,1511452084311070464.000000,0.000000,-0.000003,0.000000,-0.000003,0.003289,0.002682,-0.004448,0.000000,0.000000,-0.738452,-0.082799,-0.044867,0.104718,0,0,0,0,0.004311,-0.003582,-0.007365,0.000000,0.000000,0.000000
attitude,4,1511452084348088064.000000,0.000000,-0.000003,0.000000,-0.000003,0.003289,0.002682,-0.004448,0.000000,0.000000,-0.738452,-0.082787,-0.044868,0.104728,0,0,0,0,0.004311,-0.003582,-0.007365,0.000000,0.000000,0.000000
highres_imu,4,1511452084362865408.000000,0.000000,-0.000003,0.000000,-0.000003,0.003398,0.002153,-0.003278,0.000000,0.000000,-0.738452,-0.082787,-0.044868,0.104728,0,0,0,0,0.004311,-0.003582,-0.007365,0.000000,0.000000,0.000000
highres_imu,4,1511452084384463616.000000,0.000000,-0.000003,0.000000,-0.000003,0.003824,0.002257,-0.004342,0.000000,0.000000,-0.738452,-0.082787,-0.044868,0.104728,0,0,0,0,0.004311,-0.003582,-0.007365,0.000000,0.000000,0.000000
attitude,4,1511452084394956288.000000,0.000000,-0.000003,0.000000,-0.000003,0.003824,0.002257,-0.004342,0.000000,0.000000,-0.738452,-0.082788,-0.044876,0.104728,0,0,0,0,0.004311,-0.003582,-0.007365,0.000000,0.000000,0.000000
attitude,4,1511452084417678080.000000,0.000000,-0.000003,0.000000,-0.000003,0.003824,0.002257,-0.004342,0.000000,0.000000,-0.738452,-0.082804,-0.044876,0.104729,0,0,0,0,0.004311,-0.003582,-0.007365,0.000000,0.000000,0.000000
highres_imu,5,1511452084440565504.000000,0.000000,-0.000003,0.000000,-0.000003,0.002221,0.001833,-0.004759,0.000000,0.000000,-0.738452,-0.082804,-0.044876,0.104729,0,0,0,0,0.004311,-0.003582,-0.007365,0.000000,0.000000,0.000000
highres_imu,5,1511452084451202560.000000,0.000000,-0.000003,0.000000,-0.000003,0.002236,0.002152,0.000561,0.000000,0.000000,-0.738452,-0.082804,-0.044876,0.104729,0,0,0,0,0.004311,-0.003582,-0.007365,0.000000,0.000000,0.000000
highres_imu,5,1511452084461584640.000000,0.000000,-0.000003,0.000000,-0.000003,0.000208,0.001833,-0.003911,0.000000,0.000000,-0.738452,-0.082804,-0.044876,0.104729,0,0,0,0,0.004311,-0.003582,-0.007365,0.000000,0.000000,0.000000
attitude,5,1511452084467130368.000000,0.000000,-0.000003,0.000000,-0.000003,0.000208,0.001833,-0.003911,0.000000,0.000000,-0.738452,-0.082816,-0.044880,0.104718,0,0,0,0,0.004311,-0.003582,-0.007365,0.000000,0.000000,0.000000
highres_imu,5,1511452084489225728.000000,0.000000,-0.000003,0.000000,-0.000003,0.002540,0.001833,-0.000711,0.000000,0.000000,-0.738452,-0.082816,-0.044880,0.104718,0,0,0,0,0.004311,-0.003582,-0.007365,0.000000,0.000000,0.000000
attitude,5,1511452084494830336.000000,0.000000,-0.000003,0.000000,-0.000003,0.002540,0.001833,-0.000711,0.000000,0.000000,-0.738452,-0.082814,-0.044891,0.104714,0,0,0,0,0.004311,-0.003582,-0.007365,0.000000,0.000000,0.000000
highres_imu,5,1511452084513289472.000000,0.000000,-0.000003,0.000000,-0.000003,0.001697,0.001833,-0.002314,0.000000,0.000000,-0.738452,-0.082814,-0.044891,0.104714,0,0,0,0,0.004311,-0.003582,-0.007365,0.000000,0.000000,0.000000
attitude,5,1511452084535520000.000000,0.000000,-0.000003,0.000000,-0.000003,0.001697,0.001833,-0.002314,0.000000,0.000000,-0.738452,-0.082859,-0.044889,0.104668,0,0,0,0,0.004311,-0.003582,-0.007365,0.000000,0.000000,0.000000
attitude,6,1511452084680392960.000000,0.000000,-0.000003,0.000000,-0.000003,0.001697,0.001833,-0.002314,0.000000,0.000000,-0.738452,-0.082852,-0.044875,0.104664,0,0,0,0,0.004311,-0.003582,-0.007365,0.000000,0.000000,0.000000
highres_imu,7,1511452084697119488.000000,0.000000,-0.000003,0.000000,-0.000003,0.001477,0.001307,-0.004002,0.000000,0.000000,-0.738452,-0.082852,-0.044875,0.104664,0,0,0,0,0.004311,-0.003582,-0.007365,0.000000,0.000000,0.000000
attitude,7,1511452084702636288.000000,0.000000,-0.000003,0.000000,-0.000003,0.001477,0.001307,-0.004002,0.000000,0.000000,-0.738452,-0.082859,-0.044877,0.104665,0,0,0,0,0.004311,-0.003582,-0.007365,0.000000,0.000000,0.000000
attitude,7,1511452084718908416.000000,0.000000,-0.000003,0.000000,-0.000003,0.001477,0.001307,-0.004002,0.000000,0.000000,-0.738452,-0.082855,-0.044887,0.104651,0,0,0,0,0.004311,-0.003582,-0.007365,0.000000,0.000000,0.000000
highres_imu,7,1511452084740777728.000000,0.000000,-0.000003,0.000000,-0.000003,0.001697,0.001833,-0.002851,0.000000,0.000000,-0.738452,-0.082855,-0.044887,0.104651,0,0,0,0,0.004311,-0.003582,-0.007365,0.000000,0.000000,0.000000
highres_imu,7,1511452084763055360.000000,0.000000,-0.000003,0.000000,-0.000003,0.003612,0.001833,-0.004873,0.000000,0.000000,-0.738452,-0.082855,-0.044887,0.104651,0,0,0,0,0.004311,-0.003582,-0.007365,0.000000,0.000000,0.000000
local_position_ned,7,1511452084772514304.000000,0.000000,-0.000003,0.000000,-0.000003,0.003612,0.001833,-0.004873,0.000000,0.000000,-0.696629,-0.082855,-0.044887,0.104651,0,0,0,0,0.001422,-0.003134,0.008519,0.000000,0.000000,0.000000
attitude,7,1511452084792990208.000000,0.000000,-0.000003,0.000000,-0.000003,0.003612,0.001833,-0.004873,0.000000,0.000000,-0.696629,-0.082842,-0.044875,0.104644,0,0,0,0,0.001422,-0.003134,0.008519,0.000000,0.000000,0.000000
highres_imu,8,1511452084822750976.000000,0.000000,-0.000003,0.000000,-0.000003,0.003719,0.001833,-0.002852,0.000000,0.000000,-0.696629,-0.082842,-0.044875,0.104644,0,0,0,0,0.001422,-0.003134,0.008519,0.000000,0.000000,0.000000
highres_imu,8,1511452084832966912.000000,0.000000,-0.000003,0.000000,-0.000003,0.001946,0.001833,-0.000980,0.000000,0.000000,-0.696629,-0.082842,-0.044875,0.104644,0,0,0,0,0.001422,-0.003134,0.008519,0.000000,0.000000,0.000000
attitude,8,1511452084838722816.000000,0.000000,-0.000003,0.000000,-0.000003,0.001946,0.001833,-0.000980,0.000000,0.000000,-0.696629,-0.082842,-0.044875,0.104646,0,0,0,0,0.001422,-0.003134,0.008519,0.000000,0.000000,0.000000
highres_imu,8,1511452084858085376.000000,0.000000,-0.000003,0.000000,-0.000003,0.002119,0.001193,-0.004657,0.000000,0.000000,-0.696629,-0.082842,-0.044875,0.104646,0,0,0,0,0.001422,-0.003134,0.008519,0.000000,0.000000,0.000000
highres_imu,8,1511452084873538560.000000,0.000000,-0.000003,0.000000,-0.000003,0.004678,0.002792,-0.002618,0.000000,0.000000,-0.696629,-0.082842,-0.044875,0.104646,0,0,0,0,0.001422,-0.003134,0.008519,0.000000,0.000000,0.000000
attitude,8,1511452084889393152.000000,0.000000,-0.000003,0.000000,-0.000003,0.004678,0.002792,-0.002618,0.000000,0.000000,-0.696629,-0.082831,-0.044867,0.104637,0,0,0,0,0.001422,-0.003134,0.008519,0.000000,0.000000,0.000000
highres_imu,8,1511452084904828416.000000,0.000000,-0.000003,0.000000,-0.000003,0.000739,0.001833,-0.001574,0.000000,0.000000,-0.696629,-0.082831,-0.044867,0.104637,0,0,0,0,0.001422,-0.003134,0.008519,0.000000,0.000000,0.000000
attitude,8,1511452084925896448.000000,0.000000,-0.000003,0.000000,-0.000003,0.000739,0.001833,-0.001574,0.000000,0.000000,-0.696629,-0.082836,-0.044863,0.104668,0,0,0,0,0.001422,-0.003134,0.008519,0.000000,0.000000,0.000000
highres_imu,9,1511452085044012288.000000,0.000000,-0.000003,0.000000,-0.000003,0.002559,0.001833,-0.005185,0.000000,0.000000,-0.696629,-0.082836,-0.044863,0.104668,0,0,0,0,0.001422,-0.003134,0.008519,0.000000,0.000000,0.000000
attitude,9,1511452085072590592.000000,0.000000,-0.000003,0.000000,-0.000003,0.002559,0.001833,-0.005185,0.000000,0.000000,-0.696629,-0.082835,-0.044860,0.104657,0,0,0,0,0.001422,-0.003134,0.008519,0.000000,0.000000,0.000000
highres_imu,10,1511452085089191424.000000,0.000000,-0.000003,0.000000,-0.000003,0.001796,0.001514,-0.000086,0.000000,0.000000,-0.696629,-0.082835,-0.044860,0.104657,0,0,0,0,0.001422,-0.003134,0.008519,0.000000,0.000000,0.000000
attitude,10,1511452085094447104.000000,0.000000,-0.000003,0.000000,-0.000003,0.001796,0.001514,-0.000086,0.000000,0.000000,-0.696629,-0.082832,-0.044861,0.104663,0,0,0,0,0.001422,-0.003134,0.008519,0.000000,0.000000,0.000000
attitude,10,1511452085111011328.000000,0.000000,-0.000003,0.000000,-0.000003,0.001796,0.001514,-0.000086,0.000000,0.000000,-0.696629,-0.082847,-0.044855,0.104655,0,0,0,0,0.001422,-0.003134,0.008519,0.000000,0.000000,0.000000
highres_imu,10,1511452085133335040.000000,0.000000,-0.000003,0.000000,-0.000003,0.002437,0.002253,0.000032,0.000000,0.000000,-0.696629,-0.082847,-0.044855,0.104655,0,0,0,0,0.001422,-0.003134,0.008519,0.000000,0.000000,0.000000
attitude,10,1511452085141716224.000000,0.000000,-0.000003,0.000000,-0.000003,0.002437,0.002253,0.000032,0.000000,0.000000,-0.696629,-0.082851,-0.044853,0.104664,0,0,0,0,0.001422,-0.003134,0.008519,0.000000,0.000000,0.000000
highres_imu,10,1511452085160013312.000000,0.000000,-0.000003,0.000000,-0.000003,0.002229,0.002152,-0.004128,0.000000,0.000000,-0.696629,-0.082851,-0.044853,0.104664,0,0,0,0,0.001422,-0.003134,0.008519,0.000000,0.000000,0.000000
highres_imu,10,1511452085170331136.000000,0.000000,-0.000003,0.000000,-0.000003,0.003293,0.002578,-0.000952,0.000000,0.000000,-0.696629,-0.082851,-0.044853,0.104664,0,0,0,0,0.001422,-0.003134,0.008519,0.000000,0.000000,0.000000
attitude,11,1511452085302379776.000000,0.000000,-0.000003,0.000000,-0.000003,0.003293,0.002578,-0.000952,0.000000,0.000000,-0.696629,-0.082822,-0.044831,0.104663,0,0,0,0,0.001422,-0.003134,0.008519,0.000000,0.000000,0.000000
highres_imu,11,1511452085335406336.000000,0.000000,-0.000003,0.000000,-0.000003,0.002755,0.002578,-0.004448,0.000000,0.000000,-0.696629,-0.082822,-0.044831,0.104663,0,0,0,0,0.001422,-0.003134,0.008519,0.000000,0.000000,0.000000
attitude,12,1511452085346902784.000000,0.000000,-0.000003,0.000000,-0.000003,0.002755,0.002578,-0.004448,0.000000,0.000000,-0.696629,-0.082812,-0.044832,0.104674,0,0,0,0,0.001422,-0.003134,0.008519,0.000000,0.000000,0.000000
highres_imu,12,1511452085373407232.000000,0.000000,-0.000003,0.000000,-0.000003,0.000526,0.001939,-0.002319,0.000000,0.000000,-0.696629,-0.082812,-0.044832,0.104674,0,0,0,0,0.001422,-0.003134,0.008519,0.000000,0.000000,0.000000
highres_imu,12,1511452085383214592.000000,0.000000,-0.000003,0.000000,-0.000003,0.004239,0.002897,-0.003815,0.000000,0.000000,-0.696629,-0.082812,-0.044832,0.104674,0,0,0,0,0.001422,-0.003134,0.008519,0.000000,0.000000,0.000000
attitude,12,1511452085388400128.000000,0.000000,-0.000003,0.000000,-0.000003,0.004239,0.002897,-0.003815,0.000000,0.000000,-0.696629,-0.082807,-0.044842,0.104682,0,0,0,0,0.001422,-0.003134,0.008519,0.000000,0.000000,0.000000
highres_imu,12,1511452085408038400.000000,0.000000,-0.000003,0.000000,-0.000003,0.002867,0.002578,-0.000828,0.000000,0.000000,-0.696629,-0.082807,-0.044842,0.104682,0,0,0,0,0.001422,-0.003134,0.008519,0.000000,0.000000,0.000000
attitude,12,1511452085440489472.000000,0.000000,-0.000003,0.000000,-0.000003,0.002867,0.002578,-0.000828,0.000000,0.000000,-0.696629,-0.082790,-0.044847,0.104685,0,0,0,0,0.001422,-0.003134,0.008519,0.000000,0.000000,0.000000
highres_imu,12,1511452085456224256.000000,0.000000,-0.000003,0.000000,-0.000003,0.000834,0.001833,0.000332,0.000000,0.000000,-0.696629,-0.082790,-0.044847,0.104685,0,0,0,0,0.001422,-0.003134,0.008519,0.000000,0.000000,0.000000
attitude,13,1511452085483424512.000000,0.000000,-0.000003,0.000000,-0.000003,0.000834,0.001833,0.000332,0.000000,0.000000,-0.696629,-0.082791,-0.044847,0.104685,0,0,0,0,0.001422,-0.003134,0.008519,0.000000,0.000000,0.000000
highres_imu,13,1511452085493630208.000000,0.000000,-0.000003,0.000000,-0.000003,0.002229,0.002897,-0.001999,0.000000,0.000000,-0.696629,-0.082791,-0.044847,0.104685,0,0,0,0,0.001422,-0.003134,0.008519,0.000000,0.000000,0.000000
highres_imu,13,1511452085523712256.000000,0.000000,-0.000003,0.000000,-0.000003,0.004881,0.002897,-0.001142,0.000000,0.000000,-0.696629,-0.082791,-0.044847,0.104685,0,0,0,0,0.001422,-0.003134,0.008519,0.000000,0.000000,0.000000
highres_imu,13,1511452085533529856.000000,0.000000,-0.000003,0.000000,-0.000003,0.001265,0.002043,-0.001267,0.000000,0.000000,-0.696629,-0.082791,-0.044847,0.104685,0,0,0,0,0.001422,-0.003134,0.008519,0.000000,0.000000,0.000000
attitude,13,1511452085539435008.000000,0.000000,-0.000003,0.000000,-0.000003,0.001265,0.002043,-0.001267,0.000000,0.000000,-0.696629,-0.082782,-0.044821,0.104692,0,0,0,0,0.001422,-0.003134,0.008519,0.000000,0.000000,0.000000
attitude,13,1511452085557147392.000000,0.000000,-0.000003,0.000000,-0.000003,0.001265,0.002043,-0.001267,0.000000,0.000000,-0.696629,-0.082768,-0.044799,0.104691,0,0,0,0,0.001422,-0.003134,0.008519,0.000000,0.000000,0.000000
highres_imu,13,1511452085572142336.000000,0.000000,-0.000003,0.000000,-0.000003,0.005209,0.002684,-0.002426,0.000000,0.000000,-0.696629,-0.082768,-0.044799,0.104691,0,0,0,0,0.001422,-0.003134,0.008519,0.000000,0.000000,0.000000
highres_imu,14,1511452085605093376.000000,0.000000,-0.000003,0.000000,-0.000003,0.002655,0.001726,-0.004341,0.000000,0.000000,-0.696629,-0.082768,-0.044799,0.104691,0,0,0,0,0.001422,-0.003134,0.008519,0.000000,0.000000,0.000000
attitude,14,1511452085610452480.000000,0.000000,-0.000003,0.000000,-0.000003,0.002655,0.001726,-0.004341,0.000000,0.000000,-0.696629,-0.082761,-0.044807,0.104687,0,0,0,0,0.001422,-0.003134,0.008519,0.000000,0.000000,0.000000
highres_imu,14,1511452085682651904.000000,0.000000,-0.000003,0.000000,-0.000003,0.001170,0.001087,-0.000601,0.000000,0.000000,-0.696629,-0.082761,-0.044807,0.104687,0,0,0,0,0.001422,-0.003134,0.008519,0.000000,0.000000,0.000000
attitude,14,1511452085687728128.000000,0.000000,-0.000003,0.000000,-0.000003,0.001170,0.001087,-0.000601,0.000000,0.000000,-0.696629,-0.082737,-0.044803,0.104685,0,0,0,0,0.001422,-0.003134,0.008519,0.000000,0.000000,0.000000
highres_imu,14,1511452085703118336.000000,0.000000,-0.000003,0.000000,-0.000003,0.002758,0.002255,-0.003702,0.000000,0.000000,-0.696629,-0.082737,-0.044803,0.104685,0,0,0,0,0.001422,-0.003134,0.008519,0.000000,0.000000,0.000000
attitude,14,1511452085708196096.000000,0.000000,-0.000003,0.000000,-0.000003,0.002758,0.002255,-0.003702,0.000000,0.000000,-0.696629,-0.082723,-0.044802,0.104659,0,0,0,0,0.001422,-0.003134,0.008519,0.000000,0.000000,0.000000
attitude,15,1511452085745932800.000000,0.000000,-0.000003,0.000000,-0.000003,0.002758,0.002255,-0.003702,0.000000,0.000000,-0.696629,-0.082725,-0.044776,0.104674,0,0,0,0,0.001422,-0.003134,0.008519,0.000000,0.000000,0.000000
highres_imu,15,1511452085761660416.000000,0.000000,-0.000003,0.000000,-0.000003,-0.000009,0.001833,-0.001046,0.000000,0.000000,-0.696629,-0.082725,-0.044776,0.104674,0,0,0,0,0.001422,-0.003134,0.008519,0.000000,0.000000,0.000000
highres_imu,15,1511452085792230656.000000,0.000000,-0.000003,0.000000,-0.000003,0.002866,0.002258,-0.004766,0.000000,0.000000,-0.696629,-0.082725,-0.044776,0.104674,0,0,0,0,0.001422,-0.003134,0.008519,0.000000,0.000000,0.000000
highres_imu,15,1511452085802077440.000000,0.000000,-0.000003,0.000000,-0.000003,0.004037,0.002897,-0.000719,0.000000,0.000000,-0.696629,-0.082725,-0.044776,0.104674,0,0,0,0,0.001422,-0.003134,0.008519,0.000000,0.000000,0.000000
highres_imu,15,1511452085823070720.000000,0.000000,-0.000003,0.000000,-0.000003,0.001272,0.001833,-0.003280,0.000000,0.000000,-0.696629,-0.082725,-0.044776,0.104674,0,0,0,0,0.001422,-0.003134,0.008519,0.000000,0.000000,0.000000
attitude,15,1511452085828537088.000000,0.000000,-0.000003,0.000000,-0.000003,0.001272,0.001833,-0.003280,0.000000,0.000000,-0.696629,-0.082743,-0.044773,0.104677,0,0,0,0,0.001422,-0.003134,0.008519,0.000000,0.000000,0.000000
highres_imu,16,1511452085877971712.000000,0.000000,-0.000003,0.000000,-0.000003,0.003731,0.001082,0.000122,0.000000,0.000000,-0.696629,-0.082743,-0.044773,0.104677,0,0,0,0,0.001422,-0.003134,0.008519,0.000000,0.000000,0.000000
highres_imu,16,1511452085907250432.000000,0.000000,-0.000003,0.000000,-0.000003,0.004358,0.002158,-0.001905,0.000000,0.000000,-0.696629,-0.082743,-0.044773,0.104677,0,0,0,0,0.001422,-0.003134,0.008519,0.000000,0.000000,0.000000
attitude,16,1511452085912478208.000000,0.000000,-0.000003,0.000000,-0.000003,0.004358,0.002158,-0.001905,0.000000,0.000000,-0.696629,-0.082730,-0.044784,0.104667,0,0,0,0,0.001422,-0.003134,0.008519,0.000000,0.000000,0.000000
highres_imu,16,1511452085952205568.000000,0.000000,-0.000003,0.000000,-0.000003,0.003932,0.001833,-0.002413,0.000000,0.000000,-0.696629,-0.082730,-0.044784,0.104667,0,0,0,0,0.001422,-0.003134,0.008519,0.000000,0.000000,0.000000
highres_imu,16,1511452085962799872.000000,0.000000,-0.000003,0.000000,-0.000003,0.002008,0.001404,0.000766,0.000000,0.000000,-0.696629,-0.082730,-0.044784,0.104667,0,0,0,0,0.001422,-0.003134,0.008519,0.000000,0.000000,0.000000
attitude,17,1511452086088034048.000000,0.000000,-0.000003,0.000000,-0.000003,0.002008,0.001404,0.000766,0.000000,0.000000,-0.696629,-0.082737,-0.044773,0.104672,0,0,0,0,0.001422,-0.003134,0.008519,0.000000,0.000000,0.000000
highres_imu,17,1511452086098562560.000000,0.000000,-0.000003,0.000000,-0.000003,0.004356,0.002897,-0.000934,0.000000,0.000000,-0.696629,-0.082737,-0.044773,0.104672,0,0,0,0,0.001422,-0.003134,0.008519,0.000000,0.000000,0.000000
highres_imu,18,1511452086137387776.000000,0.000000,-0.000003,0.000000,-0.000003,0.004357,0.001833,-0.002320,0.000000,0.000000,-0.696629,-0.082737,-0.044773,0.104672,0,0,0,0,0.001422,-0.003134,0.008519,0.000000,0.000000,0.000000
attitude,18,1511452086143220224.000000,0.000000,-0.000003,0.000000,-0.000003,0.004357,0.001833,-0.002320,0.000000,0.000000,-0.696629,-0.082717,-0.044774,0.104660,0,0,0,0,0.001422,-0.003134,0.008519,0.000000,0.000000,0.000000
attitude,18,1511452086222419456.000000,0.000000,-0.000003,0.000000,-0.000003,0.004357,0.001833,-0.002320,0.000000,0.000000,-0.696629,-0.082727,-0.044755,0.104655,0,0,0,0,0.001422,-0.003134,0.008519,0.000000,0.000000,0.000000
highres_imu,19,1511452086257716224.000000,0.000000,-0.000003,0.000000,-0.000003,0.003935,0.001833,-0.000833,0.000000,0.000000,-0.696629,-0.082727,-0.044755,0.104655,0,0,0,0,0.001422,-0.003134,0.008519,0.000000,0.000000,0.000000
highres_imu,19,1511452086321579520.000000,0.000000,-0.000003,0.000000,-0.000003,0.002780,0.002263,0.001401,0.000000,0.000000,-0.696629,-0.082727,-0.044755,0.104655,0,0,0,0,0.001422,-0.003134,0.008519,0.000000,0.000000,0.000000
attitude,19,1511452086327017984.000000,0.000000,-0.000003,0.000000,-0.000003,0.002780,0.002263,0.001401,0.000000,0.000000,-0.696629,-0.082737,-0.044796,0.104619,0,0,0,0,0.001422,-0.003134,0.008519,0.000000,0.000000,0.000000
attitude,19,1511452086351956992.000000,0.000000,-0.000003,0.000000,-0.000003,0.002780,0.002263,0.001401,0.000000,0.000000,-0.696629,-0.082731,-0.044780,0.104621,0,0,0,0,0.001422,-0.003134,0.008519,0.000000,0.000000,0.000000
highres_imu,20,1511452086383234048.000000,0.000000,-0.000003,0.000000,-0.000003,0.003293,0.002152,-0.004342,0.000000,0.000000,-0.696629,-0.082731,-0.044780,0.104621,0,0,0,0,0.001422,-0.003134,0.008519,0.000000,0.000000,0.000000
attitude,20,1511452086407075840.000000,0.000000,-0.000003,0.000000,-0.000003,0.003293,0.002152,-0.004342,0.000000,0.000000,-0.696629,-0.082735,-0.044776,0.104622,0,0,0,0,0.001422,-0.003134,0.008519,0.000000,0.000000,0.000000
highres_imu,20,1511452086424132352.000000,0.000000,-0.000003,0.000000,-0.000003,0.004468,0.001833,-0.002642,0.000000,0.000000,-0.696629,-0.082735,-0.044776,0.104622,0,0,0,0,0.001422,-0.003134,0.008519,0.000000,0.000000,0.000000
highres_imu,20,1511452086456483072.000000,0.000000,-0.000003,0.000000,-0.000003,0.001378,0.001088,-0.004022,0.000000,0.000000,-0.696629,-0.082735,-0.044776,0.104622,0,0,0,0,0.001422,-0.003134,0.008519,0.000000,0.000000,0.000000
attitude,20,1511452086481319424.000000,0.000000,-0.000003,0.000000,-0.000003,0.001378,0.001088,-0.004022,0.000000,0.000000,-0.696629,-0.082759,-0.044795,0.104626,0,0,0,0,0.001422,-0.003134,0.008519,0.000000,0.000000,0.000000
highres_imu,20,1511452086491262464.000000,0.000000,-0.000003,0.000000,-0.000003,0.000632,0.002260,-0.000510,0.000000,0.000000,-0.696629,-0.082759,-0.044795,0.104626,0,0,0,0,0.001422,-0.003134,0.008519,0.000000,0.000000,0.000000
highres_imu,21,1511452086530655232.000000,0.000000,-0.000003,0.000000,-0.000003,0.005528,0.002046,-0.001785,0.000000,0.000000,-0.696629,-0.082759,-0.044795,0.104626,0,0,0,0,0.001422,-0.003134,0.008519,0.000000,0.000000,0.000000
attitude,21,1511452086553779456.000000,0.000000,-0.000003,0.000000,-0.000003,0.005528,0.002046,-0.001785,0.000000,0.000000,-0.696629,-0.082756,-0.044788,0.104611,0,0,0,0,0.001422,-0.003134,0.008519,0.000000,0.000000,0.000000
highres_imu,21,1511452086591289600.000000,0.000000,-0.000003,0.000000,-0.000003,0.004555,0.001400,-0.001026,0.000000,0.000000,-0.696629,-0.082756,-0.044788,0.104611,0,0,0,0,0.001422,-0.003134,0.008519,0.000000,0.000000,0.000000
attitude,21,1511452086596389376.000000,0.000000,-0.000003,0.000000,-0.000003,0.004555,0.001400,-0.001026,0.000000,0.000000,-0.696629,-0.082739,-0.044794,0.104611,0,0,0,0,0.001422,-0.003134,0.008519,0.000000,0.000000,0.000000
highres_imu,21,1511452086617814016.000000,0.000000,-0.000003,0.000000,-0.000003,0.001058,0.001833,-0.000404,0.000000,0.000000,-0.696629,-0.082739,-0.044794,0.104611,0,0,0,0,0.001422,-0.003134,0.008519,0.000000,0.000000,0.000000
attitude,21,1511452086632863488.000000,0.000000,-0.000003,0.000000,-0.000003,0.001058,0.001833,-0.000404,0.000000,0.000000,-0.696629,-0.082753,-0.044805,0.104610,0,0,0,0,0.001422,-0.003134,0.008519,0.000000,0.000000,0.000000
highres_imu,22,1511452086655052288.000000,0.000000,-0.000003,0.000000,-0.000003,0.003183,0.001833,-0.004437,0.000000,0.000000,-0.696629,-0.082753,-0.044805,0.104610,0,0,0,0,0.001422,-0.003134,0.008519,0.000000,0.000000,0.000000
highres_imu,22,1511452086665206016.000000,0.000000,-0.000003,0.000000,-0.000003,0.002123,0.001726,-0.003596,0.000000,0.000000,-0.696629,-0.082753,-0.044805,0.104610,0,0,0,0,0.001422,-0.003134,0.008519,0.000000,0.000000,0.000000
attitude,22,1511452086670534144.000000,0.000000,-0.000003,0.000000,-0.000003,0.002123,0.001726,-0.003596,0.000000,0.000000,-0.696629,-0.082753,-0.044824,0.104629,0,0,0,0,0.001422,-0.003134,0.008519,0.000000,0.000000,0.000000
highres_imu,22,1511452086692112896.000000,0.000000,-0.000003,0.000000,-0.000003,0.003202,0.000877,0.000452,0.000000,0.000000,-0.696629,-0.082753,-0.044824,0.104629,0,0,0,0,0.001422,-0.003134,0.008519,0.000000,0.000000,0.000000
highres_imu,23,1511452086804893696.000000,0.000000,-0.000003,0.000000,-0.000003,0.003720,0.002580,-0.001347,0.000000,0.000000,-0.696629,-0.082753,-0.044824,0.104629,0,0,0,0,0.001422,-0.003134,0.008519,0.000000,0.000000,0.000000
attitude,23,1511452086810207744.000000,0.000000,-0.000003,0.000000,-0.000003,0.003720,0.002580,-0.001347,0.000000,0.000000,-0.696629,-0.082738,-0.044820,0.104617,0,0,0,0,0.001422,-0.003134,0.008519,0.000000,0.000000,0.000000
highres_imu,23,1511452086824335104.000000,0.000000,-0.000003,0.000000,-0.000003,0.000313,0.001833,-0.001466,0.000000,0.000000,-0.696629,-0.082738,-0.044820,0.104617,0,0,0,0,0.001422,-0.003134,0.008519,0.000000,0.000000,0.000000
highres_imu,23,1511452086846265344.000000,0.000000,-0.000003,0.000000,-0.000003,0.001696,0.001408,-0.000619,0.000000,0.000000,-0.696629,-0.082738,-0.044820,0.104617,0,0,0,0,0.001422,-0.003134,0.008519,0.000000,0.000000,0.000000
attitude,23,1511452086851504896.000000,0.000000,-0.000003,0.000000,-0.000003,0.001696,0.001408,-0.000619,0.000000,0.000000,-0.696629,-0.082762,-0.044827,0.104635,0,0,0,0,0.001422,-0.003134,0.008519,0.000000,0.000000,0.000000
attitude,23,1511452086891936512.000000,0.000000,-0.000003,0.000000,-0.000003,0.001696,0.001408,-0.000619,0.000000,0.000000,-0.696629,-0.082765,-0.044827,0.104633,0,0,0,0,0.001422,-0.003134,0.008519,0.000000,0.000000,0.000000
highres_imu,23,1511452086901856512.000000,0.000000,-0.000003,0.000000,-0.000003,0.002547,0.001833,0.000874,0.000000,0.000000,-0.696629,-0.082765,-0.044827,0.104633,0,0,0,0,0.001422,-0.003134,0.008519,0.000000,0.000000,0.000000
attitude,24,1511452086922854144.000000,0.000000,-0.000003,0.000000,-0.000003,0.002547,0.001833,0.000874,0.000000,0.000000,-0.696629,-0.082757,-0.044829,0.104640,0,0,0,0,0.001422,-0.003134,0.008519,0.000000,0.000000,0.000000
attitude,24,1511452086940175104.000000,0.000000,-0.000003,0.000000,-0.000003,0.002547,0.001833,0.000874,0.000000,0.000000,-0.696629,-0.082749,-0.044836,0.104626,0,0,0,0,0.001422,-0.003134,0.008519,0.000000,0.000000,0.000000
highres_imu,24,1511452086962367232.000000,0.000000,-0.000003,0.000000,-0.000003,0.003510,0.002262,0.000231,0.000000,0.000000,-0.696629,-0.082749,-0.044836,0.104626,0,0,0,0,0.001422,-0.003134,0.008519,0.000000,0.000000,0.000000
highres_imu,24,1511452086972958720.000000,0.000000,-0.000003,0.000000,-0.000003,0.002017,0.001939,-0.001680,0.000000,0.000000,-0.696629,-0.082749,-0.044836,0.104626,0,0,0,0,0.001422,-0.003134,0.008519,0.000000,0.000000,0.000000
attitude,24,1511452086978281728.000000,0.000000,-0.000003,0.000000,-0.000003,0.002017,0.001939,-0.001680,0.000000,0.000000,-0.696629,-0.082757,-0.044829,0.104632,0,0,0,0,0.001422,-0.003134,0.008519,0.000000,0.000000,0.000000
highres_imu,24,1511452087018544128.000000,0.000000,-0.000003,0.000000,-0.000003,0.003075,0.001833,-0.000084,0.000000,0.000000,-0.696629,-0.082757,-0.044829,0.104632,0,0,0,0,0.001422,-0.003134,0.008519,0.000000,0.000000,0.000000
attitude,24,1511452087023813632.000000,0.000000,-0.000003,0.000000,-0.000003,0.003075,0.001833,-0.000084,0.000000,0.000000,-0.696629,-0.082774,-0.044828,0.104612,0,0,0,0,0.001422,-0.003134,0.008519,0.000000,0.000000,0.000000
attitude,25,1511452087051417344.000000,0.000000,-0.000003,0.000000,-0.000003,0.003075,0.001833,-0.000084,0.000000,0.000000,-0.696629,-0.082773,-0.044832,0.104609,0,0,0,0,0.001422,-0.003134,0.008519,0.000000,0.000000,0.000000
highres_imu,25,1511452087067910912.000000,0.000000,-0.000003,0.000000,-0.000003,0.003512,0.002474,0.001196,0.000000,0.000000,-0.696629,-0.082773,-0.044832,0.104609,0,0,0,0,0.001422,-0.003134,0.008519,0.000000,0.000000,0.000000
attitude,25,1511452087123356160.000000,0.000000,-0.000003,0.000000,-0.000003,0.003512,0.002474,0.001196,0.000000,0.000000,-0.696629,-0.082761,-0.044852,0.104612,0,0,0,0,0.001422,-0.003134,0.008519,0.000000,0.000000,0.000000
highres_imu,25,1511452087156317952.000000,0.000000,-0.000003,0.000000,-0.000003,0.002655,0.001833,-0.004767,0.000000,0.000000,-0.696629,-0.082761,-0.044852,0.104612,0,0,0,0,0.001422,-0.003134,0.008519,0.000000,0.000000,0.000000
highres_imu,25,1511452087167088640.000000,0.000000,-0.000003,0.000000,-0.000003,-0.000277,0.002099,-0.001245,0.000000,0.000000,-0.696629,-0.082761,-0.044852,0.104612,0,0,0,0,0.001422,-0.003134,0.008519,0.000000,0.000000,0.000000
attitude,25,1511452087172101120.000000,0.000000,-0.000003,0.000000,-0.000003,-0.000277,0.002099,-0.001245,0.000000,0.000000,-0.696629,-0.082732,-0.044827,0.104608,0,0,0,0,0.001422,-0.003134,0.008519,0.000000,0.000000,0.000000
highres_imu,26,1511452087194215424.000000,0.000000,-0.000003,0.000000,-0.000003,0.003293,0.002046,-0.004235,0.000000,0.000000,-0.696629,-0.082732,-0.044827,0.104608,0,0,0,0,0.001422,-0.003134,0.008519,0.000000,0.000000,0.000000
highres_imu,26,1511452087211436288.000000,0.000000,-0.000003,0.000000,-0.000003,0.001576,0.001730,-0.001909,0.000000,0.000000,-0.696629,-0.082732,-0.044827,0.104608,0,0,0,0,0.001422,-0.003134,0.008519,0.000000,0.000000,0.000000
highres_imu,26,1511452087221234688.000000,0.000000,-0.000003,0.000000,-0.000003,0.002123,0.002152,-0.004341,0.000000,0.000000,-0.696629,-0.082732,-0.044827,0.104608,0,0,0,0,0.001422,-0.003134,0.008519,0.000000,0.000000,0.000000
attitude,26,1511452087226429696.000000,0.000000,-0.000003,0.000000,-0.000003,0.002123,0.002152,-0.004341,0.000000,0.000000,-0.696629,-0.082737,-0.044821,0.104597,0,0,0,0,0.001422,-0.003134,0.008519,0.000000,0.000000,0.000000
highres_imu,26,1511452087243533568.000000,0.000000,-0.000003,0.000000,-0.000003,0.002541,0.001833,-0.000309,0.000000,0.000000,-0.696629,-0.082737,-0.044821,0.104597,0,0,0,0,0.001422,-0.003134,0.008519,0.000000,0.000000,0.000000
attitude,26,1511452087248691456.000000,0.000000,-0.000003,0.000000,-0.000003,0.002541,0.001833,-0.000309,0.000000,0.000000,-0.696629,-0.082732,-0.044817,0.104593,0,0,0,0,0.001422,-0.003134,0.008519,0.000000,0.000000,0.000000
highres_imu,26,1511452087264200448.000000,0.000000,-0.000003,0.000000,-0.000003,0.001907,0.002155,-0.003922,0.000000,0.000000,-0.696629,-0.082732,-0.044817,0.104593,0,0,0,0,0.001422,-0.003134,0.008519,0.000000,0.000000,0.000000
attitude,27,1511452087338188032.000000,0.000000,-0.000003,0.000000,-0.000003,0.001907,0.002155,-0.003922,0.000000,0.000000,-0.696629,-0.082726,-0.044825,0.104593,0,0,0,0,0.001422,-0.003134,0.008519,0.000000,0.000000,0.000000
highres_imu,27,1511452087349168384.000000,0.000000,-0.000003,0.000000,-0.000003,0.004037,0.001513,-0.001039,0.000000,0.000000,-0.696629,-0.082726,-0.044825,0.104593,0,0,0,0,0.001422,-0.003134,0.008519,0.000000,0.000000,0.000000
highres_imu,27,1511452087359037184.000000,0.000000,-0.000003,0.000000,-0.000003,0.002331,0.002786,-0.005287,0.000000,0.000000,-0.696629,-0.082726,-0.044825,0.104593,0,0,0,0,0.001422,-0.003134,0.008519,0.000000,0.000000,0.000000
attitude,27,1511452087364110080.000000,0.000000,-0.000003,0.000000,-0.000003,0.002331,0.002786,-0.005287,0.000000,0.000000,-0.696629,-0.082727,-0.044822,0.104591,0,0,0,0,0.001422,-0.003134,0.008519,0.000000,0.000000,0.000000
highres_imu,27,1511452087374019840.000000,0.000000,-0.000003,0.000000,-0.000003,0.004356,0.002577,-0.002320,0.000000,0.000000,-0.696629,-0.082727,-0.044822,0.104591,0,0,0,0,0.001422,-0.003134,0.008519,0.000000,0.000000,0.000000
attitude,27,1511452087379138048.000000,0.000000,-0.000003,0.000000,-0.000003,0.004356,0.002577,-0.002320,0.000000,0.000000,-0.696629,-0.082721,-0.044820,0.104590,0,0,0,0,0.001422,-0.003134,0.008519,0.000000,0.000000,0.000000
attitude,27,1511452087410066688.000000,0.000000,-0.000003,0.000000,-0.000003,0.004356,0.002577,-0.002320,0.000000,0.000000,-0.696629,-0.082728,-0.044819,0.104595,0,0,0,0,0.001422,-0.003134,0.008519,0.000000,0.000000,0.000000
attitude,28,1511452087446345216.000000,0.000000,-0.000003,0.000000,-0.000003,0.004356,0.002577,-0.002320,0.000000,0.000000,-0.696629,-0.082734,-0.044829,0.104580,0,0,0,0,0.001422,-0.003134,0.008519,0.000000,0.000000,0.000000
highres_imu,28,1511452087468438016.000000,0.000000,-0.000003,0.000000,-0.000003,0.000739,0.001618,-0.000924,0.000000,0.000000,-0.696629,-0.082734,-0.044829,0.104580,0,0,0,0,0.001422,-0.003134,0.008519,0.000000,0.000000,0.000000
highres_imu,28,1511452087478167552.000000,0.000000,-0.000003,0.000000,-0.000003,0.004149,0.001833,-0.003603,0.000000,0.000000,-0.696629,-0.082734,-0.044829,0.104580,0,0,0,0,0.001422,-0.003134,0.008519,0.000000,0.000000,0.000000
attitude,28,1511452087483709696.000000,0.000000,-0.000003,0.000000,-0.000003,0.004149,0.001833,-0.003603,0.000000,0.000000,-0.696629,-0.082755,-0.044833,0.104568,0,0,0,0,0.001422,-0.003134,0.008519,0.000000,0.000000,0.000000
highres_imu,28,1511452087499025408.000000,0.000000,-0.000003,0.000000,-0.000003,0.001803,0.001413,0.000773,0.000000,0.000000,-0.696629,-0.082755,-0.044833,0.104568,0,0,0,0,0.001422,-0.003134,0.008519,0.000000,0.000000,0.000000
highres_imu,28,1511452087533365504.000000,0.000000,-0.000003,0.000000,-0.000003,0.002025,0.001833,-0.003105,0.000000,0.000000,-0.696629,-0.082755,-0.044833,0.104568,0,0,0,0,0.001422,-0.003134,0.008519,0.000000,0.000000,0.000000
attitude,28,1511452087538974208.000000,0.000000,-0.000003,0.000000,-0.000003,0.002025,0.001833,-0.003105,0.000000,0.000000,-0.696629,-0.082754,-0.044826,0.104582,0,0,0,0,0.001422,-0.003134,0.008519,0.000000,0.000000,0.000000
highres_imu,29,1511452087572717568.000000,0.000000,-0.000003,0.000000,-0.000003,0.004359,0.000662,-0.004447,0.000000,0.000000,-0.696629,-0.082754,-0.044826,0.104582,0,0,0,0,0.001422,-0.003134,0.008519,0.000000,0.000000,0.000000
attitude,29,1511452087578054656.000000,0.000000,-0.000003,0.000000,-0.000003,0.004359,0.000662,-0.004447,0.000000,0.000000,-0.696629,-0.082754,-0.044857,0.104584,0,0,0,0,0.001422,-0.003134,0.008519,0.000000,0.000000,0.000000
attitude,29,1511452087588825344.000000,0.000000,-0.000003,0.000000,-0.000003,0.004359,0.000662,-0.004447,0.000000,0.000000,-0.696629,-0.082737,-0.044868,0.104585,0,0,0,0,0.001422,-0.003134,0.008519,0.000000,0.000000,0.000000
highres_imu,29,1511452087604861440.000000,0.000000,-0.000003,0.000000,-0.000003,0.002019,0.001833,-0.001354,0.000000,0.000000,-0.696629,-0.082737,-0.044868,0.104585,0,0,0,0,0.001422,-0.003134,0.008519,0.000000,0.000000,0.000000
highres_imu,29,1511452087614876160.000000,0.000000,-0.000003,0.000000,-0.000003,0.003719,0.002258,-0.005086,0.000000,0.000000,-0.696629,-0.082737,-0.044868,0.104585,0,0,0,0,0.001422,-0.003134,0.008519,0.000000,0.000000,0.000000
highres_imu,29,1511452087634621184.000000,0.000000,-0.000003,0.000000,-0.000003,0.001379,0.001196,0.000235,0.000000,0.000000,-0.696629,-0.082737,-0.044868,0.104585,0,0,0,0,0.001422,-0.003134,0.008519,0.000000,0.000000,0.000000
attitude,29,1511452087640219392.000000,0.000000,-0.000003,0.000000,-0.000003,0.001379,0.001196,0.000235,0.000000,0.000000,-0.696629,-0.082744,-0.044860,0.104595,0,0,0,0,0.001422,-0.003134,0.008519,0.000000,0.000000,0.000000
highres_imu,29,1511452087679898112.000000,0.000000,-0.000003,0.000000,-0.000003,0.004992,0.001513,-0.003813,0.000000,0.000000,-0.696629,-0.082744,-0.044860,0.104595,0,0,0,0,0.001422,-0.003134,0.008519,0.000000,0.000000,0.000000
highres_imu,30,1511452087792265984.000000,0.000000,-0.000003,0.000000,-0.000003,0.001380,0.002154,-0.003498,0.000000,0.000000,-0.696629,-0.082744,-0.044860,0.104595,0,0,0,0,0.001422,-0.003134,0.008519,0.000000,0.000000,0.000000
attitude,30,1511452087797494272.000000,0.000000,-0.000003,0.000000,-0.000003,0.001380,0.002154,-0.003498,0.000000,0.000000,-0.696629,-0.082733,-0.044873,0.104602,0,0,0,0,0.001422,-0.003134,0.008519,0.000000,0.000000,0.000000
attitude,31,1511452087851313920.000000,0.000000,-0.000003,0.000000,-0.000003,0.001380,0.002154,-0.003498,0.000000,0.000000,-0.696629,-0.082730,-0.044876,0.104604,0,0,0,0,0.001422,-0.003134,0.008519,0.000000,0.000000,0.000000
highres_imu,31,1511452087867707392.000000,0.000000,-0.000003,0.000000,-0.000003,0.003719,0.001833,-0.003703,0.000000,0.000000,-0.696629,-0.082730,-0.044876,0.104604,0,0,0,0,0.001422,-0.003134,0.008519,0.000000,0.000000,0.000000
attitude,31,1511452087873053952.000000,0.000000,-0.000003,0.000000,-0.000003,0.003719,0.001833,-0.003703,0.000000,0.000000,-0.696629,-0.082732,-0.044878,0.104594,0,0,0,0,0.001422,-0.003134,0.008519,0.000000,0.000000,0.000000
attitude,31,1511452087901377792.000000,0.000000,-0.000003,0.000000,-0.000003,0.003719,0.001833,-0.003703,0.000000,0.000000,-0.696629,-0.082740,-0.044883,0.104590,0,0,0,0,0.001422,-0.003134,0.008519,0.000000,0.000000,0.000000
highres_imu,31,1511452087911754240.000000,0.000000,-0.000003,0.000000,-0.000003,0.003825,0.001833,-0.004022,0.000000,0.000000,-0.696629,-0.082740,-0.044883,0.104590,0,0,0,0,0.001422,-0.003134,0.008519,0.000000,0.000000,0.000000
highres_imu,31,1511452087943085056.000000,0.000000,-0.000003,0.000000,-0.000003,0.003924,0.002788,-0.001242,0.000000,0.000000,-0.696629,-0.082740,-0.044883,0.104590,0,0,0,0,0.001422,-0.003134,0.008519,0.000000,0.000000,0.000000
local_position_ned,32,1511452087959620864.000000,0.000000,-0.000003,0.000000,-0.000003,0.003924,0.002788,-0.001242,0.000000,0.000000,-0.661744,-0.082740,-0.044883,0.104590,0,0,0,0,0.000210,0.000447,0.008711,0.000000,0.000000,0.000000
attitude,32,1511452087980492800.000000,0.000000,-0.000003,0.000000,-0.000003,0.003924,0.002788,-0.001242,0.000000,0.000000,-0.661744,-0.082717,-0.044861,0.104570,0,0,0,0,0.000210,0.000447,0.008711,0.000000,0.000000,0.000000
highres_imu,32,1511452087996137216.000000,0.000000,-0.000003,0.000000,-0.000003,0.000845,0.001833,-0.000829,0.000000,0.000000,-0.661744,-0.082717,-0.044861,0.104570,0,0,0,0,0.000210,0.000447,0.008711,0.000000,0.000000,0.000000
highres_imu,32,1511452088011655936.000000,0.000000,-0.000003,0.000000,-0.000003,0.003289,0.002573,-0.004549,0.000000,0.000000,-0.661744,-0.082717,-0.044861,0.104570,0,0,0,0,0.000210,0.000447,0.008711,0.000000,0.000000,0.000000
highres_imu,32,1511452088021509120.000000,0.000000,-0.000003,0.000000,-0.000003,0.003610,0.002259,-0.001988,0.000000,0.000000,-0.661744,-0.082717,-0.044861,0.104570,0,0,0,0,0.000210,0.000447,0.008711,0.000000,0.000000,0.000000
attitude,32,1511452088032021248.000000,0.000000,-0.000003,0.000000,-0.000003,0.003610,0.002259,-0.001988,0.000000,0.000000,-0.661744,-0.082725,-0.044854,0.104582,0,0,0,0,0.000210,0.000447,0.008711,0.000000,0.000000,0.000000
highres_imu,32,1511452088051789056.000000,0.000000,-0.000003,0.000000,-0.000003,0.001912,0.000875,-0.002859,0.000000,0.000000,-0.661744,-0.082725,-0.044854,0.104582,0,0,0,0,0.000210,0.000447,0.008711,0.000000,0.000000,0.000000
attitude,32,1511452088056918784.000000,0.000000,-0.000003,0.000000,-0.000003,0.001912,0.000875,-0.002859,0.000000,0.000000,-0.661744,-0.082726,-0.044862,0.104573,0,0,0,0,0.000210,0.000447,0.008711,0.000000,0.000000,0.000000
highres_imu,32,1511452088083363840.000000,0.000000,-0.000003,0.000000,-0.000003,0.003826,0.001513,-0.000936,0.000000,0.000000,-0.661744,-0.082726,-0.044862,0.104573,0,0,0,0,0.000210,0.000447,0.008711,0.000000,0.000000,0.000000
highres_imu,33,1511452088094123520.000000,0.000000,-0.000003,0.000000,-0.000003,0.003293,0.001726,-0.006682,0.000000,0.000000,-0.661744,-0.082726,-0.044862,0.104573,0,0,0,0,0.000210,0.000447,0.008711,0.000000,0.000000,0.000000
attitude,33,1511452088099563008.000000,0.000000,-0.000003,0.000000,-0.000003,0.003293,0.001726,-0.006682,0.000000,0.000000,-0.661744,-0.082716,-0.044875,0.104551,0,0,0,0,0.000210,0.000447,0.008711,0.000000,0.000000,0.000000
highres_imu,33,1511452088122172160.000000,0.000000,-0.000003,0.000000,-0.000003,0.005961,0.002472,-0.002941,0.000000,0.000000,-0.661744,-0.082716,-0.044875,0.104551,0,0,0,0,0.000210,0.000447,0.008711,0.000000,0.000000,0.000000
attitude,33,1511452088127766016.000000,0.000000,-0.000003,0.000000,-0.000003,0.005961,0.002472,-0.002941,0.000000,0.000000,-0.661744,-0.082717,-0.044891,0.104537,0,0,0,0,0.000210,0.000447,0.008711,0.000000,0.000000,0.000000
highres_imu,33,1511452088149922560.000000,0.000000,-0.000003,0.000000,-0.000003,0.002872,0.001833,0.000022,0.000000,0.000000,-0.661744,-0.082717,-0.044891,0.104537,0,0,0,0,0.000210,0.000447,0.008711,0.000000,0.000000,0.000000
highres_imu,33,1511452088160546560.000000,0.000000,-0.000003,0.000000,-0.000003,0.004254,0.002573,-0.003047,0.000000,0.000000,-0.661744,-0.082717,-0.044891,0.104537,0,0,0,0,0.000210,0.000447,0.008711,0.000000,0.000000,0.000000
highres_imu,33,1511452088170684416.000000,0.000000,-0.000003,0.000000,-0.000003,0.003395,0.001511,0.001515,0.000000,0.000000,-0.661744,-0.082717,-0.044891,0.104537,0,0,0,0,0.000210,0.000447,0.008711,0.000000,0.000000,0.000000
attitude,33,1511452088176136192.000000,0.000000,-0.000003,0.000000,-0.000003,0.003395,0.001511,0.001515,0.000000,0.000000,-0.661744,-0.082728,-0.044888,0.104542,0,0,0,0,0.000210,0.000447,0.008711,0.000000,0.000000,0.000000
highres_imu,33,1511452088207506176.000000,0.000000,-0.000003,0.000000,-0.000003,0.003292,0.001514,-0.005299,0.000000,0.000000,-0.661744,-0.082728,-0.044888,0.104542,0,0,0,0,0.000210,0.000447,0.008711,0.000000,0.000000,0.000000
attitude,33,1511452088212833280.000000,0.000000,-0.000003,0.000000,-0.000003,0.003292,0.001514,-0.005299,0.000000,0.000000,-0.661744,-0.082726,-0.044903,0.104523,0,0,0,0,0.000210,0.000447,0.008711,0.000000,0.000000,0.000000
highres_imu,34,1511452088229355264.000000,0.000000,-0.000003,0.000000,-0.000003,0.004152,0.001299,-0.001157,0.000000,0.000000,-0.661744,-0.082726,-0.044903,0.104523,0,0,0,0,0.000210,0.000447,0.008711,0.000000,0.000000,0.000000
highres_imu,34,1511452088252585728.000000,0.000000,-0.000003,0.000000,-0.000003,0.002869,0.001833,-0.004025,0.000000,0.000000,-0.661744,-0.082726,-0.044903,0.104523,0,0,0,0,0.000210,0.000447,0.008711,0.000000,0.000000,0.000000
attitude,34,1511452088258107648.000000,0.000000,-0.000003,0.000000,-0.000003,0.002869,0.001833,-0.004025,0.000000,0.000000,-0.661744,-0.082722,-0.044902,0.104536,0,0,0,0,0.000210,0.000447,0.008711,0.000000,0.000000,0.000000
attitude,34,1511452088288892672.000000,0.000000,-0.000003,0.000000,-0.000003,0.002869,0.001833,-0.004025,0.000000,0.000000,-0.661744,-0.082712,-0.044915,0.104535,0,0,0,0,0.000210,0.000447,0.008711,0.000000,0.000000,0.000000
highres_imu,34,1511452088310874368.000000,0.000000,-0.000003,0.000000,-0.000003,0.001701,0.001094,-0.002339,0.000000,0.000000,-0.661744,-0.082712,-0.044915,0.104535,0,0,0,0,0.000210,0.000447,0.008711,0.000000,0.000000,0.000000
highres_imu,34,1511452088321334528.000000,0.000000,-0.000003,0.000000,-0.000003,0.003493,0.001833,0.000236,0.000000,0.000000,-0.661744,-0.082712,-0.044915,0.104535,0,0,0,0,0.000210,0.000447,0.008711,0.000000,0.000000,0.000000
highres_imu,34,1511452088331449856.000000,0.000000,-0.000003,0.000000,-0.000003,0.001376,0.001833,-0.002649,0.000000,0.000000,-0.661744,-0.082712,-0.044915,0.104535,0,0,0,0,0.000210,0.000447,0.008711,0.000000,0.000000,0.000000
attitude,34,1511452088336679680.000000,0.000000,-0.000003,0.000000,-0.000003,0.001376,0.001833,-0.002649,0.000000,0.000000,-0.661744,-0.082701,-0.044908,0.104569,0,0,0,0,0.000210,0.000447,0.008711,0.000000,0.000000,0.000000
highres_imu,35,1511452088359346688.000000,0.000000,-0.000003,0.000000,-0.000003,0.004260,0.001093,-0.001060,0.000000,0.000000,-0.661744,-0.082701,-0.044908,0.104569,0,0,0,0,0.000210,0.000447,0.008711,0.000000,0.000000,0.000000
attitude,35,1511452088365196544.000000,0.000000,-0.000003,0.000000,-0.000003,0.004260,0.001093,-0.001060,0.000000,0.000000,-0.661744,-0.082690,-0.044909,0.104544,0,0,0,0,0.000210,0.000447,0.008711,0.000000,0.000000,0.000000
attitude,35,1511452088407496704.000000,0.000000,-0.000003,0.000000,-0.000003,0.004260,0.001093,-0.001060,0.000000,0.000000,-0.661744,-0.082727,-0.044917,0.104568,0,0,0,0,0.000210,0.000447,0.008711,0.000000,0.000000,0.000000
highres_imu,35,1511452088423411712.000000,0.000000,-0.000003,0.000000,-0.000003,0.001709,0.002261,-0.003613,0.000000,0.000000,-0.661744,-0.082727,-0.044917,0.104568,0,0,0,0,0.000210,0.000447,0.008711,0.000000,0.000000,0.000000
attitude,35,1511452088454291712.000000,0.000000,-0.000003,0.000000,-0.000003,0.001709,0.002261,-0.003613,0.000000,0.000000,-0.661744,-0.082726,-0.044906,0.104561,0,0,0,0,0.000210,0.000447,0.008711,0.000000,0.000000,0.000000
highres_imu,35,1511452088476018688.000000,0.000000,-0.000003,0.000000,-0.000003,0.003616,0.002897,-0.003689,0.000000,0.000000,-0.661744,-0.082726,-0.044906,0.104561,0,0,0,0,0.000210,0.000447,0.008711,0.000000,0.000000,0.000000
local_position_ned,36,1511452088486573056.000000,0.000000,-0.000003,0.000000,-0.000003,0.003616,0.002897,-0.003689,0.000000,0.000000,-0.655385,-0.082726,-0.044906,0.104561,0,0,0,0,0.000215,0.000151,0.011401,0.000000,0.000000,0.000000
highres_imu,36,1511452088544464128.000000,0.000000,-0.000003,0.000000,-0.000003,0.005962,0.001935,-0.002013,0.000000,0.000000,-0.655385,-0.082726,-0.044906,0.104561,0,0,0,0,0.000215,0.000151,0.011401,0.000000,0.000000,0.000000
attitude,36,1511452088550112512.000000,0.000000,-0.000003,0.000000,-0.000003,0.005962,0.001935,-0.002013,0.000000,0.000000,-0.655385,-0.082711,-0.044897,0.104567,0,0,0,0,0.000215,0.000151,0.011401,0.000000,0.000000,0.000000
highres_imu,36,1511452088570842624.000000,0.000000,-0.000003,0.000000,-0.000003,0.003276,0.002897,0.001621,0.000000,0.000000,-0.655385,-0.082711,-0.044897,0.104567,0,0,0,0,0.000215,0.000151,0.011401,0.000000,0.000000,0.000000
attitude,36,1511452088581849600.000000,0.000000,-0.000003,0.000000,-0.000003,0.003276,0.002897,0.001621,0.000000,0.000000,-0.655385,-0.082715,-0.044885,0.104581,0,0,0,0,0.000215,0.000151,0.011401,0.000000,0.000000,0.000000
highres_imu,36,1511452088598203648.000000,0.000000,-0.000003,0.000000,-0.000003,0.004154,0.002897,-0.001167,0.000000,0.000000,-0.655385,-0.082715,-0.044885,0.104581,0,0,0,0,0.000215,0.000151,0.011401,0.000000,0.000000,0.000000
attitude,36,1511452088603939840.000000,0.000000,-0.000003,0.000000,-0.000003,0.004154,0.002897,-0.001167,0.000000,0.000000,-0.655385,-0.082718,-0.044887,0.104577,0,0,0,0,0.000215,0.000151,0.011401,0.000000,0.000000,0.000000
highres_imu,37,1511452088614595328.000000,0.000000,-0.000003,0.000000,-0.000003,0.001376,0.002897,-0.001694,0.000000,0.000000,-0.655385,-0.082718,-0.044887,0.104577,0,0,0,0,0.000215,0.000151,0.011401,0.000000,0.000000,0.000000
attitude,37,1511452088620460544.000000,0.000000,-0.000003,0.000000,-0.000003,0.001376,0.002897,-0.001694,0.000000,0.000000,-0.655385,-0.082724,-0.044883,0.104578,0,0,0,0,0.000215,0.000151,0.011401,0.000000,0.000000,0.000000
highres_imu,37,1511452088647954432.000000,0.000000,-0.000003,0.000000,-0.000003,0.004428,0.001655,-0.002230,0.000000,0.000000,-0.655385,-0.082724,-0.044883,0.104578,0,0,0,0,0.000215,0.000151,0.011401,0.000000,0.000000,0.000000
attitude,37,1511452088653467136.000000,0.000000,-0.000003,0.000000,-0.000003,0.004428,0.001655,-0.002230,0.000000,0.000000,-0.655385,-0.082725,-0.044868,0.104571,0,0,0,0,0.000215,0.000151,0.011401,0.000000,0.000000,0.000000
attitude,37,1511452088678266880.000000,0.000000,-0.000003,0.000000,-0.000003,0.004428,0.001655,-0.002230,0.000000,0.000000,-0.655385,-0.082745,-0.044861,0.104568,0,0,0,0,0.000215,0.000151,0.011401,0.000000,0.000000,0.000000
highres_imu,37,1511452088699496192.000000,0.000000,-0.000003,0.000000,-0.000003,0.004358,0.002687,-0.003608,0.000000,0.000000,-0.655385,-0.082745,-0.044861,0.104568,0,0,0,0,0.000215,0.000151,0.011401,0.000000,0.000000,0.000000
highres_imu,37,1511452088719148544.000000,0.000000,-0.000003,0.000000,-0.000003,0.003079,0.001833,-0.004127,0.000000,0.000000,-0.655385,-0.082745,-0.044861,0.104568,0,0,0,0,0.000215,0.000151,0.011401,0.000000,0.000000,0.000000
attitude,37,1511452088724287744.000000,0.000000,-0.000003,0.000000,-0.000003,0.003079,0.001833,-0.004127,0.000000,0.000000,-0.655385,-0.082744,-0.044863,0.104550,0,0,0,0,0.000215,0.000151,0.011401,0.000000,0.000000,0.000000
highres_imu,38,1511452088745585920.000000,0.000000,-0.000003,0.000000,-0.000003,0.003825,0.001093,-0.001160,0.000000,0.000000,-0.655385,-0.082744,-0.044863,0.104550,0,0,0,0,0.000215,0.000151,0.011401,0.000000,0.000000,0.000000
attitude,38,1511452088761872384.000000,0.000000,-0.000003,0.000000,-0.000003,0.003825,0.001093,-0.001160,0.000000,0.000000,-0.655385,-0.082742,-0.044878,0.104545,0,0,0,0,0.000215,0.000151,0.011401,0.000000,0.000000,0.000000
highres_imu,38,1511452088777708800.000000,0.000000,-0.000003,0.000000,-0.000003,0.001275,0.001619,0.000248,0.000000,0.000000,-0.655385,-0.082742,-0.044878,0.104545,0,0,0,0,0.000215,0.000151,0.011401,0.000000,0.000000,0.000000
attitude,38,1511452088798927360.000000,0.000000,-0.000003,0.000000,-0.000003,0.001275,0.001619,0.000248,0.000000,0.000000,-0.655385,-0.082741,-0.044876,0.104573,0,0,0,0,0.000215,0.000151,0.011401,0.000000,0.000000,0.000000
highres_imu,38,1511452088839058688.000000,0.000000,-0.000003,0.000000,-0.000003,0.003293,0.001833,0.000874,0.000000,0.000000,-0.655385,-0.082741,-0.044876,0.104573,0,0,0,0,0.000215,0.000151,0.011401,0.000000,0.000000,0.000000
attitude,38,1511452088844121856.000000,0.000000,-0.000003,0.000000,-0.000003,0.003293,0.001833,0.000874,0.000000,0.000000,-0.655385,-0.082721,-0.044869,0.104569,0,0,0,0,0.000215,0.000151,0.011401,0.000000,0.000000,0.000000
highres_imu,38,1511452088865158144.000000,0.000000,-0.000003,0.000000,-0.000003,0.002656,0.001620,-0.004981,0.000000,0.000000,-0.655385,-0.082721,-0.044869,0.104569,0,0,0,0,0.000215,0.000151,0.011401,0.000000,0.000000,0.000000
attitude,38,1511452088870271232.000000,0.000000,-0.000003,0.000000,-0.000003,0.002656,0.001620,-0.004981,0.000000,0.000000,-0.655385,-0.082748,-0.044882,0.104571,0,0,0,0,0.000215,0.000151,0.011401,0.000000,0.000000,0.000000
highres_imu,39,1511452088886712576.000000,0.000000,-0.000003,0.000000,-0.000003,0.004357,0.000768,-0.000928,0.000000,0.000000,-0.655385,-0.082748,-0.044882,0.104571,0,0,0,0,0.000215,0.000151,0.011401,0.000000,0.000000,0.000000
highres_imu,39,1511452088916063488.000000,0.000000,-0.000003,0.000000,-0.000003,0.003612,0.002365,-0.002213,0.000000,0.000000,-0.655385,-0.082748,-0.044882,0.104571,0,0,0,0,0.000215,0.000151,0.011401,0.000000,0.000000,0.000000
highres_imu,39,1511452088933575168.000000,0.000000,-0.000003,0.000000,-0.000003,0.001798,0.001833,0.000873,0.000000,0.000000,-0.655385,-0.082748,-0.044882,0.104571,0,0,0,0,0.000215,0.000151,0.011401,0.000000,0.000000,0.000000
attitude,39,1511452088952420864.000000,0.000000,-0.000003,0.000000,-0.000003,0.001798,0.001833,0.000873,0.000000,0.000000,-0.655385,-0.082769,-0.044858,0.104549,0,0,0,0,0.000215,0.000151,0.011401,0.000000,0.000000,0.000000
attitude,39,1511452088997572352.000000,0.000000,-0.000003,0.000000,-0.000003,0.001798,0.001833,0.000873,0.000000,0.000000,-0.655385,-0.082780,-0.044855,0.104544,0,0,0,0,0.000215,0.000151,0.011401,0.000000,0.000000,0.000000
highres_imu,40,1511452089020501248.000000,0.000000,-0.000003,0.000000,-0.000003,0.003098,0.002274,-0.003833,0.000000,0.000000,-0.655385,-0.082780,-0.044855,0.104544,0,0,0,0,0.000215,0.000151,0.011401,0.000000,0.000000,0.000000
attitude,40,1511452089036085760.000000,0.000000,-0.000003,0.000000,-0.000003,0.003098,0.002274,-0.003833,0.000000,0.000000,-0.655385,-0.082797,-0.044836,0.104539,0,0,0,0,0.000215,0.000151,0.011401,0.000000,0.000000,0.000000
highres_imu,40,1511452089058372608.000000,0.000000,-0.000003,0.000000,-0.000003,0.004677,0.002471,-0.000938,0.000000,0.000000,-0.655385,-0.082797,-0.044836,0.104539,0,0,0,0,0.000215,0.000151,0.011401,0.000000,0.000000,0.000000
highres_imu,40,1511452089079299840.000000,0.000000,-0.000003,0.000000,-0.000003,0.004132,0.001833,-0.002724,0.000000,0.000000,-0.655385,-0.082797,-0.044836,0.104539,0,0,0,0,0.000215,0.000151,0.011401,0.000000,0.000000,0.000000
highres_imu,40,1511452089095179776.000000,0.000000,-0.000003,0.000000,-0.000003,0.000942,0.001081,0.000133,0.000000,0.000000,-0.655385,-0.082797,-0.044836,0.104539,0,0,0,0,0.000215,0.000151,0.011401,0.000000,0.000000,0.000000
highres_imu,40,1511452089124369664.000000,0.000000,-0.000003,0.000000,-0.000003,0.003612,0.001833,-0.003703,0.000000,0.000000,-0.655385,-0.082797,-0.044836,0.104539,0,0,0,0,0.000215,0.000151,0.011401,0.000000,0.000000,0.000000
local_position_ned,40,1511452089133881600.000000,0.000000,-0.000003,0.000000,-0.000003,0.003612,0.001833,-0.003703,0.000000,0.000000,-0.639405,-0.082797,-0.044836,0.104539,0,0,0,0,0.000097,-0.001305,0.013073,0.000000,0.000000,0.000000
attitude,41,1511452089151028992.000000,0.000000,-0.000003,0.000000,-0.000003,0.003612,0.001833,-0.003703,0.000000,0.000000,-0.639405,-0.082801,-0.044854,0.104521,0,0,0,0,0.000097,-0.001305,0.013073,0.000000,0.000000,0.000000
highres_imu,41,1511452089167646976.000000,0.000000,-0.000003,0.000000,-0.000003,0.004251,0.001833,-0.001362,0.000000,0.000000,-0.639405,-0.082801,-0.044854,0.104521,0,0,0,0,0.000097,-0.001305,0.013073,0.000000,0.000000,0.000000
highres_imu,41,1511452089239326720.000000,0.000000,-0.000003,0.000000,-0.000003,0.002966,0.002146,-0.004993,0.000000,0.000000,-0.639405,-0.082801,-0.044854,0.104521,0,0,0,0,0.000097,-0.001305,0.013073,0.000000,0.000000,0.000000
local_position_ned,41,1511452089248784384.000000,0.000000,-0.000003,0.000000,-0.000003,0.002966,0.002146,-0.004993,0.000000,0.000000,-0.640998,-0.082801,-0.044854,0.104521,0,0,0,0,0.000194,-0.001116,0.012070,0.000000,0.000000,0.000000
highres_imu,42,1511452089275657728.000000,0.000000,-0.000003,0.000000,-0.000003,0.004038,0.001513,-0.000616,0.000000,0.000000,-0.640998,-0.082801,-0.044854,0.104521,0,0,0,0,0.000194,-0.001116,0.012070,0.000000,0.000000,0.000000
highres_imu,42,1511452089286183680.000000,0.000000,-0.000003,0.000000,-0.000003,0.000321,0.001723,-0.000510,0.000000,0.000000,-0.640998,-0.082801,-0.044854,0.104521,0,0,0,0,0.000194,-0.001116,0.012070,0.000000,0.000000,0.000000
attitude,43,1511452089419696640.000000,0.000000,-0.000003,0.000000,-0.000003,0.000321,0.001723,-0.000510,0.000000,0.000000,-0.640998,-0.082825,-0.044820,0.104497,0,0,0,0,0.000194,-0.001116,0.012070,0.000000,0.000000,0.000000
highres_imu,43,1511452089440955136.000000,0.000000,-0.000003,0.000000,-0.000003,0.002016,0.001300,-0.000084,0.000000,0.000000,-0.640998,-0.082825,-0.044820,0.104497,0,0,0,0,0.000194,-0.001116,0.012070,0.000000,0.000000,0.000000
highres_imu,43,1511452089451001600.000000,0.000000,-0.000003,0.000000,-0.000003,0.000526,0.000875,-0.002638,0.000000,0.000000,-0.640998,-0.082825,-0.044820,0.104497,0,0,0,0,0.000194,-0.001116,0.012070,0.000000,0.000000,0.000000
highres_imu,43,1511452089460836864.000000,0.000000,-0.000003,0.000000,-0.000003,0.003290,0.001513,-0.002219,0.000000,0.000000,-0.640998,-0.082825,-0.044820,0.104497,0,0,0,0,0.000194,-0.001116,0.012070,0.000000,0.000000,0.000000
attitude,43,1511452089477156608.000000,0.000000,-0.000003,0.000000,-0.000003,0.003290,0.001513,-0.002219,0.000000,0.000000,-0.640998,-0.082824,-0.044829,0.104511,0,0,0,0,0.000194,-0.001116,0.012070,0.000000,0.000000,0.000000
highres_imu,43,1511452089496966656.000000,0.000000,-0.000003,0.000000,-0.000003,0.003294,0.002473,0.000336,0.000000,0.000000,-0.640998,-0.082824,-0.044829,0.104511,0,0,0,0,0.000194,-0.001116,0.012070,0.000000,0.000000,0.000000
attitude,43,1511452089502015232.000000,0.000000,-0.000003,0.000000,-0.000003,0.003294,0.002473,0.000336,0.000000,0.000000,-0.640998,-0.082834,-0.044832,0.104518,0,0,0,0,0.000194,-0.001116,0.012070,0.000000,0.000000,0.000000
highres_imu,43,1511452089517486080.000000,0.000000,-0.000003,0.000000,-0.000003,0.004038,0.002897,-0.004341,0.000000,0.000000,-0.640998,-0.082834,-0.044832,0.104518,0,0,0,0,0.000194,-0.001116,0.012070,0.000000,0.000000,0.000000
highres_imu,44,1511452089551275264.000000,0.000000,-0.000003,0.000000,-0.000003,0.000959,0.001833,-0.001039,0.000000,0.000000,-0.640998,-0.082834,-0.044832,0.104518,0,0,0,0,0.000194,-0.001116,0.012070,0.000000,0.000000,0.000000
attitude,44,1511452089562501632.000000,0.000000,-0.000003,0.000000,-0.000003,0.000959,0.001833,-0.001039,0.000000,0.000000,-0.640998,-0.082840,-0.044816,0.104516,0,0,0,0,0.000194,-0.001116,0.012070,0.000000,0.000000,0.000000
highres_imu,44,1511452089621569536.000000,0.000000,-0.000003,0.000000,-0.000003,0.002656,0.001938,-0.000616,0.000000,0.000000,-0.640998,-0.082840,-0.044816,0.104516,0,0,0,0,0.000194,-0.001116,0.012070,0.000000,0.000000,0.000000
attitude,44,1511452089626683136.000000,0.000000,-0.000003,0.000000,-0.000003,0.002656,0.001938,-0.000616,0.000000,0.000000,-0.640998,-0.082859,-0.044805,0.104552,0,0,0,0,0.000194,-0.001116,0.012070,0.000000,0.000000,0.000000
highres_imu,44,1511452089647887360.000000,0.000000,-0.000003,0.000000,-0.000003,0.002440,0.000877,-0.005399,0.000000,0.000000,-0.640998,-0.082859,-0.044805,0.104552,0,0,0,0,0.000194,-0.001116,0.012070,0.000000,0.000000,0.000000
attitude,44,1511452089652954368.000000,0.000000,-0.000003,0.000000,-0.000003,0.002440,0.000877,-0.005399,0.000000,0.000000,-0.640998,-0.082869,-0.044815,0.104539,0,0,0,0,0.000194,-0.001116,0.012070,0.000000,0.000000,0.000000
