Pose,FrameNo,timestamp(ns),timeboot(ms),xgyro,xyyro,zgyro,xacc,yacc,zacc,x,y,z,roll,pitch,yaw,hdop,lat,lon,alt,vx,vy,vz,gpsxacc,gpsyacc,gpszacc
highres_imu,0,1511151477464443648.000000,0.000000,-0.000004,-0.000000,0.000000,0.004464,0.003961,-0.000503,0.000000,0.000000,0.781039,-0.065643,0.026298,-0.036017,0,0,0,0,-0.008699,0.002732,0.014839,0.000000,0.000000,0.000000
highres_imu,0,1511151477487249152.000000,0.000000,-0.000004,-0.000000,0.000000,0.003719,0.003426,-0.000723,0.000000,0.000000,0.781039,-0.065643,0.026298,-0.036017,0,0,0,0,-0.008699,0.002732,0.014839,0.000000,0.000000,0.000000
attitude,0,1511151477490238976.000000,0.000000,-0.000004,-0.000000,0.000000,0.003719,0.003426,-0.000723,0.000000,0.000000,0.781039,-0.065648,0.026308,-0.036010,0,0,0,0,-0.008699,0.002732,0.014839,0.000000,0.000000,0.000000
highres_imu,0,1511151477493481216.000000,0.000000,-0.000004,-0.000000,0.000000,0.004676,0.003961,0.000235,0.000000,0.000000,0.781039,-0.065648,0.026308,-0.036010,0,0,0,0,-0.008699,0.002732,0.014839,0.000000,0.000000,0.000000
attitude,0,1511151477496504064.000000,0.000000,-0.000004,-0.000000,0.000000,0.004676,0.003961,0.000235,0.000000,0.000000,0.781039,-0.065651,0.026317,-0.036005,0,0,0,0,-0.008699,0.002732,0.014839,0.000000,0.000000,0.000000
highres_imu,0,1511151477500921088.000000,0.000000,-0.000004,-0.000000,0.000000,0.003719,0.003438,-0.001353,0.000000,0.000000,0.781039,-0.065651,0.026317,-0.036005,0,0,0,0,-0.008699,0.002732,0.014839,0.000000,0.000000,0.000000
highres_imu,0,1511151477503783424.000000,0.000000,-0.000004,-0.000000,0.000000,0.003826,0.003216,-0.001573,0.000000,0.000000,0.781039,-0.065651,0.026317,-0.036005,0,0,0,0,-0.008699,0.002732,0.014839,0.000000,0.000000,0.000000
attitude,0,1511151477505307904.000000,0.000000,-0.000004,-0.000000,0.000000,0.003826,0.003216,-0.001573,0.000000,0.000000,0.781039,-0.065658,0.026318,-0.036010,0,0,0,0,-0.008699,0.002732,0.014839,0.000000,0.000000,0.000000
highres_imu,0,1511151477509657600.000000,0.000000,-0.000004,-0.000000,0.000000,0.003829,0.002790,-0.001262,0.000000,0.000000,0.781039,-0.065658,0.026318,-0.036010,0,0,0,0,-0.008699,0.002732,0.014839,0.000000,0.000000,0.000000
highres_imu,0,1511151477512530688.000000,0.000000,-0.000004,-0.000000,0.000000,0.002448,0.002997,-0.002206,0.000000,0.000000,0.781039,-0.065658,0.026318,-0.036010,0,0,0,0,-0.008699,0.002732,0.014839,0.000000,0.000000,0.000000
highres_imu,0,1511151477516962048.000000,0.000000,-0.000004,-0.000000,0.000000,0.003820,0.003961,0.000019,0.000000,0.000000,0.781039,-0.065658,0.026318,-0.036010,0,0,0,0,-0.008699,0.002732,0.014839,0.000000,0.000000,0.000000
attitude,0,1511151477518654976.000000,0.000000,-0.000004,-0.000000,0.000000,0.003820,0.003961,0.000019,0.000000,0.000000,0.781039,-0.065670,0.026324,-0.036012,0,0,0,0,-0.008699,0.002732,0.014839,0.000000,0.000000,0.000000
highres_imu,0,1511151477523188992.000000,0.000000,-0.000004,-0.000000,0.000000,0.004677,0.003642,-0.001888,0.000000,0.000000,0.781039,-0.065670,0.026324,-0.036012,0,0,0,0,-0.008699,0.002732,0.014839,0.000000,0.000000,0.000000
highres_imu,0,1511151477527561728.000000,0.000000,-0.000004,-0.000000,0.000000,0.004892,0.002788,-0.001897,0.000000,0.000000,0.781039,-0.065670,0.026324,-0.036012,0,0,0,0,-0.008699,0.002732,0.014839,0.000000,0.000000,0.000000
attitude,0,1511151477529061888.000000,0.000000,-0.000004,-0.000000,0.000000,0.004892,0.002788,-0.001897,0.000000,0.000000,0.781039,-0.065670,0.026328,-0.036023,0,0,0,0,-0.008699,0.002732,0.014839,0.000000,0.000000,0.000000
highres_imu,0,1511151477532039680.000000,0.000000,-0.000004,-0.000000,0.000000,0.005847,0.002363,-0.002321,0.000000,0.000000,0.781039,-0.065670,0.026328,-0.036023,0,0,0,0,-0.008699,0.002732,0.014839,0.000000,0.000000,0.000000
highres_imu,0,1511151477536401152.000000,0.000000,-0.000004,-0.000000,0.000000,0.004165,0.002897,-0.001464,0.000000,0.000000,0.781039,-0.065670,0.026328,-0.036023,0,0,0,0,-0.008699,0.002732,0.014839,0.000000,0.000000,0.000000
attitude,0,1511151477537747712.000000,0.000000,-0.000004,-0.000000,0.000000,0.004165,0.002897,-0.001464,0.000000,0.000000,0.781039,-0.065665,0.026326,-0.036030,0,0,0,0,-0.008699,0.002732,0.014839,0.000000,0.000000,0.000000
highres_imu,0,1511151477543541760.000000,0.000000,-0.000004,-0.000000,0.000000,0.005206,0.003642,-0.001042,0.000000,0.000000,0.781039,-0.065665,0.026326,-0.036030,0,0,0,0,-0.008699,0.002732,0.014839,0.000000,0.000000,0.000000
attitude,0,1511151477546321920.000000,0.000000,-0.000004,-0.000000,0.000000,0.005206,0.003642,-0.001042,0.000000,0.000000,0.781039,-0.065667,0.026331,-0.036032,0,0,0,0,-0.008699,0.002732,0.014839,0.000000,0.000000,0.000000
highres_imu,0,1511151477548890112.000000,0.000000,-0.000004,-0.000000,0.000000,0.003719,0.003110,-0.001787,0.000000,0.000000,0.781039,-0.065667,0.026331,-0.036032,0,0,0,0,-0.008699,0.002732,0.014839,0.000000,0.000000,0.000000
attitude,0,1511151477551634176.000000,0.000000,-0.000004,-0.000000,0.000000,0.003719,0.003110,-0.001787,0.000000,0.000000,0.781039,-0.065669,0.026332,-0.036038,0,0,0,0,-0.008699,0.002732,0.014839,0.000000,0.000000,0.000000
highres_imu,0,1511151477558849024.000000,0.000000,-0.000004,-0.000000,0.000000,0.004464,0.002577,-0.001680,0.000000,0.000000,0.781039,-0.065669,0.026332,-0.036038,0,0,0,0,-0.008699,0.002732,0.014839,0.000000,0.000000,0.000000
local_position_ned,0,1511151477561295872.000000,0.000000,-0.000004,-0.000000,0.000000,0.004464,0.002577,-0.001680,0.000000,0.000000,0.782142,-0.065669,0.026332,-0.036038,0,0,0,0,-0.008719,0.002196,0.014205,0.000000,0.000000,0.000000
highres_imu,1,1511151477569466368.000000,0.000000,-0.000004,-0.000000,0.000000,0.003400,0.003751,-0.000723,0.000000,0.000000,0.782142,-0.065669,0.026332,-0.036038,0,0,0,0,-0.008719,0.002196,0.014205,0.000000,0.000000,0.000000
attitude,1,1511151477571014912.000000,0.000000,-0.000004,-0.000000,0.000000,0.003400,0.003751,-0.000723,0.000000,0.000000,0.782142,-0.065669,0.026336,-0.036037,0,0,0,0,-0.008719,0.002196,0.014205,0.000000,0.000000,0.000000
highres_imu,1,1511151477575308032.000000,0.000000,-0.000004,-0.000000,0.000000,0.005201,0.002897,-0.001675,0.000000,0.000000,0.782142,-0.065669,0.026336,-0.036037,0,0,0,0,-0.008719,0.002196,0.014205,0.000000,0.000000,0.000000
attitude,1,1511151477576725248.000000,0.000000,-0.000004,-0.000000,0.000000,0.005201,0.002897,-0.001675,0.000000,0.000000,0.782142,-0.065667,0.026336,-0.036039,0,0,0,0,-0.008719,0.002196,0.014205,0.000000,0.000000,0.000000
highres_imu,1,1511151477579736320.000000,0.000000,-0.000004,-0.000000,0.000000,0.004578,0.002897,-0.001258,0.000000,0.000000,0.782142,-0.065667,0.026336,-0.036039,0,0,0,0,-0.008719,0.002196,0.014205,0.000000,0.000000,0.000000
attitude,1,1511151477582694400.000000,0.000000,-0.000004,-0.000000,0.000000,0.004578,0.002897,-0.001258,0.000000,0.000000,0.782142,-0.065667,0.026336,-0.036044,0,0,0,0,-0.008719,0.002196,0.014205,0.000000,0.000000,0.000000
highres_imu,1,1511151477586817280.000000,0.000000,-0.000004,-0.000000,0.000000,0.004570,0.002578,-0.002638,0.000000,0.000000,0.782142,-0.065667,0.026336,-0.036044,0,0,0,0,-0.008719,0.002196,0.014205,0.000000,0.000000,0.000000
highres_imu,1,1511151477591267072.000000,0.000000,-0.000004,-0.000000,0.000000,0.005418,0.001833,-0.001468,0.000000,0.000000,0.782142,-0.065667,0.026336,-0.036044,0,0,0,0,-0.008719,0.002196,0.014205,0.000000,0.000000,0.000000
attitude,1,1511151477592599040.000000,0.000000,-0.000004,-0.000000,0.000000,0.005418,0.001833,-0.001468,0.000000,0.000000,0.782142,-0.065662,0.026329,-0.036057,0,0,0,0,-0.008719,0.002196,0.014205,0.000000,0.000000,0.000000
highres_imu,1,1511151477595317760.000000,0.000000,-0.000004,-0.000000,0.000000,0.003614,0.001833,-0.001575,0.000000,0.000000,0.782142,-0.065662,0.026329,-0.036057,0,0,0,0,-0.008719,0.002196,0.014205,0.000000,0.000000,0.000000
attitude,1,1511151477598014720.000000,0.000000,-0.000004,-0.000000,0.000000,0.003614,0.001833,-0.001575,0.000000,0.000000,0.782142,-0.065665,0.026325,-0.036059,0,0,0,0,-0.008719,0.002196,0.014205,0.000000,0.000000,0.000000
highres_imu,1,1511151477602129920.000000,0.000000,-0.000004,-0.000000,0.000000,0.003075,0.001833,0.000017,0.000000,0.000000,0.782142,-0.065665,0.026325,-0.036059,0,0,0,0,-0.008719,0.002196,0.014205,0.000000,0.000000,0.000000
highres_imu,1,1511151477604931072.000000,0.000000,-0.000004,-0.000000,0.000000,0.004253,0.002689,-0.002317,0.000000,0.000000,0.782142,-0.065665,0.026325,-0.036059,0,0,0,0,-0.008719,0.002196,0.014205,0.000000,0.000000,0.000000
attitude,1,1511151477606249728.000000,0.000000,-0.000004,-0.000000,0.000000,0.004253,0.002689,-0.002317,0.000000,0.000000,0.782142,-0.065668,0.026319,-0.036062,0,0,0,0,-0.008719,0.002196,0.014205,0.000000,0.000000,0.000000
highres_imu,1,1511151477610262784.000000,0.000000,-0.000004,-0.000000,0.000000,0.005943,0.002370,-0.000936,0.000000,0.000000,0.782142,-0.065668,0.026319,-0.036062,0,0,0,0,-0.008719,0.002196,0.014205,0.000000,0.000000,0.000000
attitude,1,1511151477611665920.000000,0.000000,-0.000004,-0.000000,0.000000,0.005943,0.002370,-0.000936,0.000000,0.000000,0.782142,-0.065667,0.026318,-0.036066,0,0,0,0,-0.008719,0.002196,0.014205,0.000000,0.000000,0.000000
highres_imu,1,1511151477617265920.000000,0.000000,-0.000004,-0.000000,0.000000,0.005217,0.002897,-0.002106,0.000000,0.000000,0.782142,-0.065667,0.026318,-0.036066,0,0,0,0,-0.008719,0.002196,0.014205,0.000000,0.000000,0.000000
highres_imu,1,1511151477619912448.000000,0.000000,-0.000004,-0.000000,0.000000,0.003826,0.002684,-0.001047,0.000000,0.000000,0.782142,-0.065667,0.026318,-0.036066,0,0,0,0,-0.008719,0.002196,0.014205,0.000000,0.000000,0.000000
highres_imu,1,1511151477624060672.000000,0.000000,-0.000004,-0.000000,0.000000,0.004996,0.002790,-0.001148,0.000000,0.000000,0.782142,-0.065667,0.026318,-0.036066,0,0,0,0,-0.008719,0.002196,0.014205,0.000000,0.000000,0.000000
attitude,1,1511151477625554176.000000,0.000000,-0.000004,-0.000000,0.000000,0.004996,0.002790,-0.001148,0.000000,0.000000,0.782142,-0.065662,0.026314,-0.036070,0,0,0,0,-0.008719,0.002196,0.014205,0.000000,0.000000,0.000000
attitude,1,1511151477627071744.000000,0.000000,-0.000004,-0.000000,0.000000,0.004996,0.002790,-0.001148,0.000000,0.000000,0.782142,-0.065667,0.026314,-0.036074,0,0,0,0,-0.008719,0.002196,0.014205,0.000000,0.000000,0.000000
highres_imu,1,1511151477635805184.000000,0.000000,-0.000004,-0.000000,0.000000,0.004348,0.002897,-0.000302,0.000000,0.000000,0.782142,-0.065667,0.026314,-0.036074,0,0,0,0,-0.008719,0.002196,0.014205,0.000000,0.000000,0.000000
local_position_ned,1,1511151477638247424.000000,0.000000,-0.000004,-0.000000,0.000000,0.004348,0.002897,-0.000302,0.000000,0.000000,0.782129,-0.065667,0.026314,-0.036074,0,0,0,0,-0.008909,0.002346,0.014900,0.000000,0.000000,0.000000
highres_imu,1,1511151477641399040.000000,0.000000,-0.000004,-0.000000,0.000000,0.005313,0.002470,-0.001679,0.000000,0.000000,0.782129,-0.065667,0.026314,-0.036074,0,0,0,0,-0.008909,0.002346,0.014900,0.000000,0.000000,0.000000
highres_imu,1,1511151477654920192.000000,0.000000,-0.000004,-0.000000,0.000000,0.005533,0.003961,-0.001472,0.000000,0.000000,0.782129,-0.065667,0.026314,-0.036074,0,0,0,0,-0.008909,0.002346,0.014900,0.000000,0.000000,0.000000
attitude,1,1511151477657632512.000000,0.000000,-0.000004,-0.000000,0.000000,0.005533,0.003961,-0.001472,0.000000,0.000000,0.782129,-0.065667,0.026325,-0.036081,0,0,0,0,-0.008909,0.002346,0.014900,0.000000,0.000000,0.000000
highres_imu,1,1511151477661805824.000000,0.000000,-0.000004,-0.000000,0.000000,0.003825,0.003003,-0.001467,0.000000,0.000000,0.782129,-0.065667,0.026325,-0.036081,0,0,0,0,-0.008909,0.002346,0.014900,0.000000,0.000000,0.000000
highres_imu,2,1511151477664378624.000000,0.000000,-0.000004,-0.000000,0.000000,0.006261,0.002689,-0.000516,0.000000,0.000000,0.782129,-0.065667,0.026325,-0.036081,0,0,0,0,-0.008909,0.002346,0.014900,0.000000,0.000000,0.000000
attitude,2,1511151477665709312.000000,0.000000,-0.000004,-0.000000,0.000000,0.006261,0.002689,-0.000516,0.000000,0.000000,0.782129,-0.065662,0.026329,-0.036084,0,0,0,0,-0.008909,0.002346,0.014900,0.000000,0.000000,0.000000
highres_imu,2,1511151477677032448.000000,0.000000,-0.000004,-0.000000,0.000000,0.005526,0.001942,-0.000942,0.000000,0.000000,0.782129,-0.065662,0.026329,-0.036084,0,0,0,0,-0.008909,0.002346,0.014900,0.000000,0.000000,0.000000
highres_imu,2,1511151477679972096.000000,0.000000,-0.000004,-0.000000,0.000000,0.004151,0.002469,-0.002741,0.000000,0.000000,0.782129,-0.065662,0.026329,-0.036084,0,0,0,0,-0.008909,0.002346,0.014900,0.000000,0.000000,0.000000
highres_imu,2,1511151477684610560.000000,0.000000,-0.000004,-0.000000,0.000000,0.004032,0.003008,-0.000723,0.000000,0.000000,0.782129,-0.065662,0.026329,-0.036084,0,0,0,0,-0.008909,0.002346,0.014900,0.000000,0.000000,0.000000
attitude,2,1511151477685996800.000000,0.000000,-0.000004,-0.000000,0.000000,0.004032,0.003008,-0.000723,0.000000,0.000000,0.782129,-0.065668,0.026319,-0.036098,0,0,0,0,-0.008909,0.002346,0.014900,0.000000,0.000000,0.000000
highres_imu,2,1511151477688717056.000000,0.000000,-0.000004,-0.000000,0.000000,0.004677,0.001946,-0.001147,0.000000,0.000000,0.782129,-0.065668,0.026319,-0.036098,0,0,0,0,-0.008909,0.002346,0.014900,0.000000,0.000000,0.000000
attitude,2,1511151477690281216.000000,0.000000,-0.000004,-0.000000,0.000000,0.004677,0.001946,-0.001147,0.000000,0.000000,0.782129,-0.065667,0.026315,-0.036099,0,0,0,0,-0.008909,0.002346,0.014900,0.000000,0.000000,0.000000
highres_imu,2,1511151477695849984.000000,0.000000,-0.000004,-0.000000,0.000000,0.004145,0.002897,0.000232,0.000000,0.000000,0.782129,-0.065667,0.026315,-0.036099,0,0,0,0,-0.008909,0.002346,0.014900,0.000000,0.000000,0.000000
highres_imu,2,1511151477700019712.000000,0.000000,-0.000004,-0.000000,0.000000,0.005107,0.002897,-0.000506,0.000000,0.000000,0.782129,-0.065667,0.026315,-0.036099,0,0,0,0,-0.008909,0.002346,0.014900,0.000000,0.000000,0.000000
attitude,2,1511151477701341184.000000,0.000000,-0.000004,-0.000000,0.000000,0.005107,0.002897,-0.000506,0.000000,0.000000,0.782129,-0.065670,0.026315,-0.036093,0,0,0,0,-0.008909,0.002346,0.014900,0.000000,0.000000,0.000000
highres_imu,2,1511151477704103680.000000,0.000000,-0.000004,-0.000000,0.000000,0.004452,0.002474,-0.001681,0.000000,0.000000,0.782129,-0.065670,0.026315,-0.036093,0,0,0,0,-0.008909,0.002346,0.014900,0.000000,0.000000,0.000000
attitude,2,1511151477706846464.000000,0.000000,-0.000004,-0.000000,0.000000,0.004452,0.002474,-0.001681,0.000000,0.000000,0.782129,-0.065672,0.026314,-0.036099,0,0,0,0,-0.008909,0.002346,0.014900,0.000000,0.000000,0.000000
highres_imu,2,1511151477710963456.000000,0.000000,-0.000004,-0.000000,0.000000,0.006801,0.001833,-0.001676,0.000000,0.000000,0.782129,-0.065672,0.026314,-0.036099,0,0,0,0,-0.008909,0.002346,0.014900,0.000000,0.000000,0.000000
highres_imu,2,1511151477713463296.000000,0.000000,-0.000004,-0.000000,0.000000,0.004791,0.002573,-0.002107,0.000000,0.000000,0.782129,-0.065672,0.026314,-0.036099,0,0,0,0,-0.008909,0.002346,0.014900,0.000000,0.000000,0.000000
attitude,2,1511151477716300032.000000,0.000000,-0.000004,-0.000000,0.000000,0.004791,0.002573,-0.002107,0.000000,0.000000,0.782129,-0.065661,0.026309,-0.036108,0,0,0,0,-0.008909,0.002346,0.014900,0.000000,0.000000,0.000000
highres_imu,2,1511151477718811136.000000,0.000000,-0.000004,-0.000000,0.000000,0.005734,0.002897,-0.001787,0.000000,0.000000,0.782129,-0.065661,0.026309,-0.036108,0,0,0,0,-0.008909,0.002346,0.014900,0.000000,0.000000,0.000000
attitude,2,1511151477720342272.000000,0.000000,-0.000004,-0.000000,0.000000,0.005734,0.002897,-0.001787,0.000000,0.000000,0.782129,-0.065656,0.026309,-0.036113,0,0,0,0,-0.008909,0.002346,0.014900,0.000000,0.000000,0.000000
highres_imu,2,1511151477728931328.000000,0.000000,-0.000004,-0.000000,0.000000,0.004361,0.003327,-0.000399,0.000000,0.000000,0.782129,-0.065656,0.026309,-0.036113,0,0,0,0,-0.008909,0.002346,0.014900,0.000000,0.000000,0.000000
local_position_ned,2,1511151477731276800.000000,0.000000,-0.000004,-0.000000,0.000000,0.004361,0.003327,-0.000399,0.000000,0.000000,0.782850,-0.065656,0.026309,-0.036113,0,0,0,0,-0.009642,0.001870,0.014204,0.000000,0.000000,0.000000
highres_imu,2,1511151477746934784.000000,0.000000,-0.000004,-0.000000,0.000000,0.004350,0.003529,-0.000510,0.000000,0.000000,0.782850,-0.065656,0.026309,-0.036113,0,0,0,0,-0.009642,0.001870,0.014204,0.000000,0.000000,0.000000
highres_imu,2,1511151477758360320.000000,0.000000,-0.000004,-0.000000,0.000000,0.004147,0.002576,-0.001466,0.000000,0.000000,0.782850,-0.065656,0.026309,-0.036113,0,0,0,0,-0.009642,0.001870,0.014204,0.000000,0.000000,0.000000
highres_imu,2,1511151477762498304.000000,0.000000,-0.000004,-0.000000,0.000000,0.003508,0.001939,-0.002534,0.000000,0.000000,0.782850,-0.065656,0.026309,-0.036113,0,0,0,0,-0.009642,0.001870,0.014204,0.000000,0.000000,0.000000
highres_imu,3,1511151477766632960.000000,0.000000,-0.000004,-0.000000,0.000000,0.006485,0.002897,-0.001155,0.000000,0.000000,0.782850,-0.065656,0.026309,-0.036113,0,0,0,0,-0.009642,0.001870,0.014204,0.000000,0.000000,0.000000
attitude,3,1511151477767953152.000000,0.000000,-0.000004,-0.000000,0.000000,0.006485,0.002897,-0.001155,0.000000,0.000000,0.782850,-0.065653,0.026312,-0.036111,0,0,0,0,-0.009642,0.001870,0.014204,0.000000,0.000000,0.000000
highres_imu,3,1511151477770622208.000000,0.000000,-0.000004,-0.000000,0.000000,0.003829,0.003638,-0.000723,0.000000,0.000000,0.782850,-0.065653,0.026312,-0.036111,0,0,0,0,-0.009642,0.001870,0.014204,0.000000,0.000000,0.000000
attitude,3,1511151477773637120.000000,0.000000,-0.000004,-0.000000,0.000000,0.003829,0.003638,-0.000723,0.000000,0.000000,0.782850,-0.065655,0.026316,-0.036109,0,0,0,0,-0.009642,0.001870,0.014204,0.000000,0.000000,0.000000
highres_imu,3,1511151477777870848.000000,0.000000,-0.000004,-0.000000,0.000000,0.004033,0.004706,-0.000723,0.000000,0.000000,0.782850,-0.065655,0.026316,-0.036109,0,0,0,0,-0.009642,0.001870,0.014204,0.000000,0.000000,0.000000
highres_imu,3,1511151477780822272.000000,0.000000,-0.000004,-0.000000,0.000000,0.003825,0.002263,-0.001475,0.000000,0.000000,0.782850,-0.065655,0.026316,-0.036109,0,0,0,0,-0.009642,0.001870,0.014204,0.000000,0.000000,0.000000
attitude,3,1511151477782360832.000000,0.000000,-0.000004,-0.000000,0.000000,0.003825,0.002263,-0.001475,0.000000,0.000000,0.782850,-0.065657,0.026322,-0.036110,0,0,0,0,-0.009642,0.001870,0.014204,0.000000,0.000000,0.000000
highres_imu,3,1511151477786702080.000000,0.000000,-0.000004,-0.000000,0.000000,0.005313,0.002473,-0.000723,0.000000,0.000000,0.782850,-0.065657,0.026322,-0.036110,0,0,0,0,-0.009642,0.001870,0.014204,0.000000,0.000000,0.000000
attitude,3,1511151477788038144.000000,0.000000,-0.000004,-0.000000,0.000000,0.005313,0.002473,-0.000723,0.000000,0.000000,0.782850,-0.065655,0.026317,-0.036106,0,0,0,0,-0.009642,0.001870,0.014204,0.000000,0.000000,0.000000
highres_imu,3,1511151477794247936.000000,0.000000,-0.000004,-0.000000,0.000000,0.003195,0.002786,-0.000723,0.000000,0.000000,0.782850,-0.065655,0.026317,-0.036106,0,0,0,0,-0.009642,0.001870,0.014204,0.000000,0.000000,0.000000
highres_imu,3,1511151477796767488.000000,0.000000,-0.000004,-0.000000,0.000000,0.002969,0.002582,-0.000621,0.000000,0.000000,0.782850,-0.065655,0.026317,-0.036106,0,0,0,0,-0.009642,0.001870,0.014204,0.000000,0.000000,0.000000
highres_imu,3,1511151477800915968.000000,0.000000,-0.000004,-0.000000,0.000000,0.005102,0.002897,-0.000723,0.000000,0.000000,0.782850,-0.065655,0.026317,-0.036106,0,0,0,0,-0.009642,0.001870,0.014204,0.000000,0.000000,0.000000
attitude,3,1511151477802331648.000000,0.000000,-0.000004,-0.000000,0.000000,0.005102,0.002897,-0.000723,0.000000,0.000000,0.782850,-0.065658,0.026316,-0.036096,0,0,0,0,-0.009642,0.001870,0.014204,0.000000,0.000000,0.000000
attitude,3,1511151477803667712.000000,0.000000,-0.000004,-0.000000,0.000000,0.005102,0.002897,-0.000723,0.000000,0.000000,0.782850,-0.065660,0.026317,-0.036091,0,0,0,0,-0.009642,0.001870,0.014204,0.000000,0.000000,0.000000
highres_imu,3,1511151477809549312.000000,0.000000,-0.000004,-0.000000,0.000000,0.004680,0.002897,0.000025,0.000000,0.000000,0.782850,-0.065660,0.026317,-0.036091,0,0,0,0,-0.009642,0.001870,0.014204,0.000000,0.000000,0.000000
highres_imu,3,1511151477812244736.000000,0.000000,-0.000004,-0.000000,0.000000,0.003719,0.002897,-0.000723,0.000000,0.000000,0.782850,-0.065660,0.026317,-0.036091,0,0,0,0,-0.009642,0.001870,0.014204,0.000000,0.000000,0.000000
attitude,3,1511151477813803776.000000,0.000000,-0.000004,-0.000000,0.000000,0.003719,0.002897,-0.000723,0.000000,0.000000,0.782850,-0.065660,0.026322,-0.036077,0,0,0,0,-0.009642,0.001870,0.014204,0.000000,0.000000,0.000000
highres_imu,3,1511151477818139648.000000,0.000000,-0.000004,-0.000000,0.000000,0.005103,0.002897,-0.000828,0.000000,0.000000,0.782850,-0.065660,0.026322,-0.036077,0,0,0,0,-0.009642,0.001870,0.014204,0.000000,0.000000,0.000000
highres_imu,3,1511151477827072256.000000,0.000000,-0.000004,-0.000000,0.000000,0.002987,0.002897,-0.001787,0.000000,0.000000,0.782850,-0.065660,0.026322,-0.036077,0,0,0,0,-0.009642,0.001870,0.014204,0.000000,0.000000,0.000000
attitude,3,1511151477829623296.000000,0.000000,-0.000004,-0.000000,0.000000,0.002987,0.002897,-0.001787,0.000000,0.000000,0.782850,-0.065662,0.026323,-0.036070,0,0,0,0,-0.009642,0.001870,0.014204,0.000000,0.000000,0.000000
attitude,4,1511151477954684672.000000,0.000000,-0.000004,-0.000000,0.000000,0.002987,0.002897,-0.001787,0.000000,0.000000,0.782850,-0.065668,0.026319,-0.036052,0,0,0,0,-0.009642,0.001870,0.014204,0.000000,0.000000,0.000000
highres_imu,4,1511151477959289344.000000,0.000000,-0.000004,-0.000000,0.000000,0.005422,0.002370,-0.002532,0.000000,0.000000,0.782850,-0.065668,0.026319,-0.036052,0,0,0,0,-0.009642,0.001870,0.014204,0.000000,0.000000,0.000000
attitude,4,1511151477962442240.000000,0.000000,-0.000004,-0.000000,0.000000,0.005422,0.002370,-0.002532,0.000000,0.000000,0.782850,-0.065670,0.026317,-0.036054,0,0,0,0,-0.009642,0.001870,0.014204,0.000000,0.000000,0.000000
highres_imu,5,1511151477965249792.000000,0.000000,-0.000004,-0.000000,0.000000,0.005304,0.001944,-0.001462,0.000000,0.000000,0.782850,-0.065670,0.026317,-0.036054,0,0,0,0,-0.009642,0.001870,0.014204,0.000000,0.000000,0.000000
highres_imu,5,1511151477968077568.000000,0.000000,-0.000004,-0.000000,0.000000,0.005743,0.001937,-0.002747,0.000000,0.000000,0.782850,-0.065670,0.026317,-0.036054,0,0,0,0,-0.009642,0.001870,0.014204,0.000000,0.000000,0.000000
attitude,5,1511151477969649408.000000,0.000000,-0.000004,-0.000000,0.000000,0.005743,0.001937,-0.002747,0.000000,0.000000,0.782850,-0.065661,0.026310,-0.036059,0,0,0,0,-0.009642,0.001870,0.014204,0.000000,0.000000,0.000000
highres_imu,5,1511151477975955456.000000,0.000000,-0.000004,-0.000000,0.000000,0.004460,0.003431,-0.001574,0.000000,0.000000,0.782850,-0.065661,0.026310,-0.036059,0,0,0,0,-0.009642,0.001870,0.014204,0.000000,0.000000,0.000000
highres_imu,5,1511151477978858496.000000,0.000000,-0.000004,-0.000000,0.000000,0.004467,0.002580,-0.001787,0.000000,0.000000,0.782850,-0.065661,0.026310,-0.036059,0,0,0,0,-0.009642,0.001870,0.014204,0.000000,0.000000,0.000000
attitude,5,1511151477980615168.000000,0.000000,-0.000004,-0.000000,0.000000,0.004467,0.002580,-0.001787,0.000000,0.000000,0.782850,-0.065662,0.026313,-0.036062,0,0,0,0,-0.009642,0.001870,0.014204,0.000000,0.000000,0.000000
highres_imu,5,1511151477985100800.000000,0.000000,-0.000004,-0.000000,0.000000,0.004251,0.003211,-0.001787,0.000000,0.000000,0.782850,-0.065662,0.026313,-0.036062,0,0,0,0,-0.009642,0.001870,0.014204,0.000000,0.000000,0.000000
highres_imu,5,1511151477989609216.000000,0.000000,-0.000004,-0.000000,0.000000,0.005209,0.003642,-0.002319,0.000000,0.000000,0.782850,-0.065662,0.026313,-0.036062,0,0,0,0,-0.009642,0.001870,0.014204,0.000000,0.000000,0.000000
attitude,5,1511151477991069184.000000,0.000000,-0.000004,-0.000000,0.000000,0.005209,0.003642,-0.002319,0.000000,0.000000,0.782850,-0.065664,0.026314,-0.036067,0,0,0,0,-0.009642,0.001870,0.014204,0.000000,0.000000,0.000000
highres_imu,5,1511151478000138240.000000,0.000000,-0.000004,-0.000000,0.000000,0.005745,0.002051,-0.000941,0.000000,0.000000,0.782850,-0.065664,0.026314,-0.036067,0,0,0,0,-0.009642,0.001870,0.014204,0.000000,0.000000,0.000000
highres_imu,5,1511151478002869504.000000,0.000000,-0.000004,-0.000000,0.000000,0.002873,0.003860,-0.001031,0.000000,0.000000,0.782850,-0.065664,0.026314,-0.036067,0,0,0,0,-0.009642,0.001870,0.014204,0.000000,0.000000,0.000000
attitude,5,1511151478004578304.000000,0.000000,-0.000004,-0.000000,0.000000,0.002873,0.003860,-0.001031,0.000000,0.000000,0.782850,-0.065675,0.026282,-0.036050,0,0,0,0,-0.009642,0.001870,0.014204,0.000000,0.000000,0.000000
highres_imu,5,1511151478018311424.000000,0.000000,-0.000004,-0.000000,0.000000,0.005433,0.003416,-0.000942,0.000000,0.000000,0.782850,-0.065675,0.026282,-0.036050,0,0,0,0,-0.009642,0.001870,0.014204,0.000000,0.000000,0.000000
highres_imu,5,1511151478021035520.000000,0.000000,-0.000004,-0.000000,0.000000,0.005303,0.002897,-0.001787,0.000000,0.000000,0.782850,-0.065675,0.026282,-0.036050,0,0,0,0,-0.009642,0.001870,0.014204,0.000000,0.000000,0.000000
highres_imu,5,1511151478025417984.000000,0.000000,-0.000004,-0.000000,0.000000,0.003822,0.002897,-0.001034,0.000000,0.000000,0.782850,-0.065675,0.026282,-0.036050,0,0,0,0,-0.009642,0.001870,0.014204,0.000000,0.000000,0.000000
attitude,5,1511151478026745600.000000,0.000000,-0.000004,-0.000000,0.000000,0.003822,0.002897,-0.001034,0.000000,0.000000,0.782850,-0.065670,0.026284,-0.036041,0,0,0,0,-0.009642,0.001870,0.014204,0.000000,0.000000,0.000000
highres_imu,5,1511151478030994432.000000,0.000000,-0.000004,-0.000000,0.000000,0.005630,0.002897,-0.000613,0.000000,0.000000,0.782850,-0.065670,0.026284,-0.036041,0,0,0,0,-0.009642,0.001870,0.014204,0.000000,0.000000,0.000000
highres_imu,5,1511151478037764608.000000,0.000000,-0.000004,-0.000000,0.000000,0.004783,0.002897,-0.000090,0.000000,0.000000,0.782850,-0.065670,0.026284,-0.036041,0,0,0,0,-0.009642,0.001870,0.014204,0.000000,0.000000,0.000000
highres_imu,5,1511151478040481024.000000,0.000000,-0.000004,-0.000000,0.000000,0.004570,0.003430,0.000446,0.000000,0.000000,0.782850,-0.065670,0.026284,-0.036041,0,0,0,0,-0.009642,0.001870,0.014204,0.000000,0.000000,0.000000
highres_imu,5,1511151478047873024.000000,0.000000,-0.000004,-0.000000,0.000000,0.005741,0.003961,-0.001252,0.000000,0.000000,0.782850,-0.065670,0.026284,-0.036041,0,0,0,0,-0.009642,0.001870,0.014204,0.000000,0.000000,0.000000
attitude,5,1511151478049583104.000000,0.000000,-0.000004,-0.000000,0.000000,0.005741,0.003961,-0.001252,0.000000,0.000000,0.782850,-0.065650,0.026293,-0.036006,0,0,0,0,-0.009642,0.001870,0.014204,0.000000,0.000000,0.000000
highres_imu,5,1511151478061149952.000000,0.000000,-0.000004,-0.000000,0.000000,0.005737,0.003226,-0.000723,0.000000,0.000000,0.782850,-0.065650,0.026293,-0.036006,0,0,0,0,-0.009642,0.001870,0.014204,0.000000,0.000000,0.000000
highres_imu,6,1511151478067914240.000000,0.000000,-0.000004,-0.000000,0.000000,0.003184,0.002897,-0.001151,0.000000,0.000000,0.782850,-0.065650,0.026293,-0.036006,0,0,0,0,-0.009642,0.001870,0.014204,0.000000,0.000000,0.000000
highres_imu,6,1511151478070787584.000000,0.000000,-0.000004,-0.000000,0.000000,0.004783,0.002897,-0.001574,0.000000,0.000000,0.782850,-0.065650,0.026293,-0.036006,0,0,0,0,-0.009642,0.001870,0.014204,0.000000,0.000000,0.000000
attitude,6,1511151478072102912.000000,0.000000,-0.000004,-0.000000,0.000000,0.004783,0.002897,-0.001574,0.000000,0.000000,0.782850,-0.065658,0.026304,-0.035986,0,0,0,0,-0.009642,0.001870,0.014204,0.000000,0.000000,0.000000
highres_imu,6,1511151478076411904.000000,0.000000,-0.000004,-0.000000,0.000000,0.002655,0.003961,-0.001030,0.000000,0.000000,0.782850,-0.065658,0.026304,-0.035986,0,0,0,0,-0.009642,0.001870,0.014204,0.000000,0.000000,0.000000
highres_imu,6,1511151478079178240.000000,0.000000,-0.000004,-0.000000,0.000000,0.004372,0.003207,-0.000622,0.000000,0.000000,0.782850,-0.065658,0.026304,-0.035986,0,0,0,0,-0.009642,0.001870,0.014204,0.000000,0.000000,0.000000
highres_imu,6,1511151478083616000.000000,0.000000,-0.000004,-0.000000,0.000000,0.002645,0.003330,-0.002220,0.000000,0.000000,0.782850,-0.065658,0.026304,-0.035986,0,0,0,0,-0.009642,0.001870,0.014204,0.000000,0.000000,0.000000
attitude,6,1511151478085195776.000000,0.000000,-0.000004,-0.000000,0.000000,0.002645,0.003330,-0.002220,0.000000,0.000000,0.782850,-0.065672,0.026312,-0.035974,0,0,0,0,-0.009642,0.001870,0.014204,0.000000,0.000000,0.000000
highres_imu,6,1511151478089267968.000000,0.000000,-0.000004,-0.000000,0.000000,0.001936,0.003522,-0.001980,0.000000,0.000000,0.782850,-0.065672,0.026312,-0.035974,0,0,0,0,-0.009642,0.001870,0.014204,0.000000,0.000000,0.000000
attitude,6,1511151478090603776.000000,0.000000,-0.000004,-0.000000,0.000000,0.001936,0.003522,-0.001980,0.000000,0.000000,0.782850,-0.065677,0.026313,-0.035966,0,0,0,0,-0.009642,0.001870,0.014204,0.000000,0.000000,0.000000
attitude,6,1511151478102636800.000000,0.000000,-0.000004,-0.000000,0.000000,0.001936,0.003522,-0.001980,0.000000,0.000000,0.782850,-0.065673,0.026310,-0.035931,0,0,0,0,-0.009642,0.001870,0.014204,0.000000,0.000000,0.000000
highres_imu,6,1511151478106763520.000000,0.000000,-0.000004,-0.000000,0.000000,0.005434,0.003214,0.000031,0.000000,0.000000,0.782850,-0.065673,0.026310,-0.035931,0,0,0,0,-0.009642,0.001870,0.014204,0.000000,0.000000,0.000000
highres_imu,6,1511151478109638400.000000,0.000000,-0.000004,-0.000000,0.000000,0.006699,0.001933,-0.001061,0.000000,0.000000,0.782850,-0.065673,0.026310,-0.035931,0,0,0,0,-0.009642,0.001870,0.014204,0.000000,0.000000,0.000000
highres_imu,6,1511151478113517056.000000,0.000000,-0.000004,-0.000000,0.000000,0.004655,0.001833,-0.001148,0.000000,0.000000,0.782850,-0.065673,0.026310,-0.035931,0,0,0,0,-0.009642,0.001870,0.014204,0.000000,0.000000,0.000000
attitude,6,1511151478114956288.000000,0.000000,-0.000004,-0.000000,0.000000,0.004655,0.001833,-0.001148,0.000000,0.000000,0.782850,-0.065658,0.026304,-0.035909,0,0,0,0,-0.009642,0.001870,0.014204,0.000000,0.000000,0.000000
highres_imu,6,1511151478119329536.000000,0.000000,-0.000004,-0.000000,0.000000,0.004783,0.003223,-0.001915,0.000000,0.000000,0.782850,-0.065658,0.026304,-0.035909,0,0,0,0,-0.009642,0.001870,0.014204,0.000000,0.000000,0.000000
attitude,6,1511151478125596928.000000,0.000000,-0.000004,-0.000000,0.000000,0.004783,0.003223,-0.001915,0.000000,0.000000,0.782850,-0.065661,0.026303,-0.035898,0,0,0,0,-0.009642,0.001870,0.014204,0.000000,0.000000,0.000000
highres_imu,7,1511151478233997568.000000,0.000000,-0.000004,-0.000000,0.000000,0.003719,0.002364,-0.003810,0.000000,0.000000,0.782850,-0.065661,0.026303,-0.035898,0,0,0,0,-0.009642,0.001870,0.014204,0.000000,0.000000,0.000000
highres_imu,7,1511151478238437632.000000,0.000000,-0.000004,-0.000000,0.000000,0.003719,0.002897,-0.002964,0.000000,0.000000,0.782850,-0.065661,0.026303,-0.035898,0,0,0,0,-0.009642,0.001870,0.014204,0.000000,0.000000,0.000000
attitude,7,1511151478239951616.000000,0.000000,-0.000004,-0.000000,0.000000,0.003719,0.002897,-0.002964,0.000000,0.000000,0.782850,-0.065656,0.026302,-0.035912,0,0,0,0,-0.009642,0.001870,0.014204,0.000000,0.000000,0.000000
highres_imu,7,1511151478244474112.000000,0.000000,-0.000004,-0.000000,0.000000,0.004044,0.003212,-0.000828,0.000000,0.000000,0.782850,-0.065656,0.026302,-0.035912,0,0,0,0,-0.009642,0.001870,0.014204,0.000000,0.000000,0.000000
attitude,7,1511151478247383808.000000,0.000000,-0.000004,-0.000000,0.000000,0.004044,0.003212,-0.000828,0.000000,0.000000,0.782850,-0.065657,0.026303,-0.035900,0,0,0,0,-0.009642,0.001870,0.014204,0.000000,0.000000,0.000000
highres_imu,7,1511151478250444544.000000,0.000000,-0.000004,-0.000000,0.000000,0.002766,0.003111,-0.001787,0.000000,0.000000,0.782850,-0.065657,0.026303,-0.035900,0,0,0,0,-0.009642,0.001870,0.014204,0.000000,0.000000,0.000000
highres_imu,7,1511151478253419264.000000,0.000000,-0.000004,-0.000000,0.000000,0.004140,0.003220,-0.001787,0.000000,0.000000,0.782850,-0.065657,0.026303,-0.035900,0,0,0,0,-0.009642,0.001870,0.014204,0.000000,0.000000,0.000000
attitude,7,1511151478254954240.000000,0.000000,-0.000004,-0.000000,0.000000,0.004140,0.003220,-0.001787,0.000000,0.000000,0.782850,-0.065665,0.026305,-0.035893,0,0,0,0,-0.009642,0.001870,0.014204,0.000000,0.000000,0.000000
highres_imu,7,1511151478260857600.000000,0.000000,-0.000004,-0.000000,0.000000,0.004783,0.003314,-0.001473,0.000000,0.000000,0.782850,-0.065665,0.026305,-0.035893,0,0,0,0,-0.009642,0.001870,0.014204,0.000000,0.000000,0.000000
highres_imu,7,1511151478263807744.000000,0.000000,-0.000004,-0.000000,0.000000,0.003630,0.003211,-0.001246,0.000000,0.000000,0.782850,-0.065665,0.026305,-0.035893,0,0,0,0,-0.009642,0.001870,0.014204,0.000000,0.000000,0.000000
attitude,7,1511151478265634560.000000,0.000000,-0.000004,-0.000000,0.000000,0.003630,0.003211,-0.001246,0.000000,0.000000,0.782850,-0.065671,0.026310,-0.035883,0,0,0,0,-0.009642,0.001870,0.014204,0.000000,0.000000,0.000000
highres_imu,8,1511151478278928640.000000,0.000000,-0.000004,-0.000000,0.000000,0.004783,0.002897,-0.001164,0.000000,0.000000,0.782850,-0.065671,0.026310,-0.035883,0,0,0,0,-0.009642,0.001870,0.014204,0.000000,0.000000,0.000000
highres_imu,8,1511151478282021376.000000,0.000000,-0.000004,-0.000000,0.000000,0.004455,0.003748,-0.002851,0.000000,0.000000,0.782850,-0.065671,0.026310,-0.035883,0,0,0,0,-0.009642,0.001870,0.014204,0.000000,0.000000,0.000000
highres_imu,8,1511151478286590464.000000,0.000000,-0.000004,-0.000000,0.000000,0.003191,0.003112,-0.001144,0.000000,0.000000,0.782850,-0.065671,0.026310,-0.035883,0,0,0,0,-0.009642,0.001870,0.014204,0.000000,0.000000,0.000000
attitude,8,1511151478288038912.000000,0.000000,-0.000004,-0.000000,0.000000,0.003191,0.003112,-0.001144,0.000000,0.000000,0.782850,-0.065674,0.026314,-0.035873,0,0,0,0,-0.009642,0.001870,0.014204,0.000000,0.000000,0.000000
highres_imu,8,1511151478292396800.000000,0.000000,-0.000004,-0.000000,0.000000,0.005426,0.002897,-0.000728,0.000000,0.000000,0.782850,-0.065674,0.026314,-0.035873,0,0,0,0,-0.009642,0.001870,0.014204,0.000000,0.000000,0.000000
attitude,8,1511151478293935360.000000,0.000000,-0.000004,-0.000000,0.000000,0.005426,0.002897,-0.000728,0.000000,0.000000,0.782850,-0.065670,0.026315,-0.035865,0,0,0,0,-0.009642,0.001870,0.014204,0.000000,0.000000,0.000000
highres_imu,8,1511151478298144512.000000,0.000000,-0.000004,-0.000000,0.000000,0.004052,0.003544,-0.002623,0.000000,0.000000,0.782850,-0.065670,0.026315,-0.035865,0,0,0,0,-0.009642,0.001870,0.014204,0.000000,0.000000,0.000000
highres_imu,8,1511151478301245696.000000,0.000000,-0.000004,-0.000000,0.000000,0.005323,0.002885,-0.001136,0.000000,0.000000,0.782850,-0.065670,0.026315,-0.035865,0,0,0,0,-0.009642,0.001870,0.014204,0.000000,0.000000,0.000000
attitude,8,1511151478305730560.000000,0.000000,-0.000004,-0.000000,0.000000,0.005323,0.002885,-0.001136,0.000000,0.000000,0.782850,-0.065686,0.026303,-0.035769,0,0,0,0,-0.009642,0.001870,0.014204,0.000000,0.000000,0.000000
highres_imu,8,1511151478309882368.000000,0.000000,-0.000004,-0.000000,0.000000,0.003719,0.002897,-0.002851,0.000000,0.000000,0.782850,-0.065686,0.026303,-0.035769,0,0,0,0,-0.009642,0.001870,0.014204,0.000000,0.000000,0.000000
attitude,8,1511151478316368640.000000,0.000000,-0.000004,-0.000000,0.000000,0.003719,0.002897,-0.002851,0.000000,0.000000,0.782850,-0.065687,0.026308,-0.035771,0,0,0,0,-0.009642,0.001870,0.014204,0.000000,0.000000,0.000000
highres_imu,8,1511151478320603648.000000,0.000000,-0.000004,-0.000000,0.000000,0.003174,0.003633,-0.002306,0.000000,0.000000,0.782850,-0.065687,0.026308,-0.035771,0,0,0,0,-0.009642,0.001870,0.014204,0.000000,0.000000,0.000000
highres_imu,8,1511151478325124608.000000,0.000000,-0.000004,-0.000000,0.000000,0.004259,0.002788,-0.001263,0.000000,0.000000,0.782850,-0.065687,0.026308,-0.035771,0,0,0,0,-0.009642,0.001870,0.014204,0.000000,0.000000,0.000000
highres_imu,8,1511151478327856384.000000,0.000000,-0.000004,-0.000000,0.000000,0.003603,0.002159,-0.001787,0.000000,0.000000,0.782850,-0.065687,0.026308,-0.035771,0,0,0,0,-0.009642,0.001870,0.014204,0.000000,0.000000,0.000000
highres_imu,8,1511151478333504000.000000,0.000000,-0.000004,-0.000000,0.000000,0.003511,0.002897,-0.000819,0.000000,0.000000,0.782850,-0.065687,0.026308,-0.035771,0,0,0,0,-0.009642,0.001870,0.014204,0.000000,0.000000,0.000000
attitude,8,1511151478335033088.000000,0.000000,-0.000004,-0.000000,0.000000,0.003511,0.002897,-0.000819,0.000000,0.000000,0.782850,-0.065704,0.026307,-0.035754,0,0,0,0,-0.009642,0.001870,0.014204,0.000000,0.000000,0.000000
attitude,9,1511151478454272768.000000,0.000000,-0.000004,-0.000000,0.000000,0.003511,0.002897,-0.000819,0.000000,0.000000,0.782850,-0.065705,0.026314,-0.035718,0,0,0,0,-0.009642,0.001870,0.014204,0.000000,0.000000,0.000000
highres_imu,9,1511151478458664704.000000,0.000000,-0.000004,-0.000000,0.000000,0.004613,0.003786,-0.001348,0.000000,0.000000,0.782850,-0.065705,0.026314,-0.035718,0,0,0,0,-0.009642,0.001870,0.014204,0.000000,0.000000,0.000000
highres_imu,9,1511151478461600256.000000,0.000000,-0.000004,-0.000000,0.000000,0.005634,0.003961,-0.002638,0.000000,0.000000,0.782850,-0.065705,0.026314,-0.035718,0,0,0,0,-0.009642,0.001870,0.014204,0.000000,0.000000,0.000000
highres_imu,9,1511151478465908224.000000,0.000000,-0.000004,-0.000000,0.000000,0.003547,0.004401,-0.001166,0.000000,0.000000,0.782850,-0.065705,0.026314,-0.035718,0,0,0,0,-0.009642,0.001870,0.014204,0.000000,0.000000,0.000000
attitude,10,1511151478467408128.000000,0.000000,-0.000004,-0.000000,0.000000,0.003547,0.004401,-0.001166,0.000000,0.000000,0.782850,-0.065699,0.026332,-0.035716,0,0,0,0,-0.009642,0.001870,0.014204,0.000000,0.000000,0.000000
highres_imu,10,1511151478471858688.000000,0.000000,-0.000004,-0.000000,0.000000,0.005001,0.003751,-0.001997,0.000000,0.000000,0.782850,-0.065699,0.026332,-0.035716,0,0,0,0,-0.009642,0.001870,0.014204,0.000000,0.000000,0.000000
highres_imu,10,1511151478476867840.000000,0.000000,-0.000004,-0.000000,0.000000,0.003186,0.003961,-0.002099,0.000000,0.000000,0.782850,-0.065699,0.026332,-0.035716,0,0,0,0,-0.009642,0.001870,0.014204,0.000000,0.000000,0.000000
attitude,10,1511151478478556928.000000,0.000000,-0.000004,-0.000000,0.000000,0.003186,0.003961,-0.002099,0.000000,0.000000,0.782850,-0.065707,0.026344,-0.035711,0,0,0,0,-0.009642,0.001870,0.014204,0.000000,0.000000,0.000000
highres_imu,10,1511151478481788416.000000,0.000000,-0.000004,-0.000000,0.000000,0.005850,0.003326,-0.001787,0.000000,0.000000,0.782850,-0.065707,0.026344,-0.035711,0,0,0,0,-0.009642,0.001870,0.014204,0.000000,0.000000,0.000000
attitude,10,1511151478484952576.000000,0.000000,-0.000004,-0.000000,0.000000,0.005850,0.003326,-0.001787,0.000000,0.000000,0.782850,-0.065696,0.026346,-0.035708,0,0,0,0,-0.009642,0.001870,0.014204,0.000000,0.000000,0.000000
highres_imu,10,1511151478489155328.000000,0.000000,-0.000004,-0.000000,0.000000,0.004043,0.003320,-0.001681,0.000000,0.000000,0.782850,-0.065696,0.026346,-0.035708,0,0,0,0,-0.009642,0.001870,0.014204,0.000000,0.000000,0.000000
attitude,10,1511151478490783744.000000,0.000000,-0.000004,-0.000000,0.000000,0.004043,0.003320,-0.001681,0.000000,0.000000,0.782850,-0.065697,0.026350,-0.035697,0,0,0,0,-0.009642,0.001870,0.014204,0.000000,0.000000,0.000000
highres_imu,10,1511151478495152384.000000,0.000000,-0.000004,-0.000000,0.000000,0.005741,0.002045,-0.000823,0.000000,0.000000,0.782850,-0.065697,0.026350,-0.035697,0,0,0,0,-0.009642,0.001870,0.014204,0.000000,0.000000,0.000000
highres_imu,10,1511151478498062336.000000,0.000000,-0.000004,-0.000000,0.000000,0.003616,0.002577,-0.001787,0.000000,0.000000,0.782850,-0.065697,0.026350,-0.035697,0,0,0,0,-0.009642,0.001870,0.014204,0.000000,0.000000,0.000000
highres_imu,10,1511151478502404352.000000,0.000000,-0.000004,-0.000000,0.000000,0.002761,0.002576,-0.001040,0.000000,0.000000,0.782850,-0.065697,0.026350,-0.035697,0,0,0,0,-0.009642,0.001870,0.014204,0.000000,0.000000,0.000000
attitude,10,1511151478503848960.000000,0.000000,-0.000004,-0.000000,0.000000,0.002761,0.002576,-0.001040,0.000000,0.000000,0.782850,-0.065702,0.026344,-0.035686,0,0,0,0,-0.009642,0.001870,0.014204,0.000000,0.000000,0.000000
highres_imu,10,1511151478508226816.000000,0.000000,-0.000004,-0.000000,0.000000,0.003926,0.001942,-0.002425,0.000000,0.000000,0.782850,-0.065702,0.026344,-0.035686,0,0,0,0,-0.009642,0.001870,0.014204,0.000000,0.000000,0.000000
highres_imu,10,1511151478512403968.000000,0.000000,-0.000004,-0.000000,0.000000,0.003508,0.002897,-0.001787,0.000000,0.000000,0.782850,-0.065702,0.026344,-0.035686,0,0,0,0,-0.009642,0.001870,0.014204,0.000000,0.000000,0.000000
attitude,10,1511151478513843456.000000,0.000000,-0.000004,-0.000000,0.000000,0.003508,0.002897,-0.001787,0.000000,0.000000,0.782850,-0.065706,0.026339,-0.035684,0,0,0,0,-0.009642,0.001870,0.014204,0.000000,0.000000,0.000000
highres_imu,10,1511151478516516608.000000,0.000000,-0.000004,-0.000000,0.000000,0.005426,0.002795,-0.001463,0.000000,0.000000,0.782850,-0.065706,0.026339,-0.035684,0,0,0,0,-0.009642,0.001870,0.014204,0.000000,0.000000,0.000000
attitude,10,1511151478518101504.000000,0.000000,-0.000004,-0.000000,0.000000,0.005426,0.002795,-0.001463,0.000000,0.000000,0.782850,-0.065704,0.026334,-0.035683,0,0,0,0,-0.009642,0.001870,0.014204,0.000000,0.000000,0.000000
highres_imu,10,1511151478528195840.000000,0.000000,-0.000004,-0.000000,0.000000,0.002863,0.001935,-0.001474,0.000000,0.000000,0.782850,-0.065704,0.026334,-0.035683,0,0,0,0,-0.009642,0.001870,0.014204,0.000000,0.000000,0.000000
local_position_ned,10,1511151478538274560.000000,0.000000,-0.000004,-0.000000,0.000000,0.002863,0.001935,-0.001474,0.000000,0.000000,0.774316,-0.065704,0.026334,-0.035683,0,0,0,0,-0.010420,-0.001600,0.011943,0.000000,0.000000,0.000000
highres_imu,10,1511151478546639360.000000,0.000000,-0.000004,-0.000000,0.000000,0.005425,0.004379,-0.000085,0.000000,0.000000,0.774316,-0.065704,0.026334,-0.035683,0,0,0,0,-0.010420,-0.001600,0.011943,0.000000,0.000000,0.000000
attitude,10,1511151478547975168.000000,0.000000,-0.000004,-0.000000,0.000000,0.005425,0.004379,-0.000085,0.000000,0.000000,0.774316,-0.065706,0.026341,-0.035668,0,0,0,0,-0.010420,-0.001600,0.011943,0.000000,0.000000,0.000000
attitude,10,1511151478550997760.000000,0.000000,-0.000004,-0.000000,0.000000,0.005425,0.004379,-0.000085,0.000000,0.000000,0.774316,-0.065700,0.026354,-0.035663,0,0,0,0,-0.010420,-0.001600,0.011943,0.000000,0.000000,0.000000
highres_imu,10,1511151478555133184.000000,0.000000,-0.000004,-0.000000,0.000000,0.002761,0.009064,0.000546,0.000000,0.000000,0.774316,-0.065700,0.026354,-0.035663,0,0,0,0,-0.010420,-0.001600,0.011943,0.000000,0.000000,0.000000
highres_imu,10,1511151478557906176.000000,0.000000,-0.000004,-0.000000,0.000000,0.005309,0.007586,-0.001248,0.000000,0.000000,0.774316,-0.065700,0.026354,-0.035663,0,0,0,0,-0.010420,-0.001600,0.011943,0.000000,0.000000,0.000000
highres_imu,10,1511151478562217472.000000,0.000000,-0.000004,-0.000000,0.000000,0.003830,0.007475,-0.000834,0.000000,0.000000,0.774316,-0.065700,0.026354,-0.035663,0,0,0,0,-0.010420,-0.001600,0.011943,0.000000,0.000000,0.000000
attitude,10,1511151478563531520.000000,0.000000,-0.000004,-0.000000,0.000000,0.003830,0.007475,-0.000834,0.000000,0.000000,0.774316,-0.065705,0.026417,-0.035651,0,0,0,0,-0.010420,-0.001600,0.011943,0.000000,0.000000,0.000000
highres_imu,11,1511151478567517440.000000,0.000000,-0.000004,-0.000000,0.000000,0.005741,0.010991,-0.001355,0.000000,0.000000,0.774316,-0.065705,0.026417,-0.035651,0,0,0,0,-0.010420,-0.001600,0.011943,0.000000,0.000000,0.000000
highres_imu,11,1511151478571620352.000000,0.000000,-0.000004,-0.000000,0.000000,0.004789,0.011617,-0.001787,0.000000,0.000000,0.774316,-0.065705,0.026417,-0.035651,0,0,0,0,-0.010420,-0.001600,0.011943,0.000000,0.000000,0.000000
attitude,11,1511151478572995840.000000,0.000000,-0.000004,-0.000000,0.000000,0.004789,0.011617,-0.001787,0.000000,0.000000,0.774316,-0.065701,0.026510,-0.035651,0,0,0,0,-0.010420,-0.001600,0.011943,0.000000,0.000000,0.000000
highres_imu,11,1511151478575687680.000000,0.000000,-0.000004,-0.000000,0.000000,0.002858,0.011203,-0.001787,0.000000,0.000000,0.774316,-0.065701,0.026510,-0.035651,0,0,0,0,-0.010420,-0.001600,0.011943,0.000000,0.000000,0.000000
highres_imu,11,1511151478579957248.000000,0.000000,-0.000004,-0.000000,0.000000,0.006480,0.008020,-0.001787,0.000000,0.000000,0.774316,-0.065701,0.026510,-0.035651,0,0,0,0,-0.010420,-0.001600,0.011943,0.000000,0.000000,0.000000
attitude,11,1511151478581404928.000000,0.000000,-0.000004,-0.000000,0.000000,0.006480,0.008020,-0.001787,0.000000,0.000000,0.774316,-0.065699,0.026563,-0.035654,0,0,0,0,-0.010420,-0.001600,0.011943,0.000000,0.000000,0.000000
highres_imu,11,1511151478585914112.000000,0.000000,-0.000004,-0.000000,0.000000,0.005847,0.003123,-0.004022,0.000000,0.000000,0.774316,-0.065699,0.026563,-0.035654,0,0,0,0,-0.010420,-0.001600,0.011943,0.000000,0.000000,0.000000
highres_imu,11,1511151478595718912.000000,0.000000,-0.000004,-0.000000,0.000000,0.002122,0.004492,-0.001256,0.000000,0.000000,0.774316,-0.065699,0.026563,-0.035654,0,0,0,0,-0.010420,-0.001600,0.011943,0.000000,0.000000,0.000000
attitude,11,1511151478597038592.000000,0.000000,-0.000004,-0.000000,0.000000,0.002122,0.004492,-0.001256,0.000000,0.000000,0.774316,-0.065641,0.026135,-0.035493,0,0,0,0,-0.010420,-0.001600,0.011943,0.000000,0.000000,0.000000
highres_imu,11,1511151478599625728.000000,0.000000,-0.000004,-0.000000,0.000000,0.002548,0.006191,-0.001042,0.000000,0.000000,0.774316,-0.065641,0.026135,-0.035493,0,0,0,0,-0.010420,-0.001600,0.011943,0.000000,0.000000,0.000000
attitude,11,1511151478600935168.000000,0.000000,-0.000004,-0.000000,0.000000,0.002548,0.006191,-0.001042,0.000000,0.000000,0.774316,-0.065664,0.026170,-0.035494,0,0,0,0,-0.010420,-0.001600,0.011943,0.000000,0.000000,0.000000
highres_imu,11,1511151478606914304.000000,0.000000,-0.000004,-0.000000,0.000000,-0.001500,0.010236,-0.000825,0.000000,0.000000,0.774316,-0.065664,0.026170,-0.035494,0,0,0,0,-0.010420,-0.001600,0.011943,0.000000,0.000000,0.000000
attitude,11,1511151478612342528.000000,0.000000,-0.000004,-0.000000,0.000000,-0.001500,0.010236,-0.000825,0.000000,0.000000,0.774316,-0.065720,0.026285,-0.035516,0,0,0,0,-0.010420,-0.001600,0.011943,0.000000,0.000000,0.000000
highres_imu,11,1511151478615036416.000000,0.000000,-0.000004,-0.000000,0.000000,0.000952,0.015667,-0.003809,0.000000,0.000000,0.774316,-0.065720,0.026285,-0.035516,0,0,0,0,-0.010420,-0.001600,0.011943,0.000000,0.000000,0.000000
attitude,11,1511151478618011648.000000,0.000000,-0.000004,-0.000000,0.000000,0.000952,0.015667,-0.003809,0.000000,0.000000,0.774316,-0.065738,0.026385,-0.035541,0,0,0,0,-0.010420,-0.001600,0.011943,0.000000,0.000000,0.000000
highres_imu,11,1511151478625142528.000000,0.000000,-0.000004,-0.000000,0.000000,0.004356,0.015668,-0.005087,0.000000,0.000000,0.774316,-0.065738,0.026385,-0.035541,0,0,0,0,-0.010420,-0.001600,0.011943,0.000000,0.000000,0.000000
local_position_ned,11,1511151478627634432.000000,0.000000,-0.000004,-0.000000,0.000000,0.004356,0.015668,-0.005087,0.000000,0.000000,0.780125,-0.065738,0.026385,-0.035541,0,0,0,0,-0.011525,-0.002353,0.013045,0.000000,0.000000,0.000000
highres_imu,12,1511151478736536576.000000,0.000000,-0.000004,-0.000000,0.000000,0.006595,0.014814,-0.004765,0.000000,0.000000,0.780125,-0.065738,0.026385,-0.035541,0,0,0,0,-0.011525,-0.002353,0.013045,0.000000,0.000000,0.000000
highres_imu,12,1511151478743782400.000000,0.000000,-0.000004,-0.000000,0.000000,0.008282,0.010570,-0.003915,0.000000,0.000000,0.780125,-0.065738,0.026385,-0.035541,0,0,0,0,-0.011525,-0.002353,0.013045,0.000000,0.000000,0.000000
attitude,12,1511151478747089408.000000,0.000000,-0.000004,-0.000000,0.000000,0.008282,0.010570,-0.003915,0.000000,0.000000,0.780125,-0.065669,0.026670,-0.035666,0,0,0,0,-0.011525,-0.002353,0.013045,0.000000,0.000000,0.000000
highres_imu,12,1511151478749969664.000000,0.000000,-0.000004,-0.000000,0.000000,0.005537,0.007260,-0.004238,0.000000,0.000000,0.780125,-0.065669,0.026670,-0.035666,0,0,0,0,-0.011525,-0.002353,0.013045,0.000000,0.000000,0.000000
highres_imu,12,1511151478752715520.000000,0.000000,-0.000004,-0.000000,0.000000,0.004670,0.006196,-0.003177,0.000000,0.000000,0.780125,-0.065669,0.026670,-0.035666,0,0,0,0,-0.011525,-0.002353,0.013045,0.000000,0.000000,0.000000
attitude,12,1511151478754390016.000000,0.000000,-0.000004,-0.000000,0.000000,0.004670,0.006196,-0.003177,0.000000,0.000000,0.780125,-0.065664,0.026699,-0.035688,0,0,0,0,-0.011525,-0.002353,0.013045,0.000000,0.000000,0.000000
highres_imu,12,1511151478760391424.000000,0.000000,-0.000004,-0.000000,0.000000,0.005321,0.005352,-0.003282,0.000000,0.000000,0.780125,-0.065664,0.026699,-0.035688,0,0,0,0,-0.011525,-0.002353,0.013045,0.000000,0.000000,0.000000
highres_imu,12,1511151478763306496.000000,0.000000,-0.000004,-0.000000,0.000000,0.003526,0.005245,-0.002971,0.000000,0.000000,0.780125,-0.065664,0.026699,-0.035688,0,0,0,0,-0.011525,-0.002353,0.013045,0.000000,0.000000,0.000000
attitude,12,1511151478764870400.000000,0.000000,-0.000004,-0.000000,0.000000,0.003526,0.005245,-0.002971,0.000000,0.000000,0.780125,-0.065672,0.026723,-0.035707,0,0,0,0,-0.011525,-0.002353,0.013045,0.000000,0.000000,0.000000
highres_imu,13,1511151478769346816.000000,0.000000,-0.000004,-0.000000,0.000000,0.003195,0.002268,-0.002524,0.000000,0.000000,0.780125,-0.065672,0.026723,-0.035707,0,0,0,0,-0.011525,-0.002353,0.013045,0.000000,0.000000,0.000000
highres_imu,13,1511151478772275200.000000,0.000000,-0.000004,-0.000000,0.000000,0.001707,0.001833,-0.001591,0.000000,0.000000,0.780125,-0.065672,0.026723,-0.035707,0,0,0,0,-0.011525,-0.002353,0.013045,0.000000,0.000000,0.000000
highres_imu,13,1511151478776603136.000000,0.000000,-0.000004,-0.000000,0.000000,0.001478,0.001620,-0.000723,0.000000,0.000000,0.780125,-0.065672,0.026723,-0.035707,0,0,0,0,-0.011525,-0.002353,0.013045,0.000000,0.000000,0.000000
attitude,13,1511151478778430720.000000,0.000000,-0.000004,-0.000000,0.000000,0.001478,0.001620,-0.000723,0.000000,0.000000,0.780125,-0.065699,0.026711,-0.035712,0,0,0,0,-0.011525,-0.002353,0.013045,0.000000,0.000000,0.000000
highres_imu,13,1511151478782831360.000000,0.000000,-0.000004,-0.000000,0.000000,0.003076,0.000555,0.000022,0.000000,0.000000,0.780125,-0.065699,0.026711,-0.035712,0,0,0,0,-0.011525,-0.002353,0.013045,0.000000,0.000000,0.000000
attitude,13,1511151478786630400.000000,0.000000,-0.000004,-0.000000,0.000000,0.003076,0.000555,0.000022,0.000000,0.000000,0.780125,-0.065710,0.026686,-0.035705,0,0,0,0,-0.011525,-0.002353,0.013045,0.000000,0.000000,0.000000
highres_imu,13,1511151478796956672.000000,0.000000,-0.000004,-0.000000,0.000000,0.002326,-0.003162,0.000227,0.000000,0.000000,0.780125,-0.065710,0.026686,-0.035705,0,0,0,0,-0.011525,-0.002353,0.013045,0.000000,0.000000,0.000000
highres_imu,13,1511151478799891712.000000,0.000000,-0.000004,-0.000000,0.000000,0.004978,-0.004967,0.001198,0.000000,0.000000,0.780125,-0.065710,0.026686,-0.035705,0,0,0,0,-0.011525,-0.002353,0.013045,0.000000,0.000000,0.000000
attitude,13,1511151478801380608.000000,0.000000,-0.000004,-0.000000,0.000000,0.004978,-0.004967,0.001198,0.000000,0.000000,0.780125,-0.065715,0.026631,-0.035687,0,0,0,0,-0.011525,-0.002353,0.013045,0.000000,0.000000,0.000000
highres_imu,13,1511151478807240960.000000,0.000000,-0.000004,-0.000000,0.000000,0.004470,-0.006895,0.000555,0.000000,0.000000,0.780125,-0.065715,0.026631,-0.035687,0,0,0,0,-0.011525,-0.002353,0.013045,0.000000,0.000000,0.000000
highres_imu,13,1511151478810089984.000000,0.000000,-0.000004,-0.000000,0.000000,0.006485,-0.007745,0.000874,0.000000,0.000000,0.780125,-0.065715,0.026631,-0.035687,0,0,0,0,-0.011525,-0.002353,0.013045,0.000000,0.000000,0.000000
attitude,13,1511151478812777216.000000,0.000000,-0.000004,-0.000000,0.000000,0.006485,-0.007745,0.000874,0.000000,0.000000,0.780125,-0.065700,0.026513,-0.035658,0,0,0,0,-0.011525,-0.002353,0.013045,0.000000,0.000000,0.000000
highres_imu,13,1511151478815666176.000000,0.000000,-0.000004,-0.000000,0.000000,0.005314,-0.007745,0.001297,0.000000,0.000000,0.780125,-0.065700,0.026513,-0.035658,0,0,0,0,-0.011525,-0.002353,0.013045,0.000000,0.000000,0.000000
attitude,13,1511151478818456064.000000,0.000000,-0.000004,-0.000000,0.000000,0.005314,-0.007745,0.001297,0.000000,0.000000,0.780125,-0.065676,0.026390,-0.035621,0,0,0,0,-0.011525,-0.002353,0.013045,0.000000,0.000000,0.000000
highres_imu,13,1511151478825695744.000000,0.000000,-0.000004,-0.000000,0.000000,0.005953,-0.007640,0.000876,0.000000,0.000000,0.780125,-0.065676,0.026390,-0.035621,0,0,0,0,-0.011525,-0.002353,0.013045,0.000000,0.000000,0.000000
local_position_ned,13,1511151478828080896.000000,0.000000,-0.000004,-0.000000,0.000000,0.005953,-0.007640,0.000876,0.000000,0.000000,0.786835,-0.065676,0.026390,-0.035621,0,0,0,0,-0.008696,-0.002294,0.015821,0.000000,0.000000,0.000000
highres_imu,14,1511151478933336576.000000,0.000000,-0.000004,-0.000000,0.000000,0.003612,-0.006253,0.001084,0.000000,0.000000,0.786835,-0.065676,0.026390,-0.035621,0,0,0,0,-0.008696,-0.002294,0.015821,0.000000,0.000000,0.000000
attitude,14,1511151478934876928.000000,0.000000,-0.000004,-0.000000,0.000000,0.003612,-0.006253,0.001084,0.000000,0.000000,0.786835,-0.065672,0.026312,-0.035598,0,0,0,0,-0.008696,-0.002294,0.015821,0.000000,0.000000,0.000000
highres_imu,14,1511151478945578240.000000,0.000000,-0.000004,-0.000000,0.000000,0.004783,-0.004340,0.001196,0.000000,0.000000,0.786835,-0.065672,0.026312,-0.035598,0,0,0,0,-0.008696,-0.002294,0.015821,0.000000,0.000000,0.000000
highres_imu,14,1511151478948625408.000000,0.000000,-0.000004,-0.000000,0.000000,0.003295,-0.002745,0.000341,0.000000,0.000000,0.786835,-0.065672,0.026312,-0.035598,0,0,0,0,-0.008696,-0.002294,0.015821,0.000000,0.000000,0.000000
attitude,14,1511151478950107392.000000,0.000000,-0.000004,-0.000000,0.000000,0.003295,-0.002745,0.000341,0.000000,0.000000,0.786835,-0.065676,0.026231,-0.035566,0,0,0,0,-0.008696,-0.002294,0.015821,0.000000,0.000000,0.000000
highres_imu,14,1511151478956177664.000000,0.000000,-0.000004,-0.000000,0.000000,0.002442,-0.001152,0.001299,0.000000,0.000000,0.786835,-0.065676,0.026231,-0.035566,0,0,0,0,-0.008696,-0.002294,0.015821,0.000000,0.000000,0.000000
highres_imu,14,1511151478965807616.000000,0.000000,-0.000004,-0.000000,0.000000,0.002655,0.003219,-0.000401,0.000000,0.000000,0.786835,-0.065676,0.026231,-0.035566,0,0,0,0,-0.008696,-0.002294,0.015821,0.000000,0.000000,0.000000
attitude,14,1511151478967552256.000000,0.000000,-0.000004,-0.000000,0.000000,0.002655,0.003219,-0.000401,0.000000,0.000000,0.786835,-0.065717,0.026190,-0.035537,0,0,0,0,-0.008696,-0.002294,0.015821,0.000000,0.000000,0.000000
highres_imu,15,1511151478971993856.000000,0.000000,-0.000004,-0.000000,0.000000,0.002655,0.002897,-0.001681,0.000000,0.000000,0.786835,-0.065717,0.026190,-0.035537,0,0,0,0,-0.008696,-0.002294,0.015821,0.000000,0.000000,0.000000
attitude,15,1511151478975007744.000000,0.000000,-0.000004,-0.000000,0.000000,0.002655,0.002897,-0.001681,0.000000,0.000000,0.786835,-0.065728,0.026190,-0.035542,0,0,0,0,-0.008696,-0.002294,0.015821,0.000000,0.000000,0.000000
highres_imu,15,1511151478977890560.000000,0.000000,-0.000004,-0.000000,0.000000,0.004885,0.002579,-0.001787,0.000000,0.000000,0.786835,-0.065728,0.026190,-0.035542,0,0,0,0,-0.008696,-0.002294,0.015821,0.000000,0.000000,0.000000
highres_imu,15,1511151478981544960.000000,0.000000,-0.000004,-0.000000,0.000000,0.005330,0.003312,-0.002745,0.000000,0.000000,0.786835,-0.065728,0.026190,-0.035542,0,0,0,0,-0.008696,-0.002294,0.015821,0.000000,0.000000,0.000000
attitude,15,1511151478984801024.000000,0.000000,-0.000004,-0.000000,0.000000,0.005330,0.003312,-0.002745,0.000000,0.000000,0.786835,-0.065725,0.026194,-0.035556,0,0,0,0,-0.008696,-0.002294,0.015821,0.000000,0.000000,0.000000
highres_imu,15,1511151478989387776.000000,0.000000,-0.000004,-0.000000,0.000000,0.003719,0.003961,-0.002851,0.000000,0.000000,0.786835,-0.065725,0.026194,-0.035556,0,0,0,0,-0.008696,-0.002294,0.015821,0.000000,0.000000,0.000000
highres_imu,15,1511151478992068864.000000,0.000000,-0.000004,-0.000000,0.000000,0.005423,0.005133,-0.003914,0.000000,0.000000,0.786835,-0.065725,0.026194,-0.035556,0,0,0,0,-0.008696,-0.002294,0.015821,0.000000,0.000000,0.000000
attitude,15,1511151478993380352.000000,0.000000,-0.000004,-0.000000,0.000000,0.005423,0.005133,-0.003914,0.000000,0.000000,0.786835,-0.065718,0.026211,-0.035573,0,0,0,0,-0.008696,-0.002294,0.015821,0.000000,0.000000,0.000000
highres_imu,15,1511151478997665792.000000,0.000000,-0.000004,-0.000000,0.000000,0.004043,0.005025,-0.004454,0.000000,0.000000,0.786835,-0.065718,0.026211,-0.035573,0,0,0,0,-0.008696,-0.002294,0.015821,0.000000,0.000000,0.000000
highres_imu,15,1511151479000303616.000000,0.000000,-0.000004,-0.000000,0.000000,0.004563,0.005767,-0.002634,0.000000,0.000000,0.786835,-0.065718,0.026211,-0.035573,0,0,0,0,-0.008696,-0.002294,0.015821,0.000000,0.000000,0.000000
attitude,15,1511151479003179776.000000,0.000000,-0.000004,-0.000000,0.000000,0.004563,0.005767,-0.002634,0.000000,0.000000,0.786835,-0.065713,0.026243,-0.035602,0,0,0,0,-0.008696,-0.002294,0.015821,0.000000,0.000000,0.000000
highres_imu,15,1511151479007351040.000000,0.000000,-0.000004,-0.000000,0.000000,0.002655,0.006622,-0.003915,0.000000,0.000000,0.786835,-0.065713,0.026243,-0.035602,0,0,0,0,-0.008696,-0.002294,0.015821,0.000000,0.000000,0.000000
attitude,15,1511151479010110720.000000,0.000000,-0.000004,-0.000000,0.000000,0.002655,0.006622,-0.003915,0.000000,0.000000,0.786835,-0.065726,0.026271,-0.035618,0,0,0,0,-0.008696,-0.002294,0.015821,0.000000,0.000000,0.000000
highres_imu,15,1511151479012877056.000000,0.000000,-0.000004,-0.000000,0.000000,0.004682,0.007687,-0.002110,0.000000,0.000000,0.786835,-0.065726,0.026271,-0.035618,0,0,0,0,-0.008696,-0.002294,0.015821,0.000000,0.000000,0.000000
highres_imu,15,1511151479015550720.000000,0.000000,-0.000004,-0.000000,0.000000,0.003299,0.007154,-0.002527,0.000000,0.000000,0.786835,-0.065726,0.026271,-0.035618,0,0,0,0,-0.008696,-0.002294,0.015821,0.000000,0.000000,0.000000
highres_imu,15,1511151479020986624.000000,0.000000,-0.000004,-0.000000,0.000000,0.003076,0.007154,-0.001472,0.000000,0.000000,0.786835,-0.065726,0.026271,-0.035618,0,0,0,0,-0.008696,-0.002294,0.015821,0.000000,0.000000,0.000000
attitude,15,1511151479022404608.000000,0.000000,-0.000004,-0.000000,0.000000,0.003076,0.007154,-0.001472,0.000000,0.000000,0.786835,-0.065734,0.026324,-0.035627,0,0,0,0,-0.008696,-0.002294,0.015821,0.000000,0.000000,0.000000
local_position_ned,15,1511151479029556992.000000,0.000000,-0.000004,-0.000000,0.000000,0.003076,0.007154,-0.001472,0.000000,0.000000,0.792127,-0.065734,0.026324,-0.035627,0,0,0,0,-0.011893,-0.001746,0.017208,0.000000,0.000000,0.000000
attitude,16,1511151479142906112.000000,0.000000,-0.000004,-0.000000,0.000000,0.003076,0.007154,-0.001472,0.000000,0.000000,0.792127,-0.065715,0.026412,-0.035626,0,0,0,0,-0.011893,-0.001746,0.017208,0.000000,0.000000,0.000000
highres_imu,16,1511151479149116160.000000,0.000000,-0.000004,-0.000000,0.000000,0.005741,0.007047,0.000656,0.000000,0.000000,0.792127,-0.065715,0.026412,-0.035626,0,0,0,0,-0.011893,-0.001746,0.017208,0.000000,0.000000,0.000000
highres_imu,16,1511151479152810240.000000,0.000000,-0.000004,-0.000000,0.000000,0.004569,0.007154,0.002364,0.000000,0.000000,0.792127,-0.065715,0.026412,-0.035626,0,0,0,0,-0.011893,-0.001746,0.017208,0.000000,0.000000,0.000000
attitude,16,1511151479155983872.000000,0.000000,-0.000004,-0.000000,0.000000,0.004569,0.007154,0.002364,0.000000,0.000000,0.792127,-0.065695,0.026500,-0.035571,0,0,0,0,-0.011893,-0.001746,0.017208,0.000000,0.000000,0.000000
highres_imu,16,1511151479165264896.000000,0.000000,-0.000004,-0.000000,0.000000,0.004141,0.005243,0.001300,0.000000,0.000000,0.792127,-0.065695,0.026500,-0.035571,0,0,0,0,-0.011893,-0.001746,0.017208,0.000000,0.000000,0.000000
