Pose,FrameNo,timestamp(ns),timeboot(ms),xgyro,xyyro,zgyro,xacc,yacc,zacc,x,y,z,roll,pitch,yaw,hdop,lat,lon,alt,vx,vy,vz,gpsxacc,gpsyacc,gpszacc
attitude,0,1511126307161009152.000000,0.000000,-0.000003,-0.000000,0.000000,0.004464,0.009708,-0.003170,0.000000,0.000000,-2.830918,-0.072761,0.049978,-1.211013,0,0,0,0,-0.046546,0.026719,-0.411875,0.000000,0.000000,0.000000
highres_imu,0,1511126307179202304.000000,0.000000,-0.000003,-0.000000,0.000000,0.006598,0.009286,-0.001560,0.000000,0.000000,-2.830918,-0.072761,0.049978,-1.211013,0,0,0,0,-0.046546,0.026719,-0.411875,0.000000,0.000000,0.000000
attitude,0,1511126307180686336.000000,0.000000,-0.000003,-0.000000,0.000000,0.006598,0.009286,-0.001560,0.000000,0.000000,-2.830918,-0.072620,0.049868,-1.204261,0,0,0,0,-0.046546,0.026719,-0.411875,0.000000,0.000000,0.000000
highres_imu,0,1511126307185047296.000000,0.000000,-0.000003,-0.000000,0.000000,0.006898,0.009172,-0.003283,0.000000,0.000000,-2.830918,-0.072620,0.049868,-1.204261,0,0,0,0,-0.046546,0.026719,-0.411875,0.000000,0.000000,0.000000
highres_imu,0,1511126307187808000.000000,0.000000,-0.000003,-0.000000,0.000000,0.006273,0.009282,-0.000618,0.000000,0.000000,-2.830918,-0.072620,0.049868,-1.204261,0,0,0,0,-0.046546,0.026719,-0.411875,0.000000,0.000000,0.000000
attitude,0,1511126307189316864.000000,0.000000,-0.000003,-0.000000,0.000000,0.006273,0.009282,-0.000618,0.000000,0.000000,-2.830918,-0.072602,0.049863,-1.203555,0,0,0,0,-0.046546,0.026719,-0.411875,0.000000,0.000000,0.000000
attitude,0,1511126307198644480.000000,0.000000,-0.000003,-0.000000,0.000000,0.006273,0.009282,-0.000618,0.000000,0.000000,-2.830918,-0.072585,0.049848,-1.203096,0,0,0,0,-0.046546,0.026719,-0.411875,0.000000,0.000000,0.000000
highres_imu,0,1511126307203207936.000000,0.000000,-0.000003,-0.000000,0.000000,0.006375,0.008434,0.000123,0.000000,0.000000,-2.830918,-0.072585,0.049848,-1.203096,0,0,0,0,-0.046546,0.026719,-0.411875,0.000000,0.000000,0.000000
local_position_ned,0,1511126307204722432.000000,0.000000,-0.000003,-0.000000,0.000000,0.006375,0.008434,0.000123,0.000000,0.000000,-2.957124,-0.072585,0.049848,-1.203096,0,0,0,0,-0.037164,0.021649,-0.452034,0.000000,0.000000,0.000000
highres_imu,0,1511126307207590400.000000,0.000000,-0.000003,-0.000000,0.000000,0.005538,0.007896,-0.002638,0.000000,0.000000,-2.957124,-0.072585,0.049848,-1.203096,0,0,0,0,-0.037164,0.021649,-0.452034,0.000000,0.000000,0.000000
attitude,0,1511126307209113344.000000,0.000000,-0.000003,-0.000000,0.000000,0.005538,0.007896,-0.002638,0.000000,0.000000,-2.957124,-0.072575,0.049825,-1.202368,0,0,0,0,-0.037164,0.021649,-0.452034,0.000000,0.000000,0.000000
highres_imu,0,1511126307215432704.000000,0.000000,-0.000003,-0.000000,0.000000,0.005514,0.009810,0.000226,0.000000,0.000000,-2.957124,-0.072575,0.049825,-1.202368,0,0,0,0,-0.037164,0.021649,-0.452034,0.000000,0.000000,0.000000
highres_imu,0,1511126307218116096.000000,0.000000,-0.000003,-0.000000,0.000000,0.008614,0.008647,0.002044,0.000000,0.000000,-2.957124,-0.072575,0.049825,-1.202368,0,0,0,0,-0.037164,0.021649,-0.452034,0.000000,0.000000,0.000000
highres_imu,0,1511126307230756608.000000,0.000000,-0.000003,-0.000000,0.000000,0.005101,0.008537,-0.002851,0.000000,0.000000,-2.957124,-0.072575,0.049825,-1.202368,0,0,0,0,-0.037164,0.021649,-0.452034,0.000000,0.000000,0.000000
attitude,0,1511126307232162560.000000,0.000000,-0.000003,-0.000000,0.000000,0.005101,0.008537,-0.002851,0.000000,0.000000,-2.957124,-0.072574,0.049814,-1.201663,0,0,0,0,-0.037164,0.021649,-0.452034,0.000000,0.000000,0.000000
highres_imu,0,1511126307236378112.000000,0.000000,-0.000003,-0.000000,0.000000,0.010323,0.008969,-0.000492,0.000000,0.000000,-2.957124,-0.072574,0.049814,-1.201663,0,0,0,0,-0.037164,0.021649,-0.452034,0.000000,0.000000,0.000000
attitude,0,1511126307237688576.000000,0.000000,-0.000003,-0.000000,0.000000,0.010323,0.008969,-0.000492,0.000000,0.000000,-2.957124,-0.072557,0.049807,-1.201174,0,0,0,0,-0.037164,0.021649,-0.452034,0.000000,0.000000,0.000000
highres_imu,0,1511126307242336000.000000,0.000000,-0.000003,-0.000000,0.000000,0.005863,0.008533,-0.003702,0.000000,0.000000,-2.957124,-0.072557,0.049807,-1.201174,0,0,0,0,-0.037164,0.021649,-0.452034,0.000000,0.000000,0.000000
highres_imu,0,1511126307245104384.000000,0.000000,-0.000003,-0.000000,0.000000,0.006792,0.010234,0.001068,0.000000,0.000000,-2.957124,-0.072557,0.049807,-1.201174,0,0,0,0,-0.037164,0.021649,-0.452034,0.000000,0.000000,0.000000
attitude,1,1511126307249522176.000000,0.000000,-0.000003,-0.000000,0.000000,0.006792,0.010234,0.001068,0.000000,0.000000,-2.957124,-0.072545,0.049797,-1.200474,0,0,0,0,-0.037164,0.021649,-0.452034,0.000000,0.000000,0.000000
highres_imu,1,1511126307252337408.000000,0.000000,-0.000003,-0.000000,0.000000,0.006048,0.008439,-0.003373,0.000000,0.000000,-2.957124,-0.072545,0.049797,-1.200474,0,0,0,0,-0.037164,0.021649,-0.452034,0.000000,0.000000,0.000000
highres_imu,1,1511126307257774592.000000,0.000000,-0.000003,-0.000000,0.000000,0.006796,0.009181,0.001634,0.000000,0.000000,-2.957124,-0.072545,0.049797,-1.200474,0,0,0,0,-0.037164,0.021649,-0.452034,0.000000,0.000000,0.000000
attitude,1,1511126307259227392.000000,0.000000,-0.000003,-0.000000,0.000000,0.006796,0.009181,0.001634,0.000000,0.000000,-2.957124,-0.072546,0.049786,-1.200000,0,0,0,0,-0.037164,0.021649,-0.452034,0.000000,0.000000,0.000000
highres_imu,1,1511126307261805056.000000,0.000000,-0.000003,-0.000000,0.000000,0.009572,0.007686,0.000129,0.000000,0.000000,-2.957124,-0.072546,0.049786,-1.200000,0,0,0,0,-0.037164,0.021649,-0.452034,0.000000,0.000000,0.000000
attitude,1,1511126307265359872.000000,0.000000,-0.000003,-0.000000,0.000000,0.009572,0.007686,0.000129,0.000000,0.000000,-2.957124,-0.072541,0.049768,-1.199522,0,0,0,0,-0.037164,0.021649,-0.452034,0.000000,0.000000,0.000000
highres_imu,1,1511126307279217152.000000,0.000000,-0.000003,-0.000000,0.000000,0.007125,0.009601,0.001512,0.000000,0.000000,-2.957124,-0.072541,0.049768,-1.199522,0,0,0,0,-0.037164,0.021649,-0.452034,0.000000,0.000000,0.000000
highres_imu,1,1511126307283508736.000000,0.000000,-0.000003,-0.000000,0.000000,0.004574,0.007479,-0.003045,0.000000,0.000000,-2.957124,-0.072541,0.049768,-1.199522,0,0,0,0,-0.037164,0.021649,-0.452034,0.000000,0.000000,0.000000
attitude,1,1511126307284865792.000000,0.000000,-0.000003,-0.000000,0.000000,0.004574,0.007479,-0.003045,0.000000,0.000000,-2.957124,-0.072527,0.049745,-1.198149,0,0,0,0,-0.037164,0.021649,-0.452034,0.000000,0.000000,0.000000
highres_imu,1,1511126307287554816.000000,0.000000,-0.000003,-0.000000,0.000000,0.006940,0.009073,0.002166,0.000000,0.000000,-2.957124,-0.072527,0.049745,-1.198149,0,0,0,0,-0.037164,0.021649,-0.452034,0.000000,0.000000,0.000000
highres_imu,1,1511126307290092032.000000,0.000000,-0.000003,-0.000000,0.000000,0.008195,0.008326,-0.001040,0.000000,0.000000,-2.957124,-0.072527,0.049745,-1.198149,0,0,0,0,-0.037164,0.021649,-0.452034,0.000000,0.000000,0.000000
highres_imu,1,1511126307296337664.000000,0.000000,-0.000003,-0.000000,0.000000,0.007845,0.009075,0.001291,0.000000,0.000000,-2.957124,-0.072527,0.049745,-1.198149,0,0,0,0,-0.037164,0.021649,-0.452034,0.000000,0.000000,0.000000
attitude,1,1511126307299290368.000000,0.000000,-0.000003,-0.000000,0.000000,0.007845,0.009075,0.001291,0.000000,0.000000,-2.957124,-0.072509,0.049718,-1.196999,0,0,0,0,-0.037164,0.021649,-0.452034,0.000000,0.000000,0.000000
highres_imu,1,1511126307306900992.000000,0.000000,-0.000003,-0.000000,0.000000,0.008523,0.008000,-0.001245,0.000000,0.000000,-2.957124,-0.072509,0.049718,-1.196999,0,0,0,0,-0.037164,0.021649,-0.452034,0.000000,0.000000,0.000000
highres_imu,1,1511126307310107648.000000,0.000000,-0.000003,-0.000000,0.000000,0.007874,0.009813,0.002150,0.000000,0.000000,-2.957124,-0.072509,0.049718,-1.196999,0,0,0,0,-0.037164,0.021649,-0.452034,0.000000,0.000000,0.000000
attitude,1,1511126307314317568.000000,0.000000,-0.000003,-0.000000,0.000000,0.007874,0.009813,0.002150,0.000000,0.000000,-2.957124,-0.072501,0.049688,-1.195407,0,0,0,0,-0.037164,0.021649,-0.452034,0.000000,0.000000,0.000000
highres_imu,1,1511126307320266240.000000,0.000000,-0.000003,-0.000000,0.000000,0.009476,0.010453,0.001631,0.000000,0.000000,-2.957124,-0.072501,0.049688,-1.195407,0,0,0,0,-0.037164,0.021649,-0.452034,0.000000,0.000000,0.000000
highres_imu,1,1511126307322979584.000000,0.000000,-0.000003,-0.000000,0.000000,0.008951,0.008011,-0.002508,0.000000,0.000000,-2.957124,-0.072501,0.049688,-1.195407,0,0,0,0,-0.037164,0.021649,-0.452034,0.000000,0.000000,0.000000
attitude,1,1511126307325729536.000000,0.000000,-0.000003,-0.000000,0.000000,0.008951,0.008011,-0.002508,0.000000,0.000000,-2.957124,-0.072487,0.049675,-1.194717,0,0,0,0,-0.037164,0.021649,-0.452034,0.000000,0.000000,0.000000
highres_imu,1,1511126307328398592.000000,0.000000,-0.000003,-0.000000,0.000000,0.009572,0.010240,0.002576,0.000000,0.000000,-2.957124,-0.072487,0.049675,-1.194717,0,0,0,0,-0.037164,0.021649,-0.452034,0.000000,0.000000,0.000000
highres_imu,1,1511126307331118848.000000,0.000000,-0.000003,-0.000000,0.000000,0.009548,0.008218,-0.002228,0.000000,0.000000,-2.957124,-0.072487,0.049675,-1.194717,0,0,0,0,-0.037164,0.021649,-0.452034,0.000000,0.000000,0.000000
highres_imu,1,1511126307336694272.000000,0.000000,-0.000003,-0.000000,0.000000,0.005425,0.008757,-0.002510,0.000000,0.000000,-2.957124,-0.072487,0.049675,-1.194717,0,0,0,0,-0.037164,0.021649,-0.452034,0.000000,0.000000,0.000000
attitude,1,1511126307337999872.000000,0.000000,-0.000003,-0.000000,0.000000,0.005425,0.008757,-0.002510,0.000000,0.000000,-2.957124,-0.072466,0.049664,-1.194040,0,0,0,0,-0.037164,0.021649,-0.452034,0.000000,0.000000,0.000000
highres_imu,1,1511126307340893440.000000,0.000000,-0.000003,-0.000000,0.000000,0.009741,0.009105,0.001495,0.000000,0.000000,-2.957124,-0.072466,0.049664,-1.194040,0,0,0,0,-0.037164,0.021649,-0.452034,0.000000,0.000000,0.000000
highres_imu,3,1511126307449082624.000000,0.000000,-0.000003,-0.000000,0.000000,0.007969,0.007686,-0.003174,0.000000,0.000000,-2.957124,-0.072466,0.049664,-1.194040,0,0,0,0,-0.037164,0.021649,-0.452034,0.000000,0.000000,0.000000
attitude,3,1511126307453862912.000000,0.000000,-0.000003,-0.000000,0.000000,0.007969,0.007686,-0.003174,0.000000,0.000000,-2.957124,-0.072380,0.049644,-1.187717,0,0,0,0,-0.037164,0.021649,-0.452034,0.000000,0.000000,0.000000
highres_imu,3,1511126307468125440.000000,0.000000,-0.000003,-0.000000,0.000000,0.007343,0.010985,0.003117,0.000000,0.000000,-2.957124,-0.072380,0.049644,-1.187717,0,0,0,0,-0.037164,0.021649,-0.452034,0.000000,0.000000,0.000000
attitude,3,1511126307474784000.000000,0.000000,-0.000003,-0.000000,0.000000,0.007343,0.010985,0.003117,0.000000,0.000000,-2.957124,-0.072372,0.049648,-1.186533,0,0,0,0,-0.037164,0.021649,-0.452034,0.000000,0.000000,0.000000
highres_imu,3,1511126307477624064.000000,0.000000,-0.000003,-0.000000,0.000000,0.008392,0.007686,-0.001162,0.000000,0.000000,-2.957124,-0.072372,0.049648,-1.186533,0,0,0,0,-0.037164,0.021649,-0.452034,0.000000,0.000000,0.000000
attitude,3,1511126307479277824.000000,0.000000,-0.000003,-0.000000,0.000000,0.008392,0.007686,-0.001162,0.000000,0.000000,-2.957124,-0.072361,0.049637,-1.186062,0,0,0,0,-0.037164,0.021649,-0.452034,0.000000,0.000000,0.000000
highres_imu,3,1511126307496368128.000000,0.000000,-0.000003,-0.000000,0.000000,0.007008,0.009819,0.002901,0.000000,0.000000,-2.957124,-0.072361,0.049637,-1.186062,0,0,0,0,-0.037164,0.021649,-0.452034,0.000000,0.000000,0.000000
attitude,3,1511126307499542272.000000,0.000000,-0.000003,-0.000000,0.000000,0.007008,0.009819,0.002901,0.000000,0.000000,-2.957124,-0.072364,0.049625,-1.185349,0,0,0,0,-0.037164,0.021649,-0.452034,0.000000,0.000000,0.000000
highres_imu,3,1511126307502455296.000000,0.000000,-0.000003,-0.000000,0.000000,0.004262,0.010020,-0.001478,0.000000,0.000000,-2.957124,-0.072364,0.049625,-1.185349,0,0,0,0,-0.037164,0.021649,-0.452034,0.000000,0.000000,0.000000
local_position_ned,3,1511126307505629696.000000,0.000000,-0.000003,-0.000000,0.000000,0.004262,0.010020,-0.001478,0.000000,0.000000,-3.039593,-0.072364,0.049625,-1.185349,0,0,0,0,-0.029415,0.017801,-0.478469,0.000000,0.000000,0.000000
highres_imu,3,1511126307508489984.000000,0.000000,-0.000003,-0.000000,0.000000,0.008740,0.010984,0.002365,0.000000,0.000000,-3.039593,-0.072364,0.049625,-1.185349,0,0,0,0,-0.029415,0.017801,-0.478469,0.000000,0.000000,0.000000
attitude,3,1511126307510048768.000000,0.000000,-0.000003,-0.000000,0.000000,0.008740,0.010984,0.002365,0.000000,0.000000,-3.039593,-0.072362,0.049630,-1.184872,0,0,0,0,-0.029415,0.017801,-0.478469,0.000000,0.000000,0.000000
attitude,3,1511126307516938240.000000,0.000000,-0.000003,-0.000000,0.000000,0.008740,0.010984,0.002365,0.000000,0.000000,-3.039593,-0.072357,0.049620,-1.184417,0,0,0,0,-0.029415,0.017801,-0.478469,0.000000,0.000000,0.000000
highres_imu,3,1511126307521231360.000000,0.000000,-0.000003,-0.000000,0.000000,0.009146,0.010240,0.002896,0.000000,0.000000,-3.039593,-0.072357,0.049620,-1.184417,0,0,0,0,-0.029415,0.017801,-0.478469,0.000000,0.000000,0.000000
highres_imu,3,1511126307524238592.000000,0.000000,-0.000003,-0.000000,0.000000,0.003610,0.008217,0.000018,0.000000,0.000000,-3.039593,-0.072357,0.049620,-1.184417,0,0,0,0,-0.029415,0.017801,-0.478469,0.000000,0.000000,0.000000
attitude,3,1511126307525677824.000000,0.000000,-0.000003,-0.000000,0.000000,0.003610,0.008217,0.000018,0.000000,0.000000,-3.039593,-0.072345,0.049608,-1.183683,0,0,0,0,-0.029415,0.017801,-0.478469,0.000000,0.000000,0.000000
highres_imu,3,1511126307531027712.000000,0.000000,-0.000003,-0.000000,0.000000,0.008184,0.009282,0.003406,0.000000,0.000000,-3.039593,-0.072345,0.049608,-1.183683,0,0,0,0,-0.029415,0.017801,-0.478469,0.000000,0.000000,0.000000
attitude,3,1511126307535902208.000000,0.000000,-0.000003,-0.000000,0.000000,0.008184,0.009282,0.003406,0.000000,0.000000,-3.039593,-0.072320,0.049584,-1.182536,0,0,0,0,-0.029415,0.017801,-0.478469,0.000000,0.000000,0.000000
highres_imu,3,1511126307541591808.000000,0.000000,-0.000003,-0.000000,0.000000,0.005210,0.008853,-0.001154,0.000000,0.000000,-3.039593,-0.072320,0.049584,-1.182536,0,0,0,0,-0.029415,0.017801,-0.478469,0.000000,0.000000,0.000000
highres_imu,4,1511126307555159040.000000,0.000000,-0.000003,-0.000000,0.000000,0.007143,0.008648,-0.002629,0.000000,0.000000,-3.039593,-0.072320,0.049584,-1.182536,0,0,0,0,-0.029415,0.017801,-0.478469,0.000000,0.000000,0.000000
highres_imu,4,1511126307557835008.000000,0.000000,-0.000003,-0.000000,0.000000,0.004783,0.008537,-0.000510,0.000000,0.000000,-3.039593,-0.072320,0.049584,-1.182536,0,0,0,0,-0.029415,0.017801,-0.478469,0.000000,0.000000,0.000000
attitude,4,1511126307559236864.000000,0.000000,-0.000003,-0.000000,0.000000,0.004783,0.008537,-0.000510,0.000000,0.000000,-3.039593,-0.072290,0.049522,-1.180261,0,0,0,0,-0.029415,0.017801,-0.478469,0.000000,0.000000,0.000000
highres_imu,4,1511126307564816640.000000,0.000000,-0.000003,-0.000000,0.000000,0.009355,0.009917,0.001832,0.000000,0.000000,-3.039593,-0.072290,0.049522,-1.180261,0,0,0,0,-0.029415,0.017801,-0.478469,0.000000,0.000000,0.000000
highres_imu,4,1511126307567465728.000000,0.000000,-0.000003,-0.000000,0.000000,0.007105,0.008433,-0.003286,0.000000,0.000000,-3.039593,-0.072290,0.049522,-1.180261,0,0,0,0,-0.029415,0.017801,-0.478469,0.000000,0.000000,0.000000
highres_imu,4,1511126307571567360.000000,0.000000,-0.000003,-0.000000,0.000000,0.004885,0.009599,0.000031,0.000000,0.000000,-3.039593,-0.072290,0.049522,-1.180261,0,0,0,0,-0.029415,0.017801,-0.478469,0.000000,0.000000,0.000000
attitude,4,1511126307573227776.000000,0.000000,-0.000003,-0.000000,0.000000,0.004885,0.009599,0.000031,0.000000,0.000000,-3.039593,-0.072282,0.049513,-1.179594,0,0,0,0,-0.029415,0.017801,-0.478469,0.000000,0.000000,0.000000
local_position_ned,4,1511126307574668800.000000,0.000000,-0.000003,-0.000000,0.000000,0.004885,0.009599,0.000031,0.000000,0.000000,-3.069402,-0.072282,0.049513,-1.179594,0,0,0,0,-0.026349,0.016529,-0.485492,0.000000,0.000000,0.000000
highres_imu,4,1511126307577278208.000000,0.000000,-0.000003,-0.000000,0.000000,0.005954,0.008431,-0.002213,0.000000,0.000000,-3.069402,-0.072282,0.049513,-1.179594,0,0,0,0,-0.026349,0.016529,-0.485492,0.000000,0.000000,0.000000
attitude,4,1511126307578602752.000000,0.000000,-0.000003,-0.000000,0.000000,0.005954,0.008431,-0.002213,0.000000,0.000000,-3.069402,-0.072277,0.049506,-1.179127,0,0,0,0,-0.026349,0.016529,-0.485492,0.000000,0.000000,0.000000
highres_imu,4,1511126307584392704.000000,0.000000,-0.000003,-0.000000,0.000000,0.004883,0.009914,0.000854,0.000000,0.000000,-3.069402,-0.072277,0.049506,-1.179127,0,0,0,0,-0.026349,0.016529,-0.485492,0.000000,0.000000,0.000000
highres_imu,4,1511126307587834624.000000,0.000000,-0.000003,-0.000000,0.000000,0.009138,0.009918,0.001724,0.000000,0.000000,-3.069402,-0.072277,0.049506,-1.179127,0,0,0,0,-0.026349,0.016529,-0.485492,0.000000,0.000000,0.000000
attitude,4,1511126307590706432.000000,0.000000,-0.000003,-0.000000,0.000000,0.009138,0.009918,0.001724,0.000000,0.000000,-3.069402,-0.072277,0.049497,-1.178451,0,0,0,0,-0.026349,0.016529,-0.485492,0.000000,0.000000,0.000000
highres_imu,4,1511126307593569024.000000,0.000000,-0.000003,-0.000000,0.000000,0.005845,0.009494,-0.000195,0.000000,0.000000,-3.069402,-0.072277,0.049497,-1.178451,0,0,0,0,-0.026349,0.016529,-0.485492,0.000000,0.000000,0.000000
highres_imu,4,1511126307596383232.000000,0.000000,-0.000003,-0.000000,0.000000,0.009891,0.008431,0.000129,0.000000,0.000000,-3.069402,-0.072277,0.049497,-1.178451,0,0,0,0,-0.026349,0.016529,-0.485492,0.000000,0.000000,0.000000
attitude,4,1511126307597699072.000000,0.000000,-0.000003,-0.000000,0.000000,0.009891,0.008431,0.000129,0.000000,0.000000,-3.069402,-0.072266,0.049488,-1.177994,0,0,0,0,-0.026349,0.016529,-0.485492,0.000000,0.000000,0.000000
highres_imu,4,1511126307604260608.000000,0.000000,-0.000003,-0.000000,0.000000,0.006063,0.007473,-0.004552,0.000000,0.000000,-3.069402,-0.072266,0.049488,-1.177994,0,0,0,0,-0.026349,0.016529,-0.485492,0.000000,0.000000,0.000000
highres_imu,4,1511126307609757440.000000,0.000000,-0.000003,-0.000000,0.000000,0.006055,0.008959,0.000329,0.000000,0.000000,-3.069402,-0.072266,0.049488,-1.177994,0,0,0,0,-0.026349,0.016529,-0.485492,0.000000,0.000000,0.000000
attitude,4,1511126307617654272.000000,0.000000,-0.000003,-0.000000,0.000000,0.006055,0.008959,0.000329,0.000000,0.000000,-3.069402,-0.072255,0.049472,-1.177316,0,0,0,0,-0.026349,0.016529,-0.485492,0.000000,0.000000,0.000000
highres_imu,4,1511126307622277888.000000,0.000000,-0.000003,-0.000000,0.000000,0.005752,0.008533,-0.003281,0.000000,0.000000,-3.069402,-0.072255,0.049472,-1.177316,0,0,0,0,-0.026349,0.016529,-0.485492,0.000000,0.000000,0.000000
highres_imu,4,1511126307627017472.000000,0.000000,-0.000003,-0.000000,0.000000,0.005840,0.009282,0.001183,0.000000,0.000000,-3.069402,-0.072255,0.049472,-1.177316,0,0,0,0,-0.026349,0.016529,-0.485492,0.000000,0.000000,0.000000
attitude,4,1511126307629611776.000000,0.000000,-0.000003,-0.000000,0.000000,0.005840,0.009282,0.001183,0.000000,0.000000,-3.069402,-0.072261,0.049463,-1.176877,0,0,0,0,-0.026349,0.016529,-0.485492,0.000000,0.000000,0.000000
highres_imu,4,1511126307638495744.000000,0.000000,-0.000003,-0.000000,0.000000,0.009884,0.009282,0.000878,0.000000,0.000000,-3.069402,-0.072261,0.049463,-1.176877,0,0,0,0,-0.026349,0.016529,-0.485492,0.000000,0.000000,0.000000
attitude,6,1511126307758137344.000000,0.000000,-0.000003,-0.000000,0.000000,0.009884,0.009282,0.000878,0.000000,0.000000,-3.069402,-0.072260,0.049454,-1.175742,0,0,0,0,-0.026349,0.016529,-0.485492,0.000000,0.000000,0.000000
highres_imu,6,1511126307764232192.000000,0.000000,-0.000003,-0.000000,0.000000,0.006590,0.010240,0.001508,0.000000,0.000000,-3.069402,-0.072260,0.049454,-1.175742,0,0,0,0,-0.026349,0.016529,-0.485492,0.000000,0.000000,0.000000
attitude,6,1511126307765696256.000000,0.000000,-0.000003,-0.000000,0.000000,0.006590,0.010240,0.001508,0.000000,0.000000,-3.069402,-0.072222,0.049418,-1.169266,0,0,0,0,-0.026349,0.016529,-0.485492,0.000000,0.000000,0.000000
highres_imu,6,1511126307768518400.000000,0.000000,-0.000003,-0.000000,0.000000,0.005831,0.009282,-0.001054,0.000000,0.000000,-3.069402,-0.072222,0.049418,-1.169266,0,0,0,0,-0.026349,0.016529,-0.485492,0.000000,0.000000,0.000000
attitude,6,1511126307773133312.000000,0.000000,-0.000003,-0.000000,0.000000,0.005831,0.009282,-0.001054,0.000000,0.000000,-3.069402,-0.072229,0.049414,-1.168817,0,0,0,0,-0.026349,0.016529,-0.485492,0.000000,0.000000,0.000000
highres_imu,6,1511126307776282112.000000,0.000000,-0.000003,-0.000000,0.000000,0.009996,0.010029,0.002790,0.000000,0.000000,-3.069402,-0.072229,0.049414,-1.168817,0,0,0,0,-0.026349,0.016529,-0.485492,0.000000,0.000000,0.000000
highres_imu,6,1511126307779278592.000000,0.000000,-0.000003,-0.000000,0.000000,0.006381,0.008856,-0.000616,0.000000,0.000000,-3.069402,-0.072229,0.049414,-1.168817,0,0,0,0,-0.026349,0.016529,-0.485492,0.000000,0.000000,0.000000
attitude,6,1511126307782579456.000000,0.000000,-0.000003,-0.000000,0.000000,0.006381,0.008856,-0.000616,0.000000,0.000000,-3.069402,-0.072217,0.049409,-1.168145,0,0,0,0,-0.026349,0.016529,-0.485492,0.000000,0.000000,0.000000
highres_imu,6,1511126307785397248.000000,0.000000,-0.000003,-0.000000,0.000000,0.009684,0.009380,0.002245,0.000000,0.000000,-3.069402,-0.072217,0.049409,-1.168145,0,0,0,0,-0.026349,0.016529,-0.485492,0.000000,0.000000,0.000000
attitude,6,1511126307789881856.000000,0.000000,-0.000003,-0.000000,0.000000,0.009684,0.009380,0.002245,0.000000,0.000000,-3.069402,-0.072208,0.049400,-1.167707,0,0,0,0,-0.026349,0.016529,-0.485492,0.000000,0.000000,0.000000
highres_imu,6,1511126307794523136.000000,0.000000,-0.000003,-0.000000,0.000000,0.006467,0.009176,0.000543,0.000000,0.000000,-3.069402,-0.072208,0.049400,-1.167707,0,0,0,0,-0.026349,0.016529,-0.485492,0.000000,0.000000,0.000000
attitude,6,1511126307800388096.000000,0.000000,-0.000003,-0.000000,0.000000,0.006467,0.009176,0.000543,0.000000,0.000000,-3.069402,-0.072200,0.049379,-1.167046,0,0,0,0,-0.026349,0.016529,-0.485492,0.000000,0.000000,0.000000
highres_imu,6,1511126307803423488.000000,0.000000,-0.000003,-0.000000,0.000000,0.005421,0.008750,0.002363,0.000000,0.000000,-3.069402,-0.072200,0.049379,-1.167046,0,0,0,0,-0.026349,0.016529,-0.485492,0.000000,0.000000,0.000000
highres_imu,6,1511126307810620672.000000,0.000000,-0.000003,-0.000000,0.000000,0.005546,0.008218,-0.002222,0.000000,0.000000,-3.069402,-0.072200,0.049379,-1.167046,0,0,0,0,-0.026349,0.016529,-0.485492,0.000000,0.000000,0.000000
highres_imu,6,1511126307813731584.000000,0.000000,-0.000003,-0.000000,0.000000,0.005091,0.009913,0.000436,0.000000,0.000000,-3.069402,-0.072200,0.049379,-1.167046,0,0,0,0,-0.026349,0.016529,-0.485492,0.000000,0.000000,0.000000
attitude,6,1511126307820297984.000000,0.000000,-0.000003,-0.000000,0.000000,0.005091,0.009913,0.000436,0.000000,0.000000,-3.069402,-0.072192,0.049360,-1.165926,0,0,0,0,-0.026349,0.016529,-0.485492,0.000000,0.000000,0.000000
highres_imu,6,1511126307822945792.000000,0.000000,-0.000003,-0.000000,0.000000,0.005406,0.009064,0.002358,0.000000,0.000000,-3.069402,-0.072192,0.049360,-1.165926,0,0,0,0,-0.026349,0.016529,-0.485492,0.000000,0.000000,0.000000
attitude,6,1511126307824302592.000000,0.000000,-0.000003,-0.000000,0.000000,0.005406,0.009064,0.002358,0.000000,0.000000,-3.069402,-0.072202,0.049349,-1.165496,0,0,0,0,-0.026349,0.016529,-0.485492,0.000000,0.000000,0.000000
highres_imu,6,1511126307830044416.000000,0.000000,-0.000003,-0.000000,0.000000,0.004252,0.009708,-0.001149,0.000000,0.000000,-3.069402,-0.072202,0.049349,-1.165496,0,0,0,0,-0.026349,0.016529,-0.485492,0.000000,0.000000,0.000000
highres_imu,7,1511126307944675072.000000,0.000000,-0.000003,-0.000000,0.000000,0.004874,0.008320,-0.002223,0.000000,0.000000,-3.069402,-0.072202,0.049349,-1.165496,0,0,0,0,-0.026349,0.016529,-0.485492,0.000000,0.000000,0.000000
attitude,7,1511126307946363648.000000,0.000000,-0.000003,-0.000000,0.000000,0.004874,0.008320,-0.002223,0.000000,0.000000,-3.069402,-0.072195,0.049342,-1.164398,0,0,0,0,-0.026349,0.016529,-0.485492,0.000000,0.000000,0.000000
highres_imu,7,1511126307949832960.000000,0.000000,-0.000003,-0.000000,0.000000,0.005422,0.009921,-0.000191,0.000000,0.000000,-3.069402,-0.072195,0.049342,-1.164398,0,0,0,0,-0.026349,0.016529,-0.485492,0.000000,0.000000,0.000000
attitude,8,1511126307953280768.000000,0.000000,-0.000003,-0.000000,0.000000,0.005422,0.009921,-0.000191,0.000000,0.000000,-3.069402,-0.072075,0.049238,-1.158366,0,0,0,0,-0.026349,0.016529,-0.485492,0.000000,0.000000,0.000000
highres_imu,8,1511126307956456960.000000,0.000000,-0.000003,-0.000000,0.000000,0.010847,0.009922,0.002363,0.000000,0.000000,-3.069402,-0.072075,0.049238,-1.158366,0,0,0,0,-0.026349,0.016529,-0.485492,0.000000,0.000000,0.000000
highres_imu,8,1511126307960819712.000000,0.000000,-0.000003,-0.000000,0.000000,0.006273,0.008854,-0.001156,0.000000,0.000000,-3.069402,-0.072075,0.049238,-1.158366,0,0,0,0,-0.026349,0.016529,-0.485492,0.000000,0.000000,0.000000
attitude,8,1511126307962880000.000000,0.000000,-0.000003,-0.000000,0.000000,0.006273,0.008854,-0.001156,0.000000,0.000000,-3.069402,-0.072065,0.049226,-1.157943,0,0,0,0,-0.026349,0.016529,-0.485492,0.000000,0.000000,0.000000
highres_imu,8,1511126307967140864.000000,0.000000,-0.000003,-0.000000,0.000000,0.010846,0.008963,0.002575,0.000000,0.000000,-3.069402,-0.072065,0.049226,-1.157943,0,0,0,0,-0.026349,0.016529,-0.485492,0.000000,0.000000,0.000000
highres_imu,8,1511126307970028800.000000,0.000000,-0.000003,-0.000000,0.000000,0.007550,0.007260,-0.002851,0.000000,0.000000,-3.069402,-0.072065,0.049226,-1.157943,0,0,0,0,-0.026349,0.016529,-0.485492,0.000000,0.000000,0.000000
attitude,8,1511126307972956416.000000,0.000000,-0.000003,-0.000000,0.000000,0.007550,0.007260,-0.002851,0.000000,0.000000,-3.069402,-0.072047,0.049201,-1.157293,0,0,0,0,-0.026349,0.016529,-0.485492,0.000000,0.000000,0.000000
highres_imu,8,1511126307976224512.000000,0.000000,-0.000003,-0.000000,0.000000,0.009360,0.008112,0.002470,0.000000,0.000000,-3.069402,-0.072047,0.049201,-1.157293,0,0,0,0,-0.026349,0.016529,-0.485492,0.000000,0.000000,0.000000
local_position_ned,8,1511126307977809664.000000,0.000000,-0.000003,-0.000000,0.000000,0.009360,0.008112,0.002470,0.000000,0.000000,-3.163340,-0.072047,0.049201,-1.157293,0,0,0,0,-0.014944,0.010450,-0.506718,0.000000,0.000000,0.000000
attitude,8,1511126307982235904.000000,0.000000,-0.000003,-0.000000,0.000000,0.009360,0.008112,0.002470,0.000000,0.000000,-3.163340,-0.072035,0.049182,-1.156849,0,0,0,0,-0.014944,0.010450,-0.506718,0.000000,0.000000,0.000000
highres_imu,8,1511126307985266176.000000,0.000000,-0.000003,-0.000000,0.000000,0.004790,0.009817,-0.000500,0.000000,0.000000,-3.163340,-0.072035,0.049182,-1.156849,0,0,0,0,-0.014944,0.010450,-0.506718,0.000000,0.000000,0.000000
highres_imu,8,1511126307990401792.000000,0.000000,-0.000003,-0.000000,0.000000,0.008082,0.010029,0.001944,0.000000,0.000000,-3.163340,-0.072035,0.049182,-1.156849,0,0,0,0,-0.014944,0.010450,-0.506718,0.000000,0.000000,0.000000
attitude,8,1511126307991872512.000000,0.000000,-0.000003,-0.000000,0.000000,0.008082,0.010029,0.001944,0.000000,0.000000,-3.163340,-0.072035,0.049183,-1.156413,0,0,0,0,-0.014944,0.010450,-0.506718,0.000000,0.000000,0.000000
highres_imu,8,1511126307994872832.000000,0.000000,-0.000003,-0.000000,0.000000,0.006499,0.009389,-0.003162,0.000000,0.000000,-3.163340,-0.072035,0.049183,-1.156413,0,0,0,0,-0.014944,0.010450,-0.506718,0.000000,0.000000,0.000000
highres_imu,8,1511126307997496832.000000,0.000000,-0.000003,-0.000000,0.000000,0.010422,0.010880,0.001407,0.000000,0.000000,-3.163340,-0.072035,0.049183,-1.156413,0,0,0,0,-0.014944,0.010450,-0.506718,0.000000,0.000000,0.000000
attitude,8,1511126307998868224.000000,0.000000,-0.000003,-0.000000,0.000000,0.010422,0.010880,0.001407,0.000000,0.000000,-3.163340,-0.072019,0.049187,-1.155762,0,0,0,0,-0.014944,0.010450,-0.506718,0.000000,0.000000,0.000000
highres_imu,8,1511126308014465536.000000,0.000000,-0.000003,-0.000000,0.000000,0.006129,0.009939,-0.003592,0.000000,0.000000,-3.163340,-0.072019,0.049187,-1.155762,0,0,0,0,-0.014944,0.010450,-0.506718,0.000000,0.000000,0.000000
highres_imu,8,1511126308023535872.000000,0.000000,-0.000003,-0.000000,0.000000,0.005410,0.010346,0.001283,0.000000,0.000000,-3.163340,-0.072019,0.049187,-1.155762,0,0,0,0,-0.014944,0.010450,-0.506718,0.000000,0.000000,0.000000
attitude,8,1511126308025039872.000000,0.000000,-0.000003,-0.000000,0.000000,0.005410,0.010346,0.001283,0.000000,0.000000,-3.163340,-0.072022,0.049193,-1.154679,0,0,0,0,-0.014944,0.010450,-0.506718,0.000000,0.000000,0.000000
highres_imu,8,1511126308029329408.000000,0.000000,-0.000003,-0.000000,0.000000,0.009991,0.010024,0.001607,0.000000,0.000000,-3.163340,-0.072022,0.049193,-1.154679,0,0,0,0,-0.014944,0.010450,-0.506718,0.000000,0.000000,0.000000
highres_imu,8,1511126308031847424.000000,0.000000,-0.000003,-0.000000,0.000000,0.005414,0.008429,-0.002108,0.000000,0.000000,-3.163340,-0.072022,0.049193,-1.154679,0,0,0,0,-0.014944,0.010450,-0.506718,0.000000,0.000000,0.000000
attitude,9,1511126308138227200.000000,0.000000,-0.000003,-0.000000,0.000000,0.005414,0.008429,-0.002108,0.000000,0.000000,-3.163340,-0.072014,0.049183,-1.154010,0,0,0,0,-0.014944,0.010450,-0.506718,0.000000,0.000000,0.000000
attitude,9,1511126308143495936.000000,0.000000,-0.000003,-0.000000,0.000000,0.005414,0.008429,-0.002108,0.000000,0.000000,-3.163340,-0.072006,0.049166,-1.153577,0,0,0,0,-0.014944,0.010450,-0.506718,0.000000,0.000000,0.000000
highres_imu,9,1511126308149893632.000000,0.000000,-0.000003,-0.000000,0.000000,0.006926,0.009071,0.001200,0.000000,0.000000,-3.163340,-0.072006,0.049166,-1.153577,0,0,0,0,-0.014944,0.010450,-0.506718,0.000000,0.000000,0.000000
highres_imu,10,1511126308154453760.000000,0.000000,-0.000003,-0.000000,0.000000,0.008934,0.010346,0.002153,0.000000,0.000000,-3.163340,-0.072006,0.049166,-1.153577,0,0,0,0,-0.014944,0.010450,-0.506718,0.000000,0.000000,0.000000
highres_imu,10,1511126308157303552.000000,0.000000,-0.000003,-0.000000,0.000000,0.005401,0.009282,0.000310,0.000000,0.000000,-3.163340,-0.072006,0.049166,-1.153577,0,0,0,0,-0.014944,0.010450,-0.506718,0.000000,0.000000,0.000000
attitude,10,1511126308158829312.000000,0.000000,-0.000003,-0.000000,0.000000,0.005401,0.009282,0.000310,0.000000,0.000000,-3.163340,-0.071977,0.049119,-1.146954,0,0,0,0,-0.014944,0.010450,-0.506718,0.000000,0.000000,0.000000
highres_imu,10,1511126308164807680.000000,0.000000,-0.000003,-0.000000,0.000000,0.009781,0.009173,0.001506,0.000000,0.000000,-3.163340,-0.071977,0.049119,-1.146954,0,0,0,0,-0.014944,0.010450,-0.506718,0.000000,0.000000,0.000000
highres_imu,10,1511126308169070336.000000,0.000000,-0.000003,-0.000000,0.000000,0.005847,0.008218,0.001831,0.000000,0.000000,-3.163340,-0.071977,0.049119,-1.146954,0,0,0,0,-0.014944,0.010450,-0.506718,0.000000,0.000000,0.000000
attitude,10,1511126308170629632.000000,0.000000,-0.000003,-0.000000,0.000000,0.005847,0.008218,0.001831,0.000000,0.000000,-3.163340,-0.071968,0.049101,-1.146305,0,0,0,0,-0.014944,0.010450,-0.506718,0.000000,0.000000,0.000000
local_position_ned,10,1511126308172084992.000000,0.000000,-0.000003,-0.000000,0.000000,0.005847,0.008218,0.001831,0.000000,0.000000,-3.202148,-0.071968,0.049101,-1.146305,0,0,0,0,-0.008972,0.009515,-0.517371,0.000000,0.000000,0.000000
highres_imu,10,1511126308174849792.000000,0.000000,-0.000003,-0.000000,0.000000,0.010210,0.007797,0.000780,0.000000,0.000000,-3.202148,-0.071968,0.049101,-1.146305,0,0,0,0,-0.008972,0.009515,-0.517371,0.000000,0.000000,0.000000
attitude,10,1511126308176443904.000000,0.000000,-0.000003,-0.000000,0.000000,0.010210,0.007797,0.000780,0.000000,0.000000,-3.202148,-0.071955,0.049081,-1.145870,0,0,0,0,-0.008972,0.009515,-0.517371,0.000000,0.000000,0.000000
highres_imu,10,1511126308182401024.000000,0.000000,-0.000003,-0.000000,0.000000,0.005848,0.009070,0.000235,0.000000,0.000000,-3.202148,-0.071955,0.049081,-1.145870,0,0,0,0,-0.008972,0.009515,-0.517371,0.000000,0.000000,0.000000
highres_imu,10,1511126308185992448.000000,0.000000,-0.000003,-0.000000,0.000000,0.009368,0.008648,0.001100,0.000000,0.000000,-3.202148,-0.071955,0.049081,-1.145870,0,0,0,0,-0.008972,0.009515,-0.517371,0.000000,0.000000,0.000000
highres_imu,10,1511126308190492672.000000,0.000000,-0.000003,-0.000000,0.000000,0.006070,0.007468,-0.003490,0.000000,0.000000,-3.202148,-0.071955,0.049081,-1.145870,0,0,0,0,-0.008972,0.009515,-0.517371,0.000000,0.000000,0.000000
attitude,10,1511126308191990784.000000,0.000000,-0.000003,-0.000000,0.000000,0.006070,0.007468,-0.003490,0.000000,0.000000,-3.202148,-0.071947,0.049063,-1.145242,0,0,0,0,-0.008972,0.009515,-0.517371,0.000000,0.000000,0.000000
highres_imu,10,1511126308194841856.000000,0.000000,-0.000003,-0.000000,0.000000,0.007231,0.009495,0.001086,0.000000,0.000000,-3.202148,-0.071947,0.049063,-1.145242,0,0,0,0,-0.008972,0.009515,-0.517371,0.000000,0.000000,0.000000
attitude,10,1511126308196143872.000000,0.000000,-0.000003,-0.000000,0.000000,0.007231,0.009495,0.001086,0.000000,0.000000,-3.202148,-0.071943,0.049062,-1.145018,0,0,0,0,-0.008972,0.009515,-0.517371,0.000000,0.000000,0.000000
highres_imu,10,1511126308201655040.000000,0.000000,-0.000003,-0.000000,0.000000,0.010743,0.009602,0.000981,0.000000,0.000000,-3.202148,-0.071943,0.049062,-1.145018,0,0,0,0,-0.008972,0.009515,-0.517371,0.000000,0.000000,0.000000
highres_imu,10,1511126308204749568.000000,0.000000,-0.000003,-0.000000,0.000000,0.007130,0.010889,0.000684,0.000000,0.000000,-3.202148,-0.071943,0.049062,-1.145018,0,0,0,0,-0.008972,0.009515,-0.517371,0.000000,0.000000,0.000000
highres_imu,10,1511126308210232064.000000,0.000000,-0.000003,-0.000000,0.000000,0.010638,0.010242,0.000032,0.000000,0.000000,-3.202148,-0.071943,0.049062,-1.145018,0,0,0,0,-0.008972,0.009515,-0.517371,0.000000,0.000000,0.000000
attitude,10,1511126308211804160.000000,0.000000,-0.000003,-0.000000,0.000000,0.010638,0.010242,0.000032,0.000000,0.000000,-3.202148,-0.071907,0.049063,-1.144164,0,0,0,0,-0.008972,0.009515,-0.517371,0.000000,0.000000,0.000000
highres_imu,10,1511126308214384384.000000,0.000000,-0.000003,-0.000000,0.000000,0.007445,0.009601,-0.004128,0.000000,0.000000,-3.202148,-0.071907,0.049063,-1.144164,0,0,0,0,-0.008972,0.009515,-0.517371,0.000000,0.000000,0.000000
attitude,10,1511126308219215360.000000,0.000000,-0.000003,-0.000000,0.000000,0.007445,0.009601,-0.004128,0.000000,0.000000,-3.202148,-0.071890,0.049059,-1.143747,0,0,0,0,-0.008972,0.009515,-0.517371,0.000000,0.000000,0.000000
highres_imu,10,1511126308222006272.000000,0.000000,-0.000003,-0.000000,0.000000,0.011577,0.007687,-0.000953,0.000000,0.000000,-3.202148,-0.071890,0.049059,-1.143747,0,0,0,0,-0.008972,0.009515,-0.517371,0.000000,0.000000,0.000000
highres_imu,11,1511126308329688832.000000,0.000000,-0.000003,-0.000000,0.000000,0.010518,0.008218,0.000980,0.000000,0.000000,-3.202148,-0.071890,0.049059,-1.143747,0,0,0,0,-0.008972,0.009515,-0.517371,0.000000,0.000000,0.000000
attitude,11,1511126308331263744.000000,0.000000,-0.000003,-0.000000,0.000000,0.010518,0.008218,0.000980,0.000000,0.000000,-3.202148,-0.071850,0.049035,-1.143111,0,0,0,0,-0.008972,0.009515,-0.517371,0.000000,0.000000,0.000000
attitude,11,1511126308345872128.000000,0.000000,-0.000003,-0.000000,0.000000,0.010518,0.008218,0.000980,0.000000,0.000000,-3.202148,-0.071750,0.048951,-1.137298,0,0,0,0,-0.008972,0.009515,-0.517371,0.000000,0.000000,0.000000
highres_imu,11,1511126308350671872.000000,0.000000,-0.000003,-0.000000,0.000000,0.004996,0.009809,-0.002017,0.000000,0.000000,-3.202148,-0.071750,0.048951,-1.137298,0,0,0,0,-0.008972,0.009515,-0.517371,0.000000,0.000000,0.000000
attitude,12,1511126308352232192.000000,0.000000,-0.000003,-0.000000,0.000000,0.004996,0.009809,-0.002017,0.000000,0.000000,-3.202148,-0.071758,0.048942,-1.136913,0,0,0,0,-0.008972,0.009515,-0.517371,0.000000,0.000000,0.000000
highres_imu,12,1511126308356901376.000000,0.000000,-0.000003,-0.000000,0.000000,0.009577,0.009703,0.000548,0.000000,0.000000,-3.202148,-0.071758,0.048942,-1.136913,0,0,0,0,-0.008972,0.009515,-0.517371,0.000000,0.000000,0.000000
highres_imu,12,1511126308359924480.000000,0.000000,-0.000003,-0.000000,0.000000,0.006478,0.008218,-0.002427,0.000000,0.000000,-3.202148,-0.071758,0.048942,-1.136913,0,0,0,0,-0.008972,0.009515,-0.517371,0.000000,0.000000,0.000000
attitude,12,1511126308364552192.000000,0.000000,-0.000003,-0.000000,0.000000,0.006478,0.008218,-0.002427,0.000000,0.000000,-3.202148,-0.071748,0.048938,-1.136289,0,0,0,0,-0.008972,0.009515,-0.517371,0.000000,0.000000,0.000000
highres_imu,12,1511126308367357952.000000,0.000000,-0.000003,-0.000000,0.000000,0.009467,0.009604,0.001090,0.000000,0.000000,-3.202148,-0.071748,0.048938,-1.136289,0,0,0,0,-0.008972,0.009515,-0.517371,0.000000,0.000000,0.000000
highres_imu,12,1511126308370127104.000000,0.000000,-0.000003,-0.000000,0.000000,0.005635,0.008431,-0.004234,0.000000,0.000000,-3.202148,-0.071748,0.048938,-1.136289,0,0,0,0,-0.008972,0.009515,-0.517371,0.000000,0.000000,0.000000
attitude,12,1511126308373154560.000000,0.000000,-0.000003,-0.000000,0.000000,0.005635,0.008431,-0.004234,0.000000,0.000000,-3.202148,-0.071741,0.048928,-1.135878,0,0,0,0,-0.008972,0.009515,-0.517371,0.000000,0.000000,0.000000
highres_imu,12,1511126308377636096.000000,0.000000,-0.000003,-0.000000,0.000000,0.007170,0.010258,-0.000099,0.000000,0.000000,-3.202148,-0.071741,0.048928,-1.135878,0,0,0,0,-0.008972,0.009515,-0.517371,0.000000,0.000000,0.000000
local_position_ned,12,1511126308379186944.000000,0.000000,-0.000003,-0.000000,0.000000,0.007170,0.010258,-0.000099,0.000000,0.000000,-3.236205,-0.071741,0.048928,-1.135878,0,0,0,0,-0.002763,0.007634,-0.522867,0.000000,0.000000,0.000000
highres_imu,12,1511126308381981952.000000,0.000000,-0.000003,-0.000000,0.000000,0.009683,0.009388,-0.001356,0.000000,0.000000,-3.236205,-0.071741,0.048928,-1.135878,0,0,0,0,-0.002763,0.007634,-0.522867,0.000000,0.000000,0.000000
attitude,12,1511126308386298112.000000,0.000000,-0.000003,-0.000000,0.000000,0.009683,0.009388,-0.001356,0.000000,0.000000,-3.236205,-0.071730,0.048927,-1.135248,0,0,0,0,-0.002763,0.007634,-0.522867,0.000000,0.000000,0.000000
highres_imu,12,1511126308389542912.000000,0.000000,-0.000003,-0.000000,0.000000,0.008837,0.009917,0.000238,0.000000,0.000000,-3.236205,-0.071730,0.048927,-1.135248,0,0,0,0,-0.002763,0.007634,-0.522867,0.000000,0.000000,0.000000
highres_imu,12,1511126308392035072.000000,0.000000,-0.000003,-0.000000,0.000000,0.009470,0.008431,-0.002643,0.000000,0.000000,-3.236205,-0.071730,0.048927,-1.135248,0,0,0,0,-0.002763,0.007634,-0.522867,0.000000,0.000000,0.000000
attitude,12,1511126308393430272.000000,0.000000,-0.000003,-0.000000,0.000000,0.009470,0.008431,-0.002643,0.000000,0.000000,-3.236205,-0.071710,0.048918,-1.134828,0,0,0,0,-0.002763,0.007634,-0.522867,0.000000,0.000000,0.000000
highres_imu,12,1511126308397600512.000000,0.000000,-0.000003,-0.000000,0.000000,0.005099,0.007576,-0.003605,0.000000,0.000000,-3.236205,-0.071710,0.048918,-1.134828,0,0,0,0,-0.002763,0.007634,-0.522867,0.000000,0.000000,0.000000
highres_imu,12,1511126308400401664.000000,0.000000,-0.000003,-0.000000,0.000000,0.008721,0.008112,0.000874,0.000000,0.000000,-3.236205,-0.071710,0.048918,-1.134828,0,0,0,0,-0.002763,0.007634,-0.522867,0.000000,0.000000,0.000000
attitude,12,1511126308404551168.000000,0.000000,-0.000003,-0.000000,0.000000,0.008721,0.008112,0.000874,0.000000,0.000000,-3.236205,-0.071699,0.048886,-1.134217,0,0,0,0,-0.002763,0.007634,-0.522867,0.000000,0.000000,0.000000
highres_imu,12,1511126308407623936.000000,0.000000,-0.000003,-0.000000,0.000000,0.005744,0.007592,-0.002940,0.000000,0.000000,-3.236205,-0.071699,0.048886,-1.134217,0,0,0,0,-0.002763,0.007634,-0.522867,0.000000,0.000000,0.000000
highres_imu,12,1511126308410278144.000000,0.000000,-0.000003,-0.000000,0.000000,0.009467,0.009180,0.000882,0.000000,0.000000,-3.236205,-0.071699,0.048886,-1.134217,0,0,0,0,-0.002763,0.007634,-0.522867,0.000000,0.000000,0.000000
attitude,12,1511126308411579648.000000,0.000000,-0.000003,-0.000000,0.000000,0.009467,0.009180,0.000882,0.000000,0.000000,-3.236205,-0.071691,0.048873,-1.133801,0,0,0,0,-0.002763,0.007634,-0.522867,0.000000,0.000000,0.000000
highres_imu,12,1511126308416984064.000000,0.000000,-0.000003,-0.000000,0.000000,0.009382,0.007260,-0.002526,0.000000,0.000000,-3.236205,-0.071691,0.048873,-1.133801,0,0,0,0,-0.002763,0.007634,-0.522867,0.000000,0.000000,0.000000
highres_imu,12,1511126308421169920.000000,0.000000,-0.000003,-0.000000,0.000000,0.008508,0.010880,0.003003,0.000000,0.000000,-3.236205,-0.071691,0.048873,-1.133801,0,0,0,0,-0.002763,0.007634,-0.522867,0.000000,0.000000,0.000000
attitude,12,1511126308422657024.000000,0.000000,-0.000003,-0.000000,0.000000,0.008508,0.010880,0.003003,0.000000,0.000000,-3.236205,-0.071678,0.048860,-1.133193,0,0,0,0,-0.002763,0.007634,-0.522867,0.000000,0.000000,0.000000
highres_imu,12,1511126308426610176.000000,0.000000,-0.000003,-0.000000,0.000000,0.007755,0.009915,-0.001356,0.000000,0.000000,-3.236205,-0.071678,0.048860,-1.133193,0,0,0,0,-0.002763,0.007634,-0.522867,0.000000,0.000000,0.000000
highres_imu,13,1511126308541468416.000000,0.000000,-0.000003,-0.000000,0.000000,0.009998,0.008542,0.000240,0.000000,0.000000,-3.236205,-0.071678,0.048860,-1.133193,0,0,0,0,-0.002763,0.007634,-0.522867,0.000000,0.000000,0.000000
attitude,14,1511126308557570560.000000,0.000000,-0.000003,-0.000000,0.000000,0.009998,0.008542,0.000240,0.000000,0.000000,-3.236205,-0.071635,0.048831,-1.126407,0,0,0,0,-0.002763,0.007634,-0.522867,0.000000,0.000000,0.000000
highres_imu,14,1511126308562149120.000000,0.000000,-0.000003,-0.000000,0.000000,0.006888,0.008542,0.000754,0.000000,0.000000,-3.236205,-0.071635,0.048831,-1.126407,0,0,0,0,-0.002763,0.007634,-0.522867,0.000000,0.000000,0.000000
attitude,14,1511126308563630592.000000,0.000000,-0.000003,-0.000000,0.000000,0.006888,0.008542,0.000754,0.000000,0.000000,-3.236205,-0.071635,0.048819,-1.126007,0,0,0,0,-0.002763,0.007634,-0.522867,0.000000,0.000000,0.000000
highres_imu,14,1511126308568230912.000000,0.000000,-0.000003,-0.000000,0.000000,0.010530,0.007899,0.001193,0.000000,0.000000,-3.236205,-0.071635,0.048819,-1.126007,0,0,0,0,-0.002763,0.007634,-0.522867,0.000000,0.000000,0.000000
highres_imu,14,1511126308571072512.000000,0.000000,-0.000003,-0.000000,0.000000,0.005952,0.007474,-0.001999,0.000000,0.000000,-3.236205,-0.071635,0.048819,-1.126007,0,0,0,0,-0.002763,0.007634,-0.522867,0.000000,0.000000,0.000000
attitude,14,1511126308572557568.000000,0.000000,-0.000003,-0.000000,0.000000,0.005952,0.007474,-0.001999,0.000000,0.000000,-3.236205,-0.071621,0.048803,-1.125594,0,0,0,0,-0.002763,0.007634,-0.522867,0.000000,0.000000,0.000000
highres_imu,14,1511126308576979968.000000,0.000000,-0.000003,-0.000000,0.000000,0.006413,0.009072,0.001424,0.000000,0.000000,-3.236205,-0.071621,0.048803,-1.125594,0,0,0,0,-0.002763,0.007634,-0.522867,0.000000,0.000000,0.000000
highres_imu,14,1511126308580033280.000000,0.000000,-0.000003,-0.000000,0.000000,0.009581,0.008428,0.000658,0.000000,0.000000,-3.236205,-0.071621,0.048803,-1.125594,0,0,0,0,-0.002763,0.007634,-0.522867,0.000000,0.000000,0.000000
local_position_ned,14,1511126308584769280.000000,0.000000,-0.000003,-0.000000,0.000000,0.009581,0.008428,0.000658,0.000000,0.000000,-3.268435,-0.071621,0.048803,-1.125594,0,0,0,0,0.002750,0.005895,-0.527213,0.000000,0.000000,0.000000
highres_imu,15,1511126308691547648.000000,0.000000,-0.000003,-0.000000,0.000000,0.009047,0.008754,0.001204,0.000000,0.000000,-3.268435,-0.071621,0.048803,-1.125594,0,0,0,0,0.002750,0.005895,-0.527213,0.000000,0.000000,0.000000
attitude,15,1511126308693016320.000000,0.000000,-0.000003,-0.000000,0.000000,0.009047,0.008754,0.001204,0.000000,0.000000,-3.268435,-0.071600,0.048788,-1.124548,0,0,0,0,0.002750,0.005895,-0.527213,0.000000,0.000000,0.000000
highres_imu,15,1511126308697689600.000000,0.000000,-0.000003,-0.000000,0.000000,0.004246,0.009393,-0.001356,0.000000,0.000000,-3.268435,-0.071600,0.048788,-1.124548,0,0,0,0,0.002750,0.005895,-0.527213,0.000000,0.000000,0.000000
highres_imu,15,1511126308702394624.000000,0.000000,-0.000003,-0.000000,0.000000,0.007647,0.010023,-0.000311,0.000000,0.000000,-3.268435,-0.071600,0.048788,-1.124548,0,0,0,0,0.002750,0.005895,-0.527213,0.000000,0.000000,0.000000
attitude,15,1511126308703879168.000000,0.000000,-0.000003,-0.000000,0.000000,0.007647,0.010023,-0.000311,0.000000,0.000000,-3.268435,-0.071604,0.048794,-1.123917,0,0,0,0,0.002750,0.005895,-0.527213,0.000000,0.000000,0.000000
highres_imu,15,1511126308708549632.000000,0.000000,-0.000003,-0.000000,0.000000,0.002757,0.009816,-0.002526,0.000000,0.000000,-3.268435,-0.071604,0.048794,-1.123917,0,0,0,0,0.002750,0.005895,-0.527213,0.000000,0.000000,0.000000
highres_imu,15,1511126308711534848.000000,0.000000,-0.000003,-0.000000,0.000000,0.005922,0.010661,0.002773,0.000000,0.000000,-3.268435,-0.071604,0.048794,-1.123917,0,0,0,0,0.002750,0.005895,-0.527213,0.000000,0.000000,0.000000
highres_imu,15,1511126308717478656.000000,0.000000,-0.000003,-0.000000,0.000000,0.007018,0.010027,0.001725,0.000000,0.000000,-3.268435,-0.071604,0.048794,-1.123917,0,0,0,0,0.002750,0.005895,-0.527213,0.000000,0.000000,0.000000
attitude,15,1511126308718976768.000000,0.000000,-0.000003,-0.000000,0.000000,0.007018,0.010027,0.001725,0.000000,0.000000,-3.268435,-0.071618,0.048799,-1.123304,0,0,0,0,0.002750,0.005895,-0.527213,0.000000,0.000000,0.000000
highres_imu,15,1511126308723693568.000000,0.000000,-0.000003,-0.000000,0.000000,0.006392,0.011199,0.003743,0.000000,0.000000,-3.268435,-0.071618,0.048799,-1.123304,0,0,0,0,0.002750,0.005895,-0.527213,0.000000,0.000000,0.000000
attitude,15,1511126308725196544.000000,0.000000,-0.000003,-0.000000,0.000000,0.006392,0.011199,0.003743,0.000000,0.000000,-3.268435,-0.071629,0.048807,-1.122869,0,0,0,0,0.002750,0.005895,-0.527213,0.000000,0.000000,0.000000
highres_imu,15,1511126308733219840.000000,0.000000,-0.000003,-0.000000,0.000000,0.004251,0.008738,-0.001687,0.000000,0.000000,-3.268435,-0.071629,0.048807,-1.122869,0,0,0,0,0.002750,0.005895,-0.527213,0.000000,0.000000,0.000000
highres_imu,15,1511126308741004800.000000,0.000000,-0.000003,-0.000000,0.000000,0.008516,0.009189,0.000900,0.000000,0.000000,-3.268435,-0.071629,0.048807,-1.122869,0,0,0,0,0.002750,0.005895,-0.527213,0.000000,0.000000,0.000000
attitude,15,1511126308742461952.000000,0.000000,-0.000003,-0.000000,0.000000,0.008516,0.009189,0.000900,0.000000,0.000000,-3.268435,-0.071557,0.048735,-1.117350,0,0,0,0,0.002750,0.005895,-0.527213,0.000000,0.000000,0.000000
highres_imu,16,1511126308755575552.000000,0.000000,-0.000003,-0.000000,0.000000,0.008517,0.009711,0.000145,0.000000,0.000000,-3.268435,-0.071557,0.048735,-1.117350,0,0,0,0,0.002750,0.005895,-0.527213,0.000000,0.000000,0.000000
highres_imu,16,1511126308761915136.000000,0.000000,-0.000003,-0.000000,0.000000,0.008934,0.009601,0.001193,0.000000,0.000000,-3.268435,-0.071557,0.048735,-1.117350,0,0,0,0,0.002750,0.005895,-0.527213,0.000000,0.000000,0.000000
highres_imu,16,1511126308766372096.000000,0.000000,-0.000003,-0.000000,0.000000,0.004353,0.009277,-0.001589,0.000000,0.000000,-3.268435,-0.071557,0.048735,-1.117350,0,0,0,0,0.002750,0.005895,-0.527213,0.000000,0.000000,0.000000
attitude,16,1511126308767846144.000000,0.000000,-0.000003,-0.000000,0.000000,0.004353,0.009277,-0.001589,0.000000,0.000000,-3.268435,-0.071568,0.048727,-1.115947,0,0,0,0,0.002750,0.005895,-0.527213,0.000000,0.000000,0.000000
highres_imu,16,1511126308772009216.000000,0.000000,-0.000003,-0.000000,0.000000,0.007429,0.009713,0.002891,0.000000,0.000000,-3.268435,-0.071568,0.048727,-1.115947,0,0,0,0,0.002750,0.005895,-0.527213,0.000000,0.000000,0.000000
highres_imu,16,1511126308774717952.000000,0.000000,-0.000003,-0.000000,0.000000,0.008725,0.008964,0.000133,0.000000,0.000000,-3.268435,-0.071568,0.048727,-1.115947,0,0,0,0,0.002750,0.005895,-0.527213,0.000000,0.000000,0.000000
highres_imu,16,1511126308778644480.000000,0.000000,-0.000003,-0.000000,0.000000,0.007035,0.009599,0.001727,0.000000,0.000000,-3.268435,-0.071568,0.048727,-1.115947,0,0,0,0,0.002750,0.005895,-0.527213,0.000000,0.000000,0.000000
attitude,16,1511126308780435968.000000,0.000000,-0.000003,-0.000000,0.000000,0.007035,0.009599,0.001727,0.000000,0.000000,-3.268435,-0.071564,0.048720,-1.115146,0,0,0,0,0.002750,0.005895,-0.527213,0.000000,0.000000,0.000000
local_position_ned,16,1511126308792010752.000000,0.000000,-0.000003,-0.000000,0.000000,0.007035,0.009599,0.001727,0.000000,0.000000,-3.294766,-0.071564,0.048720,-1.115146,0,0,0,0,0.007366,0.005839,-0.526902,0.000000,0.000000,0.000000
highres_imu,16,1511126308796204288.000000,0.000000,-0.000003,-0.000000,0.000000,0.007664,0.008643,-0.000610,0.000000,0.000000,-3.294766,-0.071564,0.048720,-1.115146,0,0,0,0,0.007366,0.005839,-0.526902,0.000000,0.000000,0.000000
attitude,16,1511126308797519104.000000,0.000000,-0.000003,-0.000000,0.000000,0.007664,0.008643,-0.000610,0.000000,0.000000,-3.294766,-0.071560,0.048715,-1.114943,0,0,0,0,0.007366,0.005839,-0.526902,0.000000,0.000000,0.000000
highres_imu,16,1511126308801660160.000000,0.000000,-0.000003,-0.000000,0.000000,0.003719,0.008640,-0.002330,0.000000,0.000000,-3.294766,-0.071560,0.048715,-1.114943,0,0,0,0,0.007366,0.005839,-0.526902,0.000000,0.000000,0.000000
highres_imu,17,1511126308906721536.000000,0.000000,-0.000003,-0.000000,0.000000,0.009999,0.008006,-0.001465,0.000000,0.000000,-3.294766,-0.071560,0.048715,-1.114943,0,0,0,0,0.007366,0.005839,-0.526902,0.000000,0.000000,0.000000
attitude,17,1511126308908300032.000000,0.000000,-0.000003,-0.000000,0.000000,0.009999,0.008006,-0.001465,0.000000,0.000000,-3.294766,-0.071549,0.048703,-1.114353,0,0,0,0,0.007366,0.005839,-0.526902,0.000000,0.000000,0.000000
highres_imu,17,1511126308911160320.000000,0.000000,-0.000003,-0.000000,0.000000,0.009905,0.010239,0.002051,0.000000,0.000000,-3.294766,-0.071549,0.048703,-1.114353,0,0,0,0,0.007366,0.005839,-0.526902,0.000000,0.000000,0.000000
attitude,17,1511126308916118784.000000,0.000000,-0.000003,-0.000000,0.000000,0.009905,0.010239,0.002051,0.000000,0.000000,-3.294766,-0.071530,0.048701,-1.113758,0,0,0,0,0.007366,0.005839,-0.526902,0.000000,0.000000,0.000000
highres_imu,17,1511126308923944192.000000,0.000000,-0.000003,-0.000000,0.000000,0.005315,0.008963,-0.001468,0.000000,0.000000,-3.294766,-0.071530,0.048701,-1.113758,0,0,0,0,0.007366,0.005839,-0.526902,0.000000,0.000000,0.000000
attitude,17,1511126308925449728.000000,0.000000,-0.000003,-0.000000,0.000000,0.005315,0.008963,-0.001468,0.000000,0.000000,-3.294766,-0.071514,0.048697,-1.112978,0,0,0,0,0.007366,0.005839,-0.526902,0.000000,0.000000,0.000000
highres_imu,17,1511126308931512832.000000,0.000000,-0.000003,-0.000000,0.000000,0.008194,0.007688,-0.002632,0.000000,0.000000,-3.294766,-0.071514,0.048697,-1.112978,0,0,0,0,0.007366,0.005839,-0.526902,0.000000,0.000000,0.000000
attitude,17,1511126308947778560.000000,0.000000,-0.000003,-0.000000,0.000000,0.008194,0.007688,-0.002632,0.000000,0.000000,-3.294766,-0.071480,0.048679,-1.111981,0,0,0,0,0.007366,0.005839,-0.526902,0.000000,0.000000,0.000000
attitude,17,1511126308952091648.000000,0.000000,-0.000003,-0.000000,0.000000,0.008194,0.007688,-0.002632,0.000000,0.000000,-3.294766,-0.071397,0.048660,-1.106246,0,0,0,0,0.007366,0.005839,-0.526902,0.000000,0.000000,0.000000
highres_imu,18,1511126308955188736.000000,0.000000,-0.000003,-0.000000,0.000000,0.007867,0.009600,-0.001258,0.000000,0.000000,-3.294766,-0.071397,0.048660,-1.106246,0,0,0,0,0.007366,0.005839,-0.526902,0.000000,0.000000,0.000000
highres_imu,18,1511126308958493952.000000,0.000000,-0.000003,-0.000000,0.000000,0.005524,0.009808,-0.001699,0.000000,0.000000,-3.294766,-0.071397,0.048660,-1.106246,0,0,0,0,0.007366,0.005839,-0.526902,0.000000,0.000000,0.000000
attitude,18,1511126308959888896.000000,0.000000,-0.000003,-0.000000,0.000000,0.005524,0.009808,-0.001699,0.000000,0.000000,-3.294766,-0.071397,0.048659,-1.105858,0,0,0,0,0.007366,0.005839,-0.526902,0.000000,0.000000,0.000000
highres_imu,18,1511126308965699328.000000,0.000000,-0.000003,-0.000000,0.000000,0.010423,0.010557,0.000762,0.000000,0.000000,-3.294766,-0.071397,0.048659,-1.105858,0,0,0,0,0.007366,0.005839,-0.526902,0.000000,0.000000,0.000000
highres_imu,18,1511126308968376320.000000,0.000000,-0.000003,-0.000000,0.000000,0.008496,0.008533,-0.002860,0.000000,0.000000,-3.294766,-0.071397,0.048659,-1.105858,0,0,0,0,0.007366,0.005839,-0.526902,0.000000,0.000000,0.000000
highres_imu,18,1511126308973455360.000000,0.000000,-0.000003,-0.000000,0.000000,0.008730,0.010346,0.002780,0.000000,0.000000,-3.294766,-0.071397,0.048659,-1.105858,0,0,0,0,0.007366,0.005839,-0.526902,0.000000,0.000000,0.000000
local_position_ned,18,1511126308974812928.000000,0.000000,-0.000003,-0.000000,0.000000,0.008730,0.010346,0.002780,0.000000,0.000000,-3.317344,-0.071397,0.048659,-1.105858,0,0,0,0,0.012522,0.004557,-0.528228,0.000000,0.000000,0.000000
highres_imu,18,1511126308977435136.000000,0.000000,-0.000003,-0.000000,0.000000,0.007122,0.008637,-0.002116,0.000000,0.000000,-3.317344,-0.071397,0.048659,-1.105858,0,0,0,0,0.012522,0.004557,-0.528228,0.000000,0.000000,0.000000
attitude,18,1511126308978789120.000000,0.000000,-0.000003,-0.000000,0.000000,0.007122,0.008637,-0.002116,0.000000,0.000000,-3.317344,-0.071369,0.048657,-1.104849,0,0,0,0,0.012522,0.004557,-0.528228,0.000000,0.000000,0.000000
highres_imu,18,1511126308984635392.000000,0.000000,-0.000003,-0.000000,0.000000,0.005315,0.009601,0.000234,0.000000,0.000000,-3.317344,-0.071369,0.048657,-1.104849,0,0,0,0,0.012522,0.004557,-0.528228,0.000000,0.000000,0.000000
highres_imu,19,1511126309088247296.000000,0.000000,-0.000003,-0.000000,0.000000,0.008612,0.009496,0.002895,0.000000,0.000000,-3.317344,-0.071369,0.048657,-1.104849,0,0,0,0,0.012522,0.004557,-0.528228,0.000000,0.000000,0.000000
highres_imu,19,1511126309094031104.000000,0.000000,-0.000003,-0.000000,0.000000,0.005437,0.009073,0.000346,0.000000,0.000000,-3.317344,-0.071369,0.048657,-1.104849,0,0,0,0,0.012522,0.004557,-0.528228,0.000000,0.000000,0.000000
highres_imu,19,1511126309096797696.000000,0.000000,-0.000003,-0.000000,0.000000,0.010222,0.010239,0.001937,0.000000,0.000000,-3.317344,-0.071369,0.048657,-1.104849,0,0,0,0,0.012522,0.004557,-0.528228,0.000000,0.000000,0.000000
attitude,19,1511126309098251008.000000,0.000000,-0.000003,-0.000000,0.000000,0.010222,0.010239,0.001937,0.000000,0.000000,-3.317344,-0.071357,0.048651,-1.103862,0,0,0,0,0.012522,0.004557,-0.528228,0.000000,0.000000,0.000000
highres_imu,19,1511126309104314880.000000,0.000000,-0.000003,-0.000000,0.000000,0.006156,0.009282,-0.001684,0.000000,0.000000,-3.317344,-0.071357,0.048651,-1.103862,0,0,0,0,0.012522,0.004557,-0.528228,0.000000,0.000000,0.000000
highres_imu,19,1511126309107873280.000000,0.000000,-0.000003,-0.000000,0.000000,0.005430,0.009817,0.000991,0.000000,0.000000,-3.317344,-0.071357,0.048651,-1.103862,0,0,0,0,0.012522,0.004557,-0.528228,0.000000,0.000000,0.000000
highres_imu,19,1511126309114477568.000000,0.000000,-0.000003,-0.000000,0.000000,0.007032,0.008218,-0.002411,0.000000,0.000000,-3.317344,-0.071357,0.048651,-1.103862,0,0,0,0,0.012522,0.004557,-0.528228,0.000000,0.000000,0.000000
highres_imu,19,1511126309117529856.000000,0.000000,-0.000003,-0.000000,0.000000,0.005529,0.008961,0.000546,0.000000,0.000000,-3.317344,-0.071357,0.048651,-1.103862,0,0,0,0,0.012522,0.004557,-0.528228,0.000000,0.000000,0.000000
highres_imu,19,1511126309123476992.000000,0.000000,-0.000003,-0.000000,0.000000,0.009466,0.010134,0.003108,0.000000,0.000000,-3.317344,-0.071357,0.048651,-1.103862,0,0,0,0,0.012522,0.004557,-0.528228,0.000000,0.000000,0.000000
attitude,19,1511126309125091840.000000,0.000000,-0.000003,-0.000000,0.000000,0.009466,0.010134,0.003108,0.000000,0.000000,-3.317344,-0.071337,0.048648,-1.102676,0,0,0,0,0.012522,0.004557,-0.528228,0.000000,0.000000,0.000000
highres_imu,19,1511126309127958272.000000,0.000000,-0.000003,-0.000000,0.000000,0.006069,0.009074,-0.001144,0.000000,0.000000,-3.317344,-0.071337,0.048648,-1.102676,0,0,0,0,0.012522,0.004557,-0.528228,0.000000,0.000000,0.000000
attitude,19,1511126309145435648.000000,0.000000,-0.000003,-0.000000,0.000000,0.006069,0.009074,-0.001144,0.000000,0.000000,-3.317344,-0.071276,0.048603,-1.096775,0,0,0,0,0.012522,0.004557,-0.528228,0.000000,0.000000,0.000000
highres_imu,19,1511126309148288256.000000,0.000000,-0.000003,-0.000000,0.000000,0.004570,0.008535,-0.001583,0.000000,0.000000,-3.317344,-0.071276,0.048603,-1.096775,0,0,0,0,0.012522,0.004557,-0.528228,0.000000,0.000000,0.000000
highres_imu,20,1511126309155448576.000000,0.000000,-0.000003,-0.000000,0.000000,0.007756,0.008959,-0.000199,0.000000,0.000000,-3.317344,-0.071276,0.048603,-1.096775,0,0,0,0,0.012522,0.004557,-0.528228,0.000000,0.000000,0.000000
highres_imu,20,1511126309158372864.000000,0.000000,-0.000003,-0.000000,0.000000,0.004136,0.008853,-0.000947,0.000000,0.000000,-3.317344,-0.071276,0.048603,-1.096775,0,0,0,0,0.012522,0.004557,-0.528228,0.000000,0.000000,0.000000
highres_imu,20,1511126309165825280.000000,0.000000,-0.000003,-0.000000,0.000000,0.008497,0.009282,0.000224,0.000000,0.000000,-3.317344,-0.071276,0.048603,-1.096775,0,0,0,0,0.012522,0.004557,-0.528228,0.000000,0.000000,0.000000
highres_imu,20,1511126309170267648.000000,0.000000,-0.000003,-0.000000,0.000000,0.004142,0.009387,-0.000726,0.000000,0.000000,-3.317344,-0.071276,0.048603,-1.096775,0,0,0,0,0.012522,0.004557,-0.528228,0.000000,0.000000,0.000000
attitude,20,1511126309171599360.000000,0.000000,-0.000003,-0.000000,0.000000,0.004142,0.009387,-0.000726,0.000000,0.000000,-3.317344,-0.071284,0.048597,-1.095413,0,0,0,0,0.012522,0.004557,-0.528228,0.000000,0.000000,0.000000
highres_imu,20,1511126309174291200.000000,0.000000,-0.000003,-0.000000,0.000000,0.007550,0.010240,0.003321,0.000000,0.000000,-3.317344,-0.071284,0.048597,-1.095413,0,0,0,0,0.012522,0.004557,-0.528228,0.000000,0.000000,0.000000
local_position_ned,20,1511126309175615232.000000,0.000000,-0.000003,-0.000000,0.000000,0.007550,0.010240,0.003321,0.000000,0.000000,-3.337753,-0.071284,0.048597,-1.095413,0,0,0,0,0.016308,0.004555,-0.526556,0.000000,0.000000,0.000000
highres_imu,20,1511126309178234624.000000,0.000000,-0.000003,-0.000000,0.000000,0.007567,0.008538,-0.001658,0.000000,0.000000,-3.337753,-0.071284,0.048597,-1.095413,0,0,0,0,0.016308,0.004555,-0.526556,0.000000,0.000000,0.000000
attitude,20,1511126309179790080.000000,0.000000,-0.000003,-0.000000,0.000000,0.007567,0.008538,-0.001658,0.000000,0.000000,-3.337753,-0.071276,0.048596,-1.095013,0,0,0,0,0.016308,0.004555,-0.526556,0.000000,0.000000,0.000000
highres_imu,21,1511126309286497024.000000,0.000000,-0.000003,-0.000000,0.000000,0.004357,0.009282,-0.001572,0.000000,0.000000,-3.337753,-0.071276,0.048596,-1.095013,0,0,0,0,0.016308,0.004555,-0.526556,0.000000,0.000000,0.000000
highres_imu,21,1511126309290909184.000000,0.000000,-0.000003,-0.000000,0.000000,0.007550,0.008537,-0.001787,0.000000,0.000000,-3.337753,-0.071276,0.048596,-1.095013,0,0,0,0,0.016308,0.004555,-0.526556,0.000000,0.000000,0.000000
attitude,21,1511126309292381952.000000,0.000000,-0.000003,-0.000000,0.000000,0.007550,0.008537,-0.001787,0.000000,0.000000,-3.337753,-0.071275,0.048592,-1.094452,0,0,0,0,0.016308,0.004555,-0.526556,0.000000,0.000000,0.000000
highres_imu,21,1511126309295386112.000000,0.000000,-0.000003,-0.000000,0.000000,0.004352,0.009597,-0.000955,0.000000,0.000000,-3.337753,-0.071275,0.048592,-1.094452,0,0,0,0,0.016308,0.004555,-0.526556,0.000000,0.000000,0.000000
highres_imu,21,1511126309298134784.000000,0.000000,-0.000003,-0.000000,0.000000,0.007327,0.010769,0.003004,0.000000,0.000000,-3.337753,-0.071275,0.048592,-1.094452,0,0,0,0,0.016308,0.004555,-0.526556,0.000000,0.000000,0.000000
